[{
  "title": "高醫動物醫院",
  "totalScore": 4.6,
  "categoryName": "Veterinarian",
  "address": "No. 562號, Section 2, Bo'ai Road, West District, Chiayi City, Taiwan 600             600嘉義市西區博愛路二段562號",
  "locatedIn": null,
  "plusCode": "FCCJ+M8 West District, Chiayi City, Taiwan",
  "website": "facebook.com",
  "phone": "+886 5 235 1339",
  "temporarilyClosed": false,
  "permanentlyClosed": false,
  "rank": 11,
  "placeId": "ChIJlUUBLJmWbjQR1LNiVenurNw",
  "url": "https://www.google.com/maps/place/%E9%AB%98%E9%86%AB%E5%8B%95%E7%89%A9%E9%86%AB%E9%99%A2/@23.4716887,120.4286641,17z/data=!3m1!4b1!4m5!3m4!1s0x346e96992c014595:0xdcaceee95562b3d4!8m2!3d23.4716887!4d120.4308528",
  "location": {
    "lat": 23.4716887,
    "lng": 120.4308528
  },
  "searchString": "嘉義縣的寵物醫院",
  "openingHours": [
    {
      "day": "Tuesday,",
      "hours": "9AM to 9PM"
    },
    {
      "day": "Wednesday,",
      "hours": "9AM to 9PM"
    },
    {
      "day": "Thursday",
      "hours": "(Mid-Autumn Festival), 9AM to 9PM, Hours might differ"
    },
    {
      "day": "Friday,",
      "hours": "9AM to 9PM"
    },
    {
      "day": "Saturday,",
      "hours": "9AM to 9PM"
    },
    {
      "day": "Sunday,",
      "hours": "9AM to 9PM"
    },
    {
      "day": "Monday,",
      "hours": "9AM to 9PM"
    }
  ],
  "reviewsCount": 365
},
{
  "title": "育英動物醫院",
  "totalScore": 4.2,
  "categoryName": "Animal hospital",
  "address": "No. 262號, Minsheng South Road, West District, Chiayi City, Taiwan 600             600嘉義市西區民生南路262號",
  "locatedIn": null,
  "plusCode": "FC8W+Q6 West District, Chiayi City, Taiwan",
  "website": "iyp.com.tw",
  "phone": "+886 5 285 6100",
  "temporarilyClosed": false,
  "permanentlyClosed": false,
  "rank": 19,
  "placeId": "ChIJ0844NyOUbjQRkdw6guzMgMM",
  "url": "https://www.google.com/maps/place/%E8%82%B2%E8%8B%B1%E5%8B%95%E7%89%A9%E9%86%AB%E9%99%A2/@23.4668954,120.4433311,17z/data=!3m1!4b1!4m5!3m4!1s0x346e94233738ced3:0xc380ccec823adc91!8m2!3d23.4668954!4d120.4455198",
  "location": {
    "lat": 23.4668954,
    "lng": 120.4455198
  },
  "searchString": "嘉義縣的寵物醫院",
  "openingHours": [
    {
      "day": "Tuesday,",
      "hours": "9AM to 9PM"
    },
    {
      "day": "Wednesday,",
      "hours": "9AM to 9PM"
    },
    {
      "day": "Thursday",
      "hours": "(Mid-Autumn Festival), 9AM to 9PM, Hours might differ"
    },
    {
      "day": "Friday,",
      "hours": "9AM to 9PM"
    },
    {
      "day": "Saturday,",
      "hours": "9AM to 9PM"
    },
    {
      "day": "Sunday,",
      "hours": "Closed"
    },
    {
      "day": "Monday,",
      "hours": "9AM to 9PM"
    }
  ],
  "reviewsCount": 53
},
{
  "title": "全生動物醫院",
  "totalScore": 4.1,
  "categoryName": "Pet groomer",
  "address": "613, Taiwan, Chiayi County, Puzi City, 38-27號             613嘉義縣朴子市38-27號",
  "locatedIn": null,
  "plusCode": "F67M+CQ Puzi City, Chiayi County, Taiwan",
  "website": null,
  "phone": "+886 5 379 2393",
  "temporarilyClosed": false,
  "permanentlyClosed": false,
  "rank": 24,
  "placeId": "ChIJq6qq6mmcbjQR1c6glCejc8c",
  "url": "https://www.google.com/maps/place/%E5%85%A8%E7%94%9F%E5%8B%95%E7%89%A9%E9%86%AB%E9%99%A2/@23.4635835,120.2322795,17z/data=!3m1!4b1!4m5!3m4!1s0x346e9c69eaaaaaab:0xc773a32794a0ced5!8m2!3d23.4635835!4d120.2344682",
  "location": {
    "lat": 23.4635835,
    "lng": 120.2344682
  },
  "searchString": "嘉義縣的寵物醫院",
  "openingHours": [
    {
      "day": "Tuesday,",
      "hours": "9:30AM to 7:30PM"
    },
    {
      "day": "Wednesday,",
      "hours": "9:30AM to 7:30PM"
    },
    {
      "day": "Thursday",
      "hours": "(Mid-Autumn Festival), 9:30AM to 7:30PM, Hours might differ"
    },
    {
      "day": "Friday,",
      "hours": "9:30AM to 7:30PM"
    },
    {
      "day": "Saturday,",
      "hours": "9:30AM to 7:30PM"
    },
    {
      "day": "Sunday,",
      "hours": "9:30AM to 7:30PM"
    },
    {
      "day": "Monday,",
      "hours": "Closed"
    }
  ],
  "reviewsCount": 13
},
{
  "title": "育生動物醫院",
  "totalScore": 3.2,
  "categoryName": "Hospital",
  "address": "No. 96號, Anhe Road, Minxiong Township, Chiayi County, Taiwan 621             621嘉義縣民雄鄉安和路96號",
  "locatedIn": null,
  "plusCode": "HC3G+X5 Minxiong Township, Chiayi County, Taiwan",
  "website": null,
  "phone": "+886 5 206 0362",
  "temporarilyClosed": false,
  "permanentlyClosed": false,
  "rank": 27,
  "placeId": "ChIJYdRl9Oe9bjQRqNcNrTRt8bs",
  "url": "https://www.google.com/maps/place/%E8%82%B2%E7%94%9F%E5%8B%95%E7%89%A9%E9%86%AB%E9%99%A2/@23.5549707,120.4232177,17z/data=!3m1!4b1!4m5!3m4!1s0x346ebde7f465d461:0xbbf16d34ad0dd7a8!8m2!3d23.5549707!4d120.4254064",
  "location": {
    "lat": 23.5549707,
    "lng": 120.4254064
  },
  "searchString": "嘉義縣的寵物醫院",
  "openingHours": [
    {
      "day": "Tuesday,",
      "hours": "9AM to 9PM"
    },
    {
      "day": "Wednesday,",
      "hours": "9AM to 9PM"
    },
    {
      "day": "Thursday",
      "hours": "(Mid-Autumn Festival), 9AM to 9PM, Hours might differ"
    },
    {
      "day": "Friday,",
      "hours": "9AM to 9PM"
    },
    {
      "day": "Saturday,",
      "hours": "9AM to 9PM"
    },
    {
      "day": "Sunday,",
      "hours": "Closed"
    },
    {
      "day": "Monday,",
      "hours": "9AM to 9PM"
    }
  ],
  "reviewsCount": 9
},
{
  "title": "艾沐動物醫院",
  "totalScore": 5,
  "categoryName": "Animal hospital",
  "address": "No. 35號, Nanjing Road, West District, Chiayi City, Taiwan 600             600嘉義市西區南京路35號",
  "locatedIn": null,
  "plusCode": "FC4R+CV West District, Chiayi City, Taiwan",
  "website": "business.site",
  "phone": "+886 5 285 9222",
  "temporarilyClosed": false,
  "permanentlyClosed": false,
  "rank": 25,
  "placeId": "ChIJ9-wO-xCVbjQRa8ISvO0nSxg",
  "url": "https://www.google.com/maps/place/%E8%89%BE%E6%B2%90%E5%8B%95%E7%89%A9%E9%86%AB%E9%99%A2/@23.4561032,120.4399421,17z/data=!3m1!4b1!4m5!3m4!1s0x346e9510fb0eecf7:0x184b27edbc12c26b!8m2!3d23.4561032!4d120.4421308",
  "location": {
    "lat": 23.4561032,
    "lng": 120.4421308
  },
  "searchString": "嘉義縣的寵物醫院",
  "openingHours": [
    {
      "day": "Tuesday,",
      "hours": "Closed"
    },
    {
      "day": "Wednesday,",
      "hours": "9:30AM to 12PM, 2 to 5:30PM, 6:30 to 9PM"
    },
    {
      "day": "Thursday",
      "hours": "(Mid-Autumn Festival), 9:30AM to 12PM, 2 to 5:30PM, 6:30 to 9PM, Hours might differ"
    },
    {
      "day": "Friday,",
      "hours": "9:30AM to 12PM, 2 to 5:30PM, 6:30 to 9PM"
    },
    {
      "day": "Saturday,",
      "hours": "9:30AM to 12PM, 2 to 5:30PM, 6:30 to 9PM"
    },
    {
      "day": "Sunday,",
      "hours": "9:30AM to 12PM, 2 to 5:30PM, 6:30 to 9PM"
    },
    {
      "day": "Monday,",
      "hours": "9:30AM to 12PM, 2 to 5:30PM, 6:30 to 9PM"
    }
  ],
  "reviewsCount": 10
},
{
  "title": "寧鑫動物醫院",
  "totalScore": "",
  "categoryName": "Hospital",
  "address": "No. 53號, Zhonghua Road, Zhuqi Township, Chiayi County, Taiwan 604             604嘉義縣竹崎鄉中華路53號",
  "locatedIn": null,
  "plusCode": "GGCX+29 Zhuqi Township, Chiayi County, Taiwan",
  "website": null,
  "phone": "+886 920 202 838",
  "temporarilyClosed": false,
  "permanentlyClosed": false,
  "rank": 32,
  "placeId": "ChIJSwep6tjBbjQRjtF8g4l4uDs",
  "url": "https://www.google.com/maps/place/%E5%AF%A7%E9%91%AB%E5%8B%95%E7%89%A9%E9%86%AB%E9%99%A2/@23.520042,120.5462093,17z/data=!3m1!4b1!4m5!3m4!1s0x346ec1d8eaa9074b:0x3bb87889837cd18e!8m2!3d23.520042!4d120.548398",
  "location": {
    "lat": 23.520042,
    "lng": 120.548398
  },
  "searchString": "嘉義縣的寵物醫院"
},
{
  "title": "民族獸醫院",
  "totalScore": 3.9,
  "categoryName": "Veterinarian",
  "address": "No. 650, Zhongshan Road, West District, Chiayi City, Taiwan 600             600嘉義市西區中山路650號",
  "locatedIn": null,
  "plusCode": "FCGQ+5P West District, Chiayi City, Taiwan",
  "website": null,
  "phone": "+886 5 228 9595",
  "temporarilyClosed": false,
  "permanentlyClosed": false,
  "rank": 31,
  "placeId": "ChIJgbc2TyaUbjQRMFvZOhp8HUA",
  "url": "https://www.google.com/maps/place/%E6%B0%91%E6%97%8F%E7%8D%B8%E9%86%AB%E9%99%A2/@23.475473,120.4370653,17z/data=!3m1!4b1!4m5!3m4!1s0x346e94264f36b781:0x401d7c1a3ad95b30!8m2!3d23.475473!4d120.439254",
  "location": {
    "lat": 23.475473,
    "lng": 120.439254
  },
  "searchString": "嘉義縣的寵物醫院",
  "openingHours": [
    {
      "day": "Tuesday,",
      "hours": "9AM to 9PM"
    },
    {
      "day": "Wednesday,",
      "hours": "9AM to 9PM"
    },
    {
      "day": "Thursday",
      "hours": "(Mid-Autumn Festival), 9AM to 9PM, Hours might differ"
    },
    {
      "day": "Friday,",
      "hours": "9AM to 9PM"
    },
    {
      "day": "Saturday,",
      "hours": "9AM to 9PM"
    },
    {
      "day": "Sunday,",
      "hours": "9AM to 9PM"
    },
    {
      "day": "Monday,",
      "hours": "9AM to 9PM"
    }
  ],
  "reviewsCount": 169
},
{
  "title": "汪汪動物醫院",
  "totalScore": 2.6,
  "categoryName": "Hospital",
  "address": "621, Taiwan, Chiayi County, Minxiong Township, 1之20號             621嘉義縣民雄鄉1之20號",
  "locatedIn": null,
  "plusCode": "GCHX+PM Minxiong Township, Chiayi County, Taiwan",
  "website": null,
  "phone": "+886 5 221 4780",
  "temporarilyClosed": false,
  "permanentlyClosed": false,
  "rank": 22,
  "placeId": "ChIJHR0-7veVbjQRiDBjiFjC5mc",
  "url": "https://www.google.com/maps/place/%E6%B1%AA%E6%B1%AA%E5%8B%95%E7%89%A9%E9%86%AB%E9%99%A2/@23.5293551,120.4470459,17z/data=!3m1!4b1!4m5!3m4!1s0x346e95f7ee3e1d1d:0x67e6c25888633088!8m2!3d23.5293551!4d120.4492346",
  "location": {
    "lat": 23.5293551,
    "lng": 120.4492346
  },
  "searchString": "嘉義縣的寵物醫院",
  "openingHours": [
    {
      "day": "Tuesday,",
      "hours": "10AM to 12PM, 2 to 7PM"
    },
    {
      "day": "Wednesday,",
      "hours": "10AM to 12PM, 2 to 7PM"
    },
    {
      "day": "Thursday",
      "hours": "(Mid-Autumn Festival), 10AM to 12PM, 2 to 7PM, Hours might differ"
    },
    {
      "day": "Friday,",
      "hours": "10AM to 12PM, 2 to 7PM"
    },
    {
      "day": "Saturday,",
      "hours": "Closed"
    },
    {
      "day": "Sunday,",
      "hours": "Closed"
    },
    {
      "day": "Monday,",
      "hours": "10AM to 12PM, 2 to 7PM"
    }
  ],
  "reviewsCount": 9
},
{
  "title": "信安犬貓醫院",
  "totalScore": 3.8,
  "categoryName": "Animal hospital",
  "address": "651, Taiwan, Yunlin County, Beigang Township, 鎮華勝路428號             651雲林縣北港鎮鎮華勝路428號",
  "locatedIn": null,
  "plusCode": "H7MX+MR Beigang Township, Yunlin County, Taiwan",
  "website": null,
  "phone": "+886 5 783 5158",
  "temporarilyClosed": false,
  "permanentlyClosed": false,
  "rank": 30,
  "placeId": "ChIJT1IG-oiibjQRK0GEGVmRb7c",
  "url": "https://www.google.com/maps/place/%E4%BF%A1%E5%AE%89%E7%8A%AC%E8%B2%93%E9%86%AB%E9%99%A2/@23.5842007,120.2973823,17z/data=!3m1!4b1!4m5!3m4!1s0x346ea288fa06524f:0xb76f91591984412b!8m2!3d23.5842007!4d120.299571",
  "location": {
    "lat": 23.5842007,
    "lng": 120.299571
  },
  "searchString": "嘉義縣的寵物醫院",
  "openingHours": [
    {
      "day": "Tuesday,",
      "hours": "Closed"
    },
    {
      "day": "Wednesday,",
      "hours": "9AM to 12PM, 2 to 6PM, 7 to 9PM"
    },
    {
      "day": "Thursday",
      "hours": "(Mid-Autumn Festival), 9AM to 12PM, 2 to 6PM, 7 to 9PM, Hours might differ"
    },
    {
      "day": "Friday,",
      "hours": "9AM to 12PM, 2 to 6PM, 7 to 9PM"
    },
    {
      "day": "Saturday,",
      "hours": "9AM to 12PM, 2 to 6PM, 7 to 9PM"
    },
    {
      "day": "Sunday,",
      "hours": "4 to 6PM, 7 to 8PM"
    },
    {
      "day": "Monday,",
      "hours": "9AM to 12PM, 2 to 6PM, 7 to 9PM"
    }
  ],
  "reviewsCount": 93
},
{
  "title": "嘉保動物醫院",
  "totalScore": 4.1,
  "categoryName": "Hospital",
  "address": "號, No. 250, Section 2, Beigang Road, Taibao City, Chiayi County, Taiwan 612             號, No. 250北港路二段太保市嘉義縣612",
  "locatedIn": null,
  "plusCode": "F9XF+5X Taibao City, Chiayi County, Taiwan",
  "website": null,
  "phone": "+886 5 238 5580",
  "temporarilyClosed": false,
  "permanentlyClosed": false,
  "rank": 23,
  "placeId": "ChIJtRbDHgmXbjQRFMs7eONGDp4",
  "url": "https://www.google.com/maps/place/%E5%98%89%E4%BF%9D%E5%8B%95%E7%89%A9%E9%86%AB%E9%99%A2/@23.4979907,120.3727573,17z/data=!3m1!4b1!4m5!3m4!1s0x346e97091ec316b5:0x9e0e46e3783bcb14!8m2!3d23.4979907!4d120.374946",
  "location": {
    "lat": 23.4979907,
    "lng": 120.374946
  },
  "searchString": "嘉義縣的寵物醫院",
  "openingHours": [
    {
      "day": "Tuesday,",
      "hours": "9:30AM to 12PM, 5 to 8PM"
    },
    {
      "day": "Wednesday,",
      "hours": "9:30AM to 12PM, 3 to 8PM"
    },
    {
      "day": "Thursday",
      "hours": "(Mid-Autumn Festival), 9:30AM to 12PM, 3 to 8PM, Hours might differ"
    },
    {
      "day": "Friday,",
      "hours": "9:30AM to 12PM, 3 to 8PM"
    },
    {
      "day": "Saturday,",
      "hours": "9:30AM to 12PM, 3 to 6PM"
    },
    {
      "day": "Sunday,",
      "hours": "Closed"
    },
    {
      "day": "Monday,",
      "hours": "9:30AM to 12PM, 3 to 8PM"
    }
  ],
  "reviewsCount": 25
},
{
  "title": "居財紀念動物醫院",
  "totalScore": null,
  "categoryName": "Veterinarijos klinika",
  "address": "No. 150, Liucuo Road, West District, Chiayi City, Taivanas 600             600嘉義市西區劉厝路150號",
  "locatedIn": null,
  "plusCode": "FC79+C8 Vakarų rajonas, Chiayi City, Taivanas",
  "website": "animal-hospital.com.tw",
  "phone": "+886 933 679 722",
  "temporarilyClosed": false,
  "permanentlyClosed": false,
  "rank": 21,
  "placeId": "ChIJ77pGlbmWbjQRdElNyULHrHA",
  "url": "https://www.google.com/maps/place/%E5%B1%85%E8%B2%A1%E7%B4%80%E5%BF%B5%E5%8B%95%E7%89%A9%E9%86%AB%E9%99%A2/@23.4635224,120.4161308,17z/data=!3m1!4b1!4m5!3m4!1s0x346e96b99546baef:0x70acc742c94d4974!8m2!3d23.4635224!4d120.4183195",
  "location": {
    "lat": 23.4635224,
    "lng": 120.4183195
  },
  "searchString": "嘉義縣的寵物醫院",
  "openingHours": [
    null,
    null,
    {
      "day": "ketvirtadienis",
      "hours": "(Rudens vidurio šventė),09–21,Darbo laikas gali skirtis"
    },
    null,
    null,
    null,
    {
      "day": "pirmadienis,09–21.",
      "hours": "Slėpti savaitės darbo laiką"
    }
  ],
  "reviewsCount": 15
},
{
  "title": "文志動物醫院",
  "totalScore": 4,
  "categoryName": "Animal hospital",
  "address": "No. 319號, Datong Road, Beigang Township, Yunlin County, Taiwan 651             651雲林縣北港鎮大同路319號",
  "locatedIn": null,
  "plusCode": "H7FX+26 Beigang Township, Yunlin County, Taiwan",
  "website": null,
  "phone": "+886 5 773 2000",
  "temporarilyClosed": false,
  "permanentlyClosed": false,
  "rank": 28,
  "placeId": "ChIJsSvyGoiibjQRuWR_abZcKiA",
  "url": "https://www.google.com/maps/place/%E6%96%87%E5%BF%97%E5%8B%95%E7%89%A9%E9%86%AB%E9%99%A2/@23.572609,120.2958403,17z/data=!3m1!4b1!4m5!3m4!1s0x346ea2881af22bb1:0x202a5cb6697f64b9!8m2!3d23.572609!4d120.298029",
  "location": {
    "lat": 23.572609,
    "lng": 120.298029
  },
  "searchString": "嘉義縣的寵物醫院",
  "openingHours": [
    {
      "day": "Tuesday,",
      "hours": "9AM to 9PM"
    },
    {
      "day": "Wednesday,",
      "hours": "9AM to 9PM"
    },
    {
      "day": "Thursday",
      "hours": "(Mid-Autumn Festival), 9AM to 9PM, Hours might differ"
    },
    {
      "day": "Friday,",
      "hours": "9AM to 9PM"
    },
    {
      "day": "Saturday,",
      "hours": "9AM to 5PM"
    },
    {
      "day": "Sunday,",
      "hours": "Closed"
    },
    {
      "day": "Monday,",
      "hours": "9AM to 9PM"
    }
  ],
  "reviewsCount": 41
},
{
  "title": "九大動物醫院",
  "totalScore": 4.6,
  "categoryName": "動物病院",
  "address": "No. 67-1號, Tiyu Road, East District, Chiayi City, 台湾 60069             60069嘉義市東區體育路67-1號",
  "locatedIn": null,
  "plusCode": "FFF6+CJ 東区, 台湾 Chiayi City",
  "website": null,
  "phone": "+886 5 229 1608",
  "temporarilyClosed": false,
  "permanentlyClosed": false,
  "rank": 26,
  "placeId": "ChIJ-5qpYUiUbjQRuCuvro7Aj1I",
  "url": "https://www.google.com/maps/place/%E4%B9%9D%E5%A4%A7%E5%8B%95%E7%89%A9%E9%86%AB%E9%99%A2/@23.47354,120.4593263,17z/data=!3m1!4b1!4m5!3m4!1s0x346e944861a99afb:0x528fc08eaeaf2bb8!8m2!3d23.47354!4d120.461515",
  "location": {
    "lat": 23.47354,
    "lng": 120.461515
  },
  "searchString": "嘉義縣的寵物醫院",
  "openingHours": [
    null,
    null,
    {
      "day": "木曜日",
      "hours": "(中秋節)、定休日、祝休日の営業時間"
    },
    null,
    null,
    null,
    {
      "day": "月曜日、9時00分～12時00分、15時00分～21時00分.",
      "hours": "1 週間の営業時間を非表示"
    }
  ],
  "reviewsCount": 21
},
{
  "title": "國立嘉義大學動物醫院",
  "totalScore": 3.8,
  "categoryName": "Animal hospital",
  "address": "No. 580, Xinmin Road, West District, Chiayi City, Taiwan 600             600嘉義市西區新民路580號",
  "locatedIn": "National Chiayi University Sinmin Campus",
  "plusCode": "FC6V+XG West District, Chiayi City, Taiwan",
  "website": "ncyu.edu.tw",
  "phone": "+886 5 273 2988",
  "temporarilyClosed": false,
  "permanentlyClosed": false,
  "rank": 13,
  "placeId": "ChIJRxKZ1x6UbjQR3GvNs8q0wOk",
  "url": "https://www.google.com/maps/place/%E5%9C%8B%E7%AB%8B%E5%98%89%E7%BE%A9%E5%A4%A7%E5%AD%B8%E5%8B%95%E7%89%A9%E9%86%AB%E9%99%A2/@23.4624135,120.4416439,17z/data=!3m1!4b1!4m5!3m4!1s0x346e941ed7991247:0xe9c0b4cab3cd6bdc!8m2!3d23.4624135!4d120.4438326",
  "location": {
    "lat": 23.4624135,
    "lng": 120.4438326
  },
  "searchString": "嘉義縣的寵物醫院",
  "openingHours": [
    {
      "day": "Tuesday,",
      "hours": "8:30 to 11:30AM, 1:30 to 5PM"
    },
    {
      "day": "Wednesday,",
      "hours": "1:30 to 5PM, 6:30 to 8:30PM"
    },
    {
      "day": "Thursday",
      "hours": "(Mid-Autumn Festival), 8:30 to 11:30AM, 1:30 to 5PM, Hours might differ"
    },
    {
      "day": "Friday,",
      "hours": "8:30 to 11:30AM, 1:30 to 5PM"
    },
    {
      "day": "Saturday,",
      "hours": "Closed"
    },
    {
      "day": "Sunday,",
      "hours": "Closed"
    },
    {
      "day": "Monday,",
      "hours": "8:30 to 11:30AM, 1:30 to 5PM"
    }
  ],
  "reviewsCount": 84
},
{
  "title": "歐美嘉動物醫院",
  "totalScore": 4.9,
  "categoryName": "Animal hospital",
  "address": "No. 35號, Nanjing Road, West District, Chiayi City, Taiwan 600             600嘉義市西區南京路35號",
  "locatedIn": null,
  "plusCode": "FC4R+CV West District, Chiayi City, Taiwan",
  "website": null,
  "phone": "+886 5 284 2227",
  "temporarilyClosed": false,
  "permanentlyClosed": false,
  "rank": 14,
  "placeId": "ChIJGShDWxuUbjQRW_Tnm3QO4bk",
  "url": "https://www.google.com/maps/place/%E6%AD%90%E7%BE%8E%E5%98%89%E5%8B%95%E7%89%A9%E9%86%AB%E9%99%A2/@23.4560709,120.439977,17z/data=!3m1!4b1!4m5!3m4!1s0x346e941b5b432819:0xb9e10e749be7f45b!8m2!3d23.4560709!4d120.4421657",
  "location": {
    "lat": 23.4560709,
    "lng": 120.4421657
  },
  "searchString": "嘉義縣的寵物醫院",
  "openingHours": [
    {
      "day": "Tuesday,",
      "hours": "9:30AM to 12PM, 2 to 5:30PM, 6:30 to 9PM"
    },
    {
      "day": "Wednesday,",
      "hours": "9:30AM to 12PM, 2 to 5:30PM, 6:30 to 9PM"
    },
    {
      "day": "Thursday",
      "hours": "(Mid-Autumn Festival), 9:30AM to 12PM, 2 to 5:30PM, 6:30 to 9PM, Hours might differ"
    },
    {
      "day": "Friday,",
      "hours": "9:30AM to 12PM, 2 to 5:30PM, 6:30 to 9PM"
    },
    {
      "day": "Saturday,",
      "hours": "9:30AM to 12PM, 2 to 5:30PM, 6:30 to 9PM"
    },
    {
      "day": "Sunday,",
      "hours": "Closed"
    },
    {
      "day": "Monday,",
      "hours": "9:30AM to 12PM, 2 to 5:30PM, 6:30 to 9PM"
    }
  ],
  "reviewsCount": 32
},
{
  "title": "Wan Sun Veterinary Hospital",
  "totalScore": 4,
  "categoryName": "Animal hospital",
  "address": "No. 234號, Zhongshan Road, East District, Chiayi City, Taiwan 600             600嘉義市東區中山路234號",
  "locatedIn": null,
  "plusCode": "FFJ2+69 East District, Chiayi City, Taiwan",
  "website": null,
  "phone": "+886 5 225 9429",
  "temporarilyClosed": false,
  "permanentlyClosed": false,
  "rank": 20,
  "placeId": "ChIJQb2k2jOUbjQR5mQ-xNpjT1k",
  "url": "https://www.google.com/maps/place/Wan+Sun+Veterinary+Hospital/@23.480578,120.4487753,17z/data=!3m1!4b1!4m5!3m4!1s0x346e9433daa4bd41:0x594f63dac43e64e6!8m2!3d23.480578!4d120.450964",
  "location": {
    "lat": 23.480578,
    "lng": 120.450964
  },
  "searchString": "嘉義縣的寵物醫院",
  "openingHours": [
    {
      "day": "Tuesday,",
      "hours": "8:30AM to 9PM"
    },
    {
      "day": "Wednesday,",
      "hours": "8:30AM to 9PM"
    },
    {
      "day": "Thursday",
      "hours": "(Mid-Autumn Festival), 8:30AM to 9PM, Hours might differ"
    },
    {
      "day": "Friday,",
      "hours": "8:30AM to 9PM"
    },
    {
      "day": "Saturday,",
      "hours": "8:30AM to 9PM"
    },
    {
      "day": "Sunday,",
      "hours": "Closed"
    },
    {
      "day": "Monday,",
      "hours": "8:30AM to 9PM"
    }
  ],
  "reviewsCount": 66
},
{
  "title": "高品動物醫院",
  "totalScore": null,
  "categoryName": "Veterinarijos klinika",
  "address": "No. 489, Zhongxing Road, West District, Chiayi City, Taivanas 600             600嘉義市西區中興路489號",
  "locatedIn": null,
  "plusCode": "FCHH+GJ Vakarų rajonas, Chiayi City, Taivanas",
  "website": null,
  "phone": "+886 5 281 1893",
  "temporarilyClosed": false,
  "permanentlyClosed": false,
  "rank": 7,
  "placeId": "ChIJceGCTpuWbjQRqih2EjLhruw",
  "url": "https://www.google.com/maps/place/%E9%AB%98%E5%93%81%E5%8B%95%E7%89%A9%E9%86%AB%E9%99%A2/@23.4788039,120.4268846,17z/data=!3m1!4b1!4m5!3m4!1s0x346e969b4e82e171:0xecaee132127628aa!8m2!3d23.4788039!4d120.4290733",
  "location": {
    "lat": 23.4788039,
    "lng": 120.4290733
  },
  "searchString": "嘉義縣的寵物醫院",
  "openingHours": [
    null,
    null,
    {
      "day": "ketvirtadienis",
      "hours": "(Rudens vidurio šventė),10–12,13–21,Darbo laikas gali skirtis"
    },
    null,
    null,
    null,
    {
      "day": "pirmadienis,10–12,13–21.",
      "hours": "Slėpti savaitės darbo laiką"
    }
  ],
  "reviewsCount": 183
},
{
  "title": "維醫動物醫院",
  "totalScore": 4.7,
  "categoryName": "Animal hospital",
  "address": "No. 148-6, Section 2, Jianguo Road, Minxiong Township, Chiayi County, Taiwan 621             621嘉義縣民雄鄉建國路二段148-6號",
  "locatedIn": null,
  "plusCode": "GCPP+PH Minxiong Township, Chiayi County, Taiwan",
  "website": null,
  "phone": "+886 5 221 6160",
  "temporarilyClosed": false,
  "permanentlyClosed": false,
  "rank": 6,
  "placeId": "ChIJoUVxsgC-bjQRTwwltQk2WFw",
  "url": "https://www.google.com/maps/place/%E7%B6%AD%E9%86%AB%E5%8B%95%E7%89%A9%E9%86%AB%E9%99%A2/@23.5368576,120.4342749,17z/data=!3m1!4b1!4m5!3m4!1s0x346ebe00b27145a1:0x5c583609b5250c4f!8m2!3d23.5368576!4d120.4364636",
  "location": {
    "lat": 23.5368576,
    "lng": 120.4364636
  },
  "searchString": "嘉義縣的寵物醫院",
  "openingHours": [
    {
      "day": "Tuesday,",
      "hours": "9AM to 12PM, 2 to 8PM"
    },
    {
      "day": "Wednesday,",
      "hours": "9AM to 12PM, 2 to 8PM"
    },
    {
      "day": "Thursday",
      "hours": "(Mid-Autumn Festival), 9AM to 12PM, 2 to 8PM, Hours might differ"
    },
    {
      "day": "Friday,",
      "hours": "9AM to 12PM, 2 to 8PM"
    },
    {
      "day": "Saturday,",
      "hours": "9AM to 12PM, 2 to 7PM"
    },
    {
      "day": "Sunday,",
      "hours": "Closed"
    },
    {
      "day": "Monday,",
      "hours": "9AM to 12PM, 2 to 8PM"
    }
  ],
  "reviewsCount": 141
},
{
  "title": "揚名動物醫院",
  "totalScore": 4.6,
  "categoryName": "Animal hospital",
  "address": "No. 167號, Wufeng North Road, East District, Chiayi City, Taiwan 600             600嘉義市東區吳鳳北路167號",
  "locatedIn": null,
  "plusCode": "FFH3+39 East District, Chiayi City, Taiwan",
  "website": null,
  "phone": "+886 5 222 3630",
  "temporarilyClosed": false,
  "permanentlyClosed": false,
  "rank": 16,
  "placeId": "ChIJL8SbzjaUbjQRYuBmJuDoAp4",
  "url": "https://www.google.com/maps/place/%E6%8F%9A%E5%90%8D%E5%8B%95%E7%89%A9%E9%86%AB%E9%99%A2/@23.4776814,120.451192,17z/data=!3m1!4b1!4m5!3m4!1s0x346e9436ce9bc42f:0x9e02e8e02666e062!8m2!3d23.4776814!4d120.4533807",
  "location": {
    "lat": 23.4776814,
    "lng": 120.4533807
  },
  "searchString": "嘉義縣的寵物醫院",
  "reviewsCount": 19
},
{
  "title": "你我牠動物醫院",
  "totalScore": null,
  "categoryName": "Veterinarijos klinika",
  "address": "No. 236號, Renai Rd, West District, Chiayi City, Taivanas 600             600嘉義市西區仁愛路236號",
  "locatedIn": null,
  "plusCode": "FCCV+54 Vakarų rajonas, Chiayi City, Taivanas",
  "website": "m.facebook.com",
  "phone": "+886 5 228 3568",
  "temporarilyClosed": false,
  "permanentlyClosed": false,
  "rank": 17,
  "placeId": "ChIJfQKC9COUbjQRePX_sDhhk0w",
  "url": "https://www.google.com/maps/place/%E4%BD%A0%E6%88%91%E7%89%A0%E5%8B%95%E7%89%A9%E9%86%AB%E9%99%A2/@23.4704896,120.440584,17z/data=!3m1!4b1!4m5!3m4!1s0x346e9423f482027d:0x4c936138b0fff578!8m2!3d23.4704896!4d120.4427727",
  "location": {
    "lat": 23.4704896,
    "lng": 120.4427727
  },
  "searchString": "嘉義縣的寵物醫院",
  "openingHours": [
    null,
    null,
    {
      "day": "ketvirtadienis",
      "hours": "(Rudens vidurio šventė),10–21:30,Darbo laikas gali skirtis"
    },
    null,
    null,
    null,
    {
      "day": "pirmadienis,10–21:30.",
      "hours": "Slėpti savaitės darbo laiką"
    }
  ],
  "reviewsCount": 136
},
{
  "title": "保生動物醫院",
  "totalScore": 3.9,
  "categoryName": "Animal hospital",
  "address": "No. 138, Siwei Street, Dalin Township, Chiayi County, Taiwan 622             622嘉義縣大林鎮四維街138號",
  "locatedIn": null,
  "plusCode": "JF26+RW Dalin Township, Chiayi County, Taiwan",
  "website": null,
  "phone": "+886 5 265 5193",
  "temporarilyClosed": false,
  "permanentlyClosed": false,
  "rank": 5,
  "placeId": "ChIJqzc4jci-bjQRE9vxdWn4gq8",
  "url": "https://www.google.com/maps/place/%E4%BF%9D%E7%94%9F%E5%8B%95%E7%89%A9%E9%86%AB%E9%99%A2/@23.602117,120.4601182,17z/data=!3m1!4b1!4m5!3m4!1s0x346ebec88d3837ab:0xaf82f86975f1db13!8m2!3d23.602117!4d120.4623069",
  "location": {
    "lat": 23.602117,
    "lng": 120.4623069
  },
  "searchString": "嘉義縣的寵物醫院",
  "openingHours": [
    {
      "day": "Tuesday,",
      "hours": "8AM to 9PM"
    },
    {
      "day": "Wednesday,",
      "hours": "8AM to 9PM"
    },
    {
      "day": "Thursday",
      "hours": "(Mid-Autumn Festival), 8AM to 9PM, Hours might differ"
    },
    {
      "day": "Friday,",
      "hours": "8AM to 9PM"
    },
    {
      "day": "Saturday,",
      "hours": "8AM to 9PM"
    },
    {
      "day": "Sunday,",
      "hours": "Closed"
    },
    {
      "day": "Monday,",
      "hours": "8AM to 9PM"
    }
  ],
  "reviewsCount": 67
},
{
  "title": "Charity Animal Hospital",
  "totalScore": 4.1,
  "categoryName": "Veterinarian",
  "address": "No. 214號, Xinsheng Road, East District, Chiayi City, Taiwan 600             600嘉義市東區新生路214號",
  "locatedIn": null,
  "plusCode": "FFM6+99 East District, Chiayi City, Taiwan",
  "website": null,
  "phone": "+886 5 278 8067",
  "temporarilyClosed": false,
  "permanentlyClosed": false,
  "rank": 10,
  "placeId": "ChIJsTIKMrWVbjQRs7imnianBBQ",
  "url": "https://www.google.com/maps/place/Charity+Animal+Hospital/@23.4834705,120.4587783,17z/data=!3m1!4b1!4m5!3m4!1s0x346e95b5320a32b1:0x1404a7269ea6b8b3!8m2!3d23.4834705!4d120.460967",
  "location": {
    "lat": 23.4834705,
    "lng": 120.460967
  },
  "searchString": "嘉義縣的寵物醫院",
  "openingHours": [
    {
      "day": "Tuesday,",
      "hours": "8:30AM to 9PM"
    },
    {
      "day": "Wednesday,",
      "hours": "8:30AM to 9PM"
    },
    {
      "day": "Thursday",
      "hours": "(Mid-Autumn Festival), 8:30AM to 9PM, Hours might differ"
    },
    {
      "day": "Friday,",
      "hours": "8:30AM to 9PM"
    },
    {
      "day": "Saturday,",
      "hours": "8:30AM to 9PM"
    },
    {
      "day": "Sunday,",
      "hours": "Closed"
    },
    {
      "day": "Monday,",
      "hours": "8:30AM to 9PM"
    }
  ],
  "reviewsCount": 160
},
{
  "title": "平愛動物醫院",
  "totalScore": 4,
  "categoryName": "Animal hospital",
  "address": "No. 371號, Xingye West Road, West District, Chiayi City, Taiwan 600             600嘉義市西區興業西路371號",
  "locatedIn": null,
  "plusCode": "FC9P+2P West District, Chiayi City, Taiwan",
  "website": null,
  "phone": "+886 5 286 9535",
  "temporarilyClosed": false,
  "permanentlyClosed": false,
  "rank": 15,
  "placeId": "ChIJOZNKPSCUbjQRM1TRNG_RIVU",
  "url": "https://www.google.com/maps/place/%E5%B9%B3%E6%84%9B%E5%8B%95%E7%89%A9%E9%86%AB%E9%99%A2/@23.4675549,120.434639,17z/data=!3m1!4b1!4m5!3m4!1s0x346e94203d4a9339:0x5521d16f34d15433!8m2!3d23.4675549!4d120.4368277",
  "location": {
    "lat": 23.4675549,
    "lng": 120.4368277
  },
  "searchString": "嘉義縣的寵物醫院",
  "reviewsCount": 34
},
{
  "title": "珍愛動物醫院",
  "totalScore": 4.3,
  "categoryName": "Animal hospital",
  "address": "No. 1158號, Humei 1st Road, East District, Chiayi City, Taiwan 600             600嘉義市東區湖美一路1158號",
  "locatedIn": null,
  "plusCode": "FC6W+CW East District, Chiayi City, Taiwan",
  "website": null,
  "phone": "+886 5 225 9636",
  "temporarilyClosed": false,
  "permanentlyClosed": false,
  "rank": 12,
  "placeId": "ChIJUfvPWD6UbjQRQ0g3X8D6Wc4",
  "url": "https://www.google.com/maps/place/%E7%8F%8D%E6%84%9B%E5%8B%95%E7%89%A9%E9%86%AB%E9%99%A2/@23.4610399,120.4451615,17z/data=!3m1!4b1!4m5!3m4!1s0x346e943e58cffb51:0xce59fac05f374843!8m2!3d23.4610399!4d120.4473502",
  "location": {
    "lat": 23.4610399,
    "lng": 120.4473502
  },
  "searchString": "嘉義縣的寵物醫院",
  "openingHours": [
    {
      "day": "Tuesday,",
      "hours": "10AM to 12PM, 2 to 6PM, 7 to 8:30PM"
    },
    {
      "day": "Wednesday,",
      "hours": "10AM to 12PM, 2 to 6PM, 7 to 8:30PM"
    },
    {
      "day": "Thursday",
      "hours": "(Mid-Autumn Festival), 10AM to 12PM, 2 to 6PM, 7 to 8:30PM, Hours might differ"
    },
    {
      "day": "Friday,",
      "hours": "10AM to 12PM, 2 to 6PM, 7 to 8:30PM"
    },
    {
      "day": "Saturday,",
      "hours": "10AM to 12PM, 2 to 6PM, 7 to 8:30PM"
    },
    {
      "day": "Sunday,",
      "hours": "Closed"
    },
    {
      "day": "Monday,",
      "hours": "10AM to 12PM, 2 to 6PM, 7 to 8:30PM"
    }
  ],
  "reviewsCount": 147
},
{
  "title": "大和動物醫院",
  "totalScore": null,
  "categoryName": "Veterinarijos klinika",
  "address": "No. 862, Section 5, Zhongshan Road, Zhongpu Township, Chiayi County, Taivanas 606             606嘉義縣中埔鄉中山路五段862號",
  "locatedIn": null,
  "plusCode": "FF26+P6 Zhongpu Township, Chiayi County, Taivanas",
  "website": null,
  "phone": "+886 5 230 2629",
  "temporarilyClosed": false,
  "permanentlyClosed": false,
  "rank": 1,
  "placeId": "ChIJR1gqaW2UbjQRzY9pIF270gc",
  "url": "https://www.google.com/maps/place/%E5%A4%A7%E5%92%8C%E5%8B%95%E7%89%A9%E9%86%AB%E9%99%A2/@23.4518682,120.4583622,17z/data=!3m1!4b1!4m5!3m4!1s0x346e946d692a5847:0x7d2bb5d20698fcd!8m2!3d23.4518682!4d120.4605509",
  "location": {
    "lat": 23.4518682,
    "lng": 120.4605509
  },
  "searchString": "嘉義縣的寵物醫院",
  "openingHours": [
    null,
    null,
    {
      "day": "ketvirtadienis",
      "hours": "(Rudens vidurio šventė),09–21,Darbo laikas gali skirtis"
    },
    null,
    null,
    null,
    {
      "day": "pirmadienis,09–21.",
      "hours": "Slėpti savaitės darbo laiką"
    }
  ],
  "reviewsCount": 108
},
{
  "title": "上哲動物醫院",
  "totalScore": null,
  "categoryName": "Veterinarijos klinika",
  "address": "No. 259號, Wufeng North Road, East District, Chiayi City, Taivanas 600             600嘉義市東區吳鳳北路259號",
  "locatedIn": null,
  "plusCode": "FFJ3+55 East District, Chiayi City, Taivanas",
  "website": null,
  "phone": "+886 5 223 1500",
  "temporarilyClosed": false,
  "permanentlyClosed": false,
  "rank": 8,
  "placeId": "ChIJd4269zOUbjQRMp_QABDpNKA",
  "url": "https://www.google.com/maps/place/%E4%B8%8A%E5%93%B2%E5%8B%95%E7%89%A9%E9%86%AB%E9%99%A2/@23.4803885,120.4507305,17z/data=!3m1!4b1!4m5!3m4!1s0x346e9433f7ba8d77:0xa034e91000d09f32!8m2!3d23.4803885!4d120.4529192",
  "location": {
    "lat": 23.4803885,
    "lng": 120.4529192
  },
  "searchString": "嘉義縣的寵物醫院",
  "openingHours": [
    null,
    null,
    {
      "day": "ketvirtadienis",
      "hours": "(Rudens vidurio šventė),09–12,14–18,19:30–20:30,Darbo laikas gali skirtis"
    },
    null,
    null,
    null,
    {
      "day": "pirmadienis,09–12,14–18,19:30–20:30.",
      "hours": "Slėpti savaitės darbo laiką"
    }
  ],
  "reviewsCount": 60
},
{
  "title": "朴子動物醫院",
  "totalScore": null,
  "categoryName": "Veterinarijos klinika",
  "address": "613, Taivanas, Chiayi County, Puzi City, 大鄉里大槺榔995號             613嘉義縣朴子市大鄉里大槺榔995號",
  "locatedIn": null,
  "plusCode": "F784+6W Pudzi, Chiayi County, Taivanas",
  "website": null,
  "phone": "+886 5 379 0010",
  "temporarilyClosed": false,
  "permanentlyClosed": false,
  "rank": 2,
  "placeId": "ChIJ_____4qbbjQRd7Am0JsaXqw",
  "url": "https://www.google.com/maps/place/%E6%9C%B4%E5%AD%90%E5%8B%95%E7%89%A9%E9%86%AB%E9%99%A2/@23.4656246,120.255091,17z/data=!3m1!4b1!4m5!3m4!1s0x346e9b8affffffff:0xac5e1a9bd026b077!8m2!3d23.4656246!4d120.2572797",
  "location": {
    "lat": 23.4656246,
    "lng": 120.2572797
  },
  "searchString": "嘉義縣的寵物醫院",
  "openingHours": [
    null,
    null,
    {
      "day": "ketvirtadienis",
      "hours": "(Rudens vidurio šventė),09–12,14:30–20,Darbo laikas gali skirtis"
    },
    null,
    null,
    null,
    {
      "day": "pirmadienis,09–12,14:30–20.",
      "hours": "Slėpti savaitės darbo laiką"
    }
  ],
  "reviewsCount": 122
},
{
  "title": "培安動物醫院",
  "totalScore": 4.7,
  "categoryName": "Animal hospital",
  "address": "No. 303-1號, Gongming Road, East District, Chiayi City, Taiwan 60047             60047嘉義市東區公明路303-1號",
  "locatedIn": null,
  "plusCode": "FFH2+VC East District, Chiayi City, Taiwan",
  "website": "facebook.com",
  "phone": "+886 5 222 8119",
  "temporarilyClosed": false,
  "permanentlyClosed": false,
  "rank": 9,
  "placeId": "ChIJHYm7YzGUbjQRZs3lNt7lZgo",
  "url": "https://www.google.com/maps/place/%E5%9F%B9%E5%AE%89%E5%8B%95%E7%89%A9%E9%86%AB%E9%99%A2/@23.479738,120.448851,17z/data=!3m1!4b1!4m5!3m4!1s0x346e943163bb891d:0xa66e5de36e5cd66!8m2!3d23.479738!4d120.4510397",
  "location": {
    "lat": 23.479738,
    "lng": 120.4510397
  },
  "searchString": "嘉義縣的寵物醫院",
  "openingHours": [
    {
      "day": "Tuesday,",
      "hours": "10AM to 12PM, 2 to 5PM, 6 to 9PM"
    },
    {
      "day": "Wednesday,",
      "hours": "10AM to 12PM, 2 to 5PM, 6 to 9PM"
    },
    {
      "day": "Thursday",
      "hours": "(Mid-Autumn Festival), 10AM to 12PM, 2 to 5PM, 6 to 9PM, Hours might differ"
    },
    {
      "day": "Friday,",
      "hours": "10AM to 12PM, 2 to 5PM, 6 to 9PM"
    },
    {
      "day": "Saturday,",
      "hours": "10AM to 12PM, 2 to 5PM"
    },
    {
      "day": "Sunday,",
      "hours": "10AM to 12PM, 2 to 5PM"
    },
    {
      "day": "Monday,",
      "hours": "10AM to 12PM, 2 to 5PM, 6 to 9PM"
    }
  ],
  "reviewsCount": 107
},
{
  "title": "鴻昌動物醫院",
  "totalScore": 4.6,
  "categoryName": "Animal hospital",
  "address": "No. 185之13號, Section 2, Jianguo Road, Minxiong Township, Chiayi County, Taiwan 621             621嘉義縣民雄鄉建國路二段185之13號",
  "locatedIn": null,
  "plusCode": "GCQM+R7 Minxiong Township, Chiayi County, Taiwan",
  "website": "business.site",
  "phone": "+886 928 357 589",
  "temporarilyClosed": false,
  "permanentlyClosed": false,
  "rank": 3,
  "placeId": "ChIJU15ZTfy9bjQRCIaRCgDcU0s",
  "url": "https://www.google.com/maps/place/%E9%B4%BB%E6%98%8C%E5%8B%95%E7%89%A9%E9%86%AB%E9%99%A2/@23.5395837,120.4310353,17z/data=!3m1!4b1!4m5!3m4!1s0x346ebdfc4d595e53:0x4b53dc000a918608!8m2!3d23.5395837!4d120.433224",
  "location": {
    "lat": 23.5395837,
    "lng": 120.433224
  },
  "searchString": "嘉義縣的寵物醫院",
  "reviewsCount": 9
},
{
  "title": "永全動物醫院",
  "totalScore": 5,
  "categoryName": "Veterinarian",
  "address": "No. 619, Chuiyang Road, East District, Chiayi City, Taiwan 600             600嘉義市東區垂楊路619號",
  "locatedIn": null,
  "plusCode": "FCFQ+36 East District, Chiayi City, Taiwan",
  "website": null,
  "phone": "+886 5 285 1987",
  "temporarilyClosed": false,
  "permanentlyClosed": false,
  "rank": 29,
  "placeId": "ChIJq4KVLyeUbjQRupDneYAKHVw",
  "url": "https://www.google.com/maps/place/%E6%B0%B8%E5%85%A8%E5%8B%95%E7%89%A9%E9%86%AB%E9%99%A2/@23.4726665,120.4358361,17z/data=!3m1!4b1!4m5!3m4!1s0x346e94272f9582ab:0x5c1d0a8079e790ba!8m2!3d23.4726665!4d120.4380248",
  "location": {
    "lat": 23.4726665,
    "lng": 120.4380248
  },
  "searchString": "嘉義縣的寵物醫院",
  "reviewsCount": 1
},
{
  "title": "齊恩動物醫院",
  "totalScore": 4.4,
  "categoryName": "Animal hospital",
  "address": "No. 240號, Minsheng South Road, West District, Chiayi City, Taiwan 600             600嘉義市西區民生南路240號",
  "locatedIn": null,
  "plusCode": "FC8W+V6 West District, Chiayi City, Taiwan",
  "website": null,
  "phone": "+886 5 236 7038",
  "temporarilyClosed": false,
  "permanentlyClosed": false,
  "rank": 18,
  "placeId": "ChIJ8W2wOTmUbjQR6jJGKYWUp6U",
  "url": "https://www.google.com/maps/place/%E9%BD%8A%E6%81%A9%E5%8B%95%E7%89%A9%E9%86%AB%E9%99%A2/@23.4672042,120.4434354,17z/data=!3m1!4b1!4m5!3m4!1s0x346e943939b06df1:0xa5a79485294632ea!8m2!3d23.4672042!4d120.4456241",
  "location": {
    "lat": 23.4672042,
    "lng": 120.4456241
  },
  "searchString": "嘉義縣的寵物醫院",
  "openingHours": [
    {
      "day": "Tuesday,",
      "hours": "9AM to 12PM, 2 to 6PM"
    },
    {
      "day": "Wednesday,",
      "hours": "Closed"
    },
    {
      "day": "Thursday",
      "hours": "(Mid-Autumn Festival), 9AM to 12PM, 2 to 6PM, Hours might differ"
    },
    {
      "day": "Friday,",
      "hours": "9AM to 12PM, 2 to 6PM"
    },
    {
      "day": "Saturday,",
      "hours": "9AM to 12PM, 2 to 6PM"
    },
    {
      "day": "Sunday,",
      "hours": "Closed"
    },
    {
      "day": "Monday,",
      "hours": "9AM to 12PM, 2 to 6PM"
    }
  ],
  "reviewsCount": 77
},
{
  "title": "水上動物醫院",
  "totalScore": 4.3,
  "categoryName": "Animal hospital",
  "address": "No. 998, Section 2, Zhongshan Road, Shuishang Township, Chiayi County, Taiwan 608             608嘉義縣水上鄉中山路二段998號",
  "locatedIn": null,
  "plusCode": "CCR4+VC Shuishang Township, Chiayi County, Taiwan",
  "website": null,
  "phone": "+886 5 260 2261",
  "temporarilyClosed": false,
  "permanentlyClosed": false,
  "rank": 4,
  "placeId": "ChIJr-qFODuRbjQRj1d2J-d4-so",
  "url": "https://www.google.com/maps/place/%E6%B0%B4%E4%B8%8A%E5%8B%95%E7%89%A9%E9%86%AB%E9%99%A2/@23.4421572,120.4038725,17z/data=!3m1!4b1!4m5!3m4!1s0x346e913b3885eaaf:0xcafa78e72776578f!8m2!3d23.4421572!4d120.4060612",
  "location": {
    "lat": 23.4421572,
    "lng": 120.4060612
  },
  "searchString": "嘉義縣的寵物醫院",
  "openingHours": [
    {
      "day": "Tuesday,",
      "hours": "9AM to 8PM"
    },
    {
      "day": "Wednesday,",
      "hours": "9AM to 8PM"
    },
    {
      "day": "Thursday",
      "hours": "(Mid-Autumn Festival), 9AM to 8PM, Hours might differ"
    },
    {
      "day": "Friday,",
      "hours": "9AM to 8PM"
    },
    {
      "day": "Saturday,",
      "hours": "9AM to 8PM"
    },
    {
      "day": "Sunday,",
      "hours": "Closed"
    },
    {
      "day": "Monday,",
      "hours": "9AM to 8PM"
    }
  ],
  "reviewsCount": 103
}]