[{
  "title": "猩猩狐狸動物醫院",
  "totalScore": null,
  "categoryName": "Veterinarijos klinika",
  "address": "No. 319號, Ren'ai Road, Xizhi District, New Taipei City, Taivanas 221             221新北市汐止區仁愛路319號",
  "locatedIn": null,
  "plusCode": "3M97+2Q Sidži, New Taipei City, Taivanas",
  "website": "facebook.com",
  "phone": "+886 2 7751 5773",
  "temporarilyClosed": false,
  "permanentlyClosed": false,
  "rank": 24,
  "placeId": "ChIJMxIjPQ1TXTQRSY0sBoRYJjU",
  "url": "https://www.google.com/maps/place/%E7%8C%A9%E7%8C%A9%E7%8B%90%E7%8B%B8%E5%8B%95%E7%89%A9%E9%86%AB%E9%99%A2/@25.0675994,121.6623099,17z/data=!3m1!4b1!4m5!3m4!1s0x345d530d3d231233:0x35265884062c8d49!8m2!3d25.0675994!4d121.6644986",
  "location": {
    "lat": 25.0675994,
    "lng": 121.6644986
  },
  "searchString": "基隆市的動物醫院",
  "openingHours": [
    null,
    null,
    {
      "day": "ketvirtadienis",
      "hours": "(Rudens vidurio šventė),10–12,15–18,19–21,Darbo laikas gali skirtis"
    },
    null,
    null,
    null,
    {
      "day": "pirmadienis,10–12,15–18,19–21.",
      "hours": "Slėpti savaitės darbo laiką"
    }
  ],
  "reviewsCount": 133
},
{
  "title": "嘉惠家畜醫院",
  "totalScore": 4.3,
  "categoryName": "",
  "address": "No. 140, Nanrong Road, Ren’ai District, Keelung City, Taiwan 200             200基隆市仁愛區南榮路140號",
  "locatedIn": null,
  "plusCode": "4P9V+8C Ren’ai District, Keelung City, Taiwan",
  "website": null,
  "phone": "+886 2 2422 3687",
  "temporarilyClosed": false,
  "permanentlyClosed": false,
  "rank": 21,
  "placeId": "ChIJf_gfaSJOXTQRYW0ENjw52Ao",
  "url": "https://www.google.com/maps/place/%E5%98%89%E6%83%A0%E5%AE%B6%E7%95%9C%E9%86%AB%E9%99%A2/@25.1182845,121.7413205,17z/data=!3m1!4b1!4m5!3m4!1s0x345d4e22691ff87f:0xad8393c36046d61!8m2!3d25.1182845!4d121.7435092",
  "location": {
    "lat": 25.1182845,
    "lng": 121.7435092
  },
  "searchString": "基隆市的動物醫院",
  "reviewsCount": 3
},
{
  "title": "仁愛犬貓醫院",
  "totalScore": null,
  "categoryName": "",
  "address": "No. 8號, Zhongsi Road, Ren’ai District, Keelung City, Taivanas 200             200基隆市仁愛區忠四路8號",
  "locatedIn": null,
  "plusCode": "4PHQ+GP Ren’ai District, Keelung City, Taivanas",
  "website": null,
  "phone": "+886 2 2428 7653",
  "temporarilyClosed": false,
  "permanentlyClosed": false,
  "rank": 23,
  "placeId": "ChIJqVPyMhROXTQR4N4bD23mJJQ",
  "url": "https://www.google.com/maps/place/%E4%BB%81%E6%84%9B%E7%8A%AC%E8%B2%93%E9%86%AB%E9%99%A2/@25.128806,121.7371613,17z/data=!3m1!4b1!4m5!3m4!1s0x345d4e1432f253a9:0x9424e66d0f1bdee0!8m2!3d25.128806!4d121.73935",
  "location": {
    "lat": 25.128806,
    "lng": 121.73935
  },
  "searchString": "基隆市的動物醫院",
  "openingHours": [
    {
      "day": "antradienis,Dirba",
      "hours": "24 val"
    },
    {
      "day": "trečiadienis,Dirba",
      "hours": "24 val"
    },
    {
      "day": "ketvirtadienis",
      "hours": "(Rudens vidurio šventė),Dirba 24 val"
    },
    {
      "day": "penktadienis,Dirba",
      "hours": "24 val"
    },
    {
      "day": "šeštadienis,Dirba",
      "hours": "24 val"
    },
    {
      "day": "sekmadienis,Dirba",
      "hours": "24 val"
    },
    {
      "day": "pirmadienis,Dirba",
      "hours": "24 val"
    }
  ],
  "reviewsCount": 7
},
{
  "title": "基隆愛犬醫院",
  "totalScore": 2.7,
  "categoryName": "Animal hospital",
  "address": "No. 188, Yiyi Road, Zhongzheng District, Keelung City, Taiwan 202             202基隆市中正區義一路188號",
  "locatedIn": null,
  "plusCode": "4PPX+H6 Zhongzheng District, Keelung City, Taiwan",
  "website": "dogdoglife.pixnet.net",
  "phone": "+886 2 2422 9214",
  "temporarilyClosed": false,
  "permanentlyClosed": false,
  "rank": 11,
  "placeId": "ChIJnY2zqkZOXTQR8Qv0DyiXyXY",
  "url": "https://www.google.com/maps/place/%E5%9F%BA%E9%9A%86%E6%84%9B%E7%8A%AC%E9%86%AB%E9%99%A2/@25.1364,121.7459173,17z/data=!3m1!4b1!4m5!3m4!1s0x345d4e46aab38d9d:0x76c997280ff40bf1!8m2!3d25.1364!4d121.748106",
  "location": {
    "lat": 25.1364,
    "lng": 121.748106
  },
  "searchString": "基隆市的動物醫院",
  "openingHours": [
    {
      "day": "Tuesday,",
      "hours": "9AM to 9PM"
    },
    {
      "day": "Wednesday,",
      "hours": "9AM to 9PM"
    },
    {
      "day": "Thursday",
      "hours": "(Mid-Autumn Festival), 9AM to 9PM, Hours might differ"
    },
    {
      "day": "Friday,",
      "hours": "9AM to 9PM"
    },
    {
      "day": "Saturday,",
      "hours": "9AM to 9PM"
    },
    {
      "day": "Sunday,",
      "hours": "9AM to 9PM"
    },
    {
      "day": "Monday,",
      "hours": "9AM to 9PM"
    }
  ],
  "reviewsCount": 23
},
{
  "title": "新興動物醫院",
  "totalScore": null,
  "categoryName": "Veterinarijos klinika",
  "address": "No. 117, Renyi Road, Ren’ai District, Keelung City, Taivanas 200             200基隆市仁愛區仁一路117號",
  "locatedIn": null,
  "plusCode": "4QH3+56 Ren’ai District, Keelung City, Taivanas",
  "website": "zh-tw.facebook.com",
  "phone": "+886 2 2429 5636",
  "temporarilyClosed": false,
  "permanentlyClosed": false,
  "rank": 1,
  "placeId": "ChIJkRoPMjhOXTQR9--dni5nfP4",
  "url": "https://www.google.com/maps/place/%E6%96%B0%E8%88%88%E5%8B%95%E7%89%A9%E9%86%AB%E9%99%A2/@25.1278829,121.7508314,17z/data=!3m1!4b1!4m5!3m4!1s0x345d4e38320f1a91:0xfe7c672e9e9deff7!8m2!3d25.1278829!4d121.7530201",
  "location": {
    "lat": 25.1278829,
    "lng": 121.7530201
  },
  "searchString": "基隆市的動物醫院",
  "openingHours": [
    null,
    null,
    {
      "day": "ketvirtadienis",
      "hours": "(Rudens vidurio šventė),10–12,16–18,Darbo laikas gali skirtis"
    },
    null,
    null,
    null,
    {
      "day": "pirmadienis,10–12,16–18,19:30–21.",
      "hours": "Slėpti savaitės darbo laiką"
    }
  ],
  "reviewsCount": 130
},
{
  "title": "旺旺動物醫院 (臺大 獸醫師)",
  "totalScore": 4.3,
  "categoryName": "Animal hospital",
  "address": "No. 26, Zhongxing Road, Xinyi District, Keelung City, Taiwan 201             201基隆市信義區中興路26號",
  "locatedIn": null,
  "plusCode": "4QH3+JR Xinyi District, Keelung City, Taiwan",
  "website": null,
  "phone": "+886 2 2427 0563",
  "temporarilyClosed": false,
  "permanentlyClosed": false,
  "rank": 9,
  "placeId": "ChIJxdZuShROXTQRxU7M-3rQXFs",
  "url": "https://www.google.com/maps/place/%E6%97%BA%E6%97%BA%E5%8B%95%E7%89%A9%E9%86%AB%E9%99%A2+(%E8%87%BA%E5%A4%A7+%E7%8D%B8%E9%86%AB%E5%B8%AB)/@25.129095,121.7524153,17z/data=!3m1!4b1!4m5!3m4!1s0x345d4e144a6ed6c5:0x5b5cd07afbcc4ec5!8m2!3d25.129095!4d121.754604",
  "location": {
    "lat": 25.129095,
    "lng": 121.754604
  },
  "searchString": "基隆市的動物醫院",
  "openingHours": [
    {
      "day": "Tuesday,",
      "hours": "9AM to 12PM, 2 to 5PM, 6 to 8PM"
    },
    {
      "day": "Wednesday,",
      "hours": "9AM to 12PM, 2 to 5PM, 6 to 8PM"
    },
    {
      "day": "Thursday",
      "hours": "(Mid-Autumn Festival), 9AM to 12PM, 2 to 5PM, Holiday hours"
    },
    {
      "day": "Friday,",
      "hours": "9AM to 12PM, 2 to 5PM, 6 to 8PM"
    },
    {
      "day": "Saturday,",
      "hours": "9AM to 12AM"
    },
    {
      "day": "Sunday,",
      "hours": "Closed"
    },
    {
      "day": "Monday,",
      "hours": "9AM to 12PM, 2 to 5PM, 6 to 8PM"
    }
  ],
  "reviewsCount": 36
},
{
  "title": "喵喵TNR動物醫院",
  "totalScore": 5,
  "categoryName": "Animal hospital",
  "address": "No. 171號, Chenggong 2nd Road, Zhongshan District, Keelung City, Taiwan 203             203基隆市中山區成功二路171號",
  "locatedIn": null,
  "plusCode": "4PJP+G4 Zhongshan District, Keelung City, Taiwan",
  "website": "facebook.com",
  "phone": "+886 2 2425 0966",
  "temporarilyClosed": false,
  "permanentlyClosed": false,
  "rank": 16,
  "placeId": "ChIJVWorr7ZPXTQRYfgb8LiEJzc",
  "url": "https://www.google.com/maps/place/%E5%96%B5%E5%96%B5TNR%E5%8B%95%E7%89%A9%E9%86%AB%E9%99%A2/@25.131372,121.7330983,17z/data=!3m1!4b1!4m5!3m4!1s0x345d4fb6af2b6a55:0x372784b8f01bf861!8m2!3d25.131372!4d121.735287",
  "location": {
    "lat": 25.131372,
    "lng": 121.735287
  },
  "searchString": "基隆市的動物醫院",
  "openingHours": [
    {
      "day": "Tuesday,",
      "hours": "12 to 8PM"
    },
    {
      "day": "Wednesday,",
      "hours": "12 to 8PM"
    },
    {
      "day": "Thursday",
      "hours": "(Mid-Autumn Festival), 12 to 8PM, Hours might differ"
    },
    {
      "day": "Friday,",
      "hours": "12 to 8PM"
    },
    {
      "day": "Saturday,",
      "hours": "12 to 8PM"
    },
    {
      "day": "Sunday,",
      "hours": "12 to 8PM"
    },
    {
      "day": "Monday,",
      "hours": "Closed"
    }
  ],
  "reviewsCount": 62
},
{
  "title": "慈仁動物醫院",
  "totalScore": 4.2,
  "categoryName": "Veterinarian",
  "address": "204, Taiwan, Keelung City, Anle District, Lane 62, Lelier Street, 1號1樓             204基隆市安樂區樂利二街62巷1號1樓",
  "locatedIn": null,
  "plusCode": "4PC8+46 Anle District, Keelung City, Taiwan",
  "website": null,
  "phone": "+886 2 2428 6899",
  "temporarilyClosed": false,
  "permanentlyClosed": false,
  "rank": 7,
  "placeId": "ChIJS21doBNOXTQR44Fj7Zgjeg4",
  "url": "https://www.google.com/maps/place/%E6%85%88%E4%BB%81%E5%8B%95%E7%89%A9%E9%86%AB%E9%99%A2/@25.1203229,121.7133216,17z/data=!3m1!4b1!4m5!3m4!1s0x345d4e13a05d6d4b:0xe7a2398ed6381e3!8m2!3d25.1203229!4d121.7155103",
  "location": {
    "lat": 25.1203229,
    "lng": 121.7155103
  },
  "searchString": "基隆市的動物醫院",
  "openingHours": [
    {
      "day": "Tuesday,",
      "hours": "9AM to 12PM, 2 to 9PM"
    },
    {
      "day": "Wednesday,",
      "hours": "9AM to 12PM, 2 to 9PM"
    },
    {
      "day": "Thursday",
      "hours": "(Mid-Autumn Festival), 9AM to 12PM, 2 to 9PM, Hours might differ"
    },
    {
      "day": "Friday,",
      "hours": "9AM to 12PM, 2 to 9PM"
    },
    {
      "day": "Saturday,",
      "hours": "9AM to 12PM, 2 to 9PM"
    },
    {
      "day": "Sunday,",
      "hours": "9AM to 12PM"
    },
    {
      "day": "Monday,",
      "hours": "9AM to 12PM, 2 to 9PM"
    }
  ],
  "reviewsCount": 24
},
{
  "title": "台大良一動物醫院",
  "totalScore": null,
  "categoryName": "Veterinarijos klinika",
  "address": "No. 2, Yijiu Road, Xinyi District, Keelung City, Taivanas 201             201基隆市信義區義九路2號",
  "locatedIn": null,
  "plusCode": "4QH4+CF Xinyi District, Keelung City, Taivanas",
  "website": "business.site",
  "phone": "+886 2 2426 3021",
  "temporarilyClosed": false,
  "permanentlyClosed": false,
  "rank": 17,
  "placeId": "ChIJlzPjzTdOXTQRmp00nCrtHFo",
  "url": "https://www.google.com/maps/place/%E5%8F%B0%E5%A4%A7%E8%89%AF%E4%B8%80%E5%8B%95%E7%89%A9%E9%86%AB%E9%99%A2/@25.1286204,121.7540596,17z/data=!3m1!4b1!4m5!3m4!1s0x345d4e37cde33397:0x5a1ced2a9c349d9a!8m2!3d25.1286204!4d121.7562483",
  "location": {
    "lat": 25.1286204,
    "lng": 121.7562483
  },
  "searchString": "基隆市的動物醫院",
  "openingHours": [
    null,
    null,
    {
      "day": "ketvirtadienis",
      "hours": "(Rudens vidurio šventė),Uždaryta,Darbo laikas gali skirtis"
    },
    null,
    null,
    null,
    {
      "day": "pirmadienis,09–12,14–20.",
      "hours": "Slėpti savaitės darbo laiką"
    }
  ],
  "reviewsCount": 131
},
{
  "title": "東尚動物醫院",
  "totalScore": 4.2,
  "categoryName": "Animal hospital",
  "address": "No. 159, Dongming Road, Xinyi District, Keelung City, Taiwan 201             201基隆市信義區東明路159號",
  "locatedIn": null,
  "plusCode": "4QH6+33 Xinyi District, Keelung City, Taiwan",
  "website": "facebook.com",
  "phone": "+886 2 2465 3088",
  "temporarilyClosed": false,
  "permanentlyClosed": false,
  "rank": 14,
  "placeId": "ChIJ65vB7zVOXTQRyo63nn1awaA",
  "url": "https://www.google.com/maps/place/%E6%9D%B1%E5%B0%9A%E5%8B%95%E7%89%A9%E9%86%AB%E9%99%A2/@25.1277259,121.7579733,17z/data=!3m1!4b1!4m5!3m4!1s0x345d4e35efc19beb:0xa0c15a7d9eb78eca!8m2!3d25.1277259!4d121.760162",
  "location": {
    "lat": 25.1277259,
    "lng": 121.760162
  },
  "searchString": "基隆市的動物醫院",
  "openingHours": [
    {
      "day": "Tuesday,",
      "hours": "10AM to 1PM, 3 to 5PM, 6 to 8:30PM"
    },
    {
      "day": "Wednesday,",
      "hours": "10AM to 1PM, 3 to 5PM, 6 to 8:30PM"
    },
    {
      "day": "Thursday",
      "hours": "(Mid-Autumn Festival), 10AM to 1PM, 3 to 5PM, 6 to 8:30PM, Hours might differ"
    },
    {
      "day": "Friday,",
      "hours": "Closed"
    },
    {
      "day": "Saturday,",
      "hours": "Closed"
    },
    {
      "day": "Sunday,",
      "hours": "10AM to 1PM, 3 to 5PM, 6 to 8:30PM"
    },
    {
      "day": "Monday,",
      "hours": "10AM to 1PM, 3 to 5PM, 6 to 8:30PM"
    }
  ],
  "reviewsCount": 37
},
{
  "title": "台大長鴻動物醫院",
  "totalScore": 4.5,
  "categoryName": "Animal hospital",
  "address": "No. 149, Renyi Road, Ren’ai District, Keelung City, Taiwan 200             200基隆市仁愛區仁一路149號",
  "locatedIn": null,
  "plusCode": "4QH2+5V Ren’ai District, Keelung City, Taiwan",
  "website": "facebook.com",
  "phone": "+886 2 2426 1456",
  "temporarilyClosed": false,
  "permanentlyClosed": false,
  "rank": 2,
  "placeId": "ChIJlZx4NThOXTQRDFm9eW2vl4w",
  "url": "https://www.google.com/maps/place/%E5%8F%B0%E5%A4%A7%E9%95%B7%E9%B4%BB%E5%8B%95%E7%89%A9%E9%86%AB%E9%99%A2/@25.12791,121.7499973,17z/data=!3m1!4b1!4m5!3m4!1s0x345d4e3835789c95:0x8c97af6d79bd590c!8m2!3d25.12791!4d121.752186",
  "location": {
    "lat": 25.12791,
    "lng": 121.752186
  },
  "searchString": "基隆市的動物醫院",
  "openingHours": [
    {
      "day": "Tuesday,",
      "hours": "9 to 11AM, 2 to 8:30PM"
    },
    {
      "day": "Wednesday,",
      "hours": "9 to 11AM, 2 to 6PM"
    },
    {
      "day": "Thursday",
      "hours": "(Mid-Autumn Festival), 2 to 6PM, Hours might differ"
    },
    {
      "day": "Friday,",
      "hours": "9 to 11AM, 2 to 9PM"
    },
    {
      "day": "Saturday,",
      "hours": "9AM to 2PM"
    },
    {
      "day": "Sunday,",
      "hours": "Closed"
    },
    {
      "day": "Monday,",
      "hours": "9 to 11AM, 2 to 9PM"
    }
  ],
  "reviewsCount": 277
},
{
  "title": "佳和動物醫院",
  "totalScore": 3.8,
  "categoryName": "",
  "address": "No. 56號, Lane 208, Jijinyi Road, Anle District, Keelung City, Taiwan 204             204基隆市安樂區基金一路208巷56號",
  "locatedIn": null,
  "plusCode": "4PW5+9J Anle District, Keelung City, Taiwan",
  "website": null,
  "phone": "+886 2 2432 8818",
  "temporarilyClosed": false,
  "permanentlyClosed": false,
  "rank": 20,
  "placeId": "ChIJgR36WdtNXTQRFEbqP-Hjb2A",
  "url": "https://www.google.com/maps/place/%E4%BD%B3%E5%92%8C%E5%8B%95%E7%89%A9%E9%86%AB%E9%99%A2/@25.1458955,121.7069113,17z/data=!3m1!4b1!4m5!3m4!1s0x345d4ddb59fa1d81:0x606fe3e13fea4614!8m2!3d25.1458955!4d121.7091",
  "location": {
    "lat": 25.1458955,
    "lng": 121.7091
  },
  "searchString": "基隆市的動物醫院",
  "openingHours": [
    {
      "day": "Tuesday,",
      "hours": "9:30AM to 9PM"
    },
    {
      "day": "Wednesday,",
      "hours": "9:30AM to 9PM"
    },
    {
      "day": "Thursday",
      "hours": "(Mid-Autumn Festival), 9:30AM to 9PM, Hours might differ"
    },
    {
      "day": "Friday,",
      "hours": "9:30AM to 4PM"
    },
    {
      "day": "Saturday,",
      "hours": "Closed"
    },
    {
      "day": "Sunday,",
      "hours": "Closed"
    },
    {
      "day": "Monday,",
      "hours": "9:30AM to 9PM"
    }
  ],
  "reviewsCount": 19
},
{
  "title": "七堵動物醫院",
  "totalScore": 3.7,
  "categoryName": "Veterinarian",
  "address": "No. 125號, Mingde 1st Road, Qidu District, Keelung City, Taiwan 206             206基隆市七堵區明德一路125號",
  "locatedIn": null,
  "plusCode": "3PX7+4R Qidu District, Keelung City, Taiwan",
  "website": null,
  "phone": "+886 2 2456 5942",
  "temporarilyClosed": false,
  "permanentlyClosed": false,
  "rank": 8,
  "placeId": "ChIJT7-1RR9SXTQR-4wbMZgEFcg",
  "url": "https://www.google.com/maps/place/%E4%B8%83%E5%A0%B5%E5%8B%95%E7%89%A9%E9%86%AB%E9%99%A2/@25.0978745,121.7124179,17z/data=!3m1!4b1!4m5!3m4!1s0x345d521f45b5bf4f:0xc8150498311b8cfb!8m2!3d25.0978745!4d121.7146066",
  "location": {
    "lat": 25.0978745,
    "lng": 121.7146066
  },
  "searchString": "基隆市的動物醫院",
  "openingHours": [
    {
      "day": "Tuesday,",
      "hours": "9:30AM to 9:30PM"
    },
    {
      "day": "Wednesday,",
      "hours": "9:30AM to 9:30PM"
    },
    {
      "day": "Thursday",
      "hours": "(Mid-Autumn Festival), 9:30AM to 9:30PM, Hours might differ"
    },
    {
      "day": "Friday,",
      "hours": "9:30AM to 9:30PM"
    },
    {
      "day": "Saturday,",
      "hours": "9:30AM to 9:30PM"
    },
    {
      "day": "Sunday,",
      "hours": "Closed"
    },
    {
      "day": "Monday,",
      "hours": "9:30AM to 9:30PM"
    }
  ],
  "reviewsCount": 52
},
{
  "title": "碇內寵物仿",
  "totalScore": null,
  "categoryName": "Maisto prekių parduotuvė",
  "address": "No. 165-7, Yuanyuan Road, Nuannuan District, Keelung City, Taivanas 205             205基隆市暖暖區源遠路165-7號",
  "locatedIn": null,
  "plusCode": "3PXX+9R Nuannuan District, Keelung City, Taivanas",
  "website": null,
  "phone": "+886 2 2459 2345",
  "temporarilyClosed": false,
  "permanentlyClosed": false,
  "rank": 22,
  "placeId": "ChIJWzbQu8RRXTQR4WCm80urb_c",
  "url": "https://www.google.com/maps/place/%E7%A2%87%E5%85%A7%E5%AF%B5%E7%89%A9%E4%BB%BF/@25.0983892,121.7474205,17z/data=!3m1!4b1!4m5!3m4!1s0x345d51c4bbd0365b:0xf76fab4bf3a660e1!8m2!3d25.0983892!4d121.7496092",
  "location": {
    "lat": 25.0983892,
    "lng": 121.7496092
  },
  "searchString": "基隆市的動物醫院",
  "openingHours": [
    null,
    null,
    {
      "day": "ketvirtadienis",
      "hours": "(Rudens vidurio šventė),10–21,Darbo laikas gali skirtis"
    },
    null,
    null,
    null,
    {
      "day": "pirmadienis,10–21.",
      "hours": "Slėpti savaitės darbo laiką"
    }
  ],
  "reviewsCount": 19
},
{
  "title": "犬貓屋動物醫院",
  "totalScore": 3.7,
  "categoryName": "Animal hospital",
  "address": "No. 118, Jijin 1st Road, Anle District, Keelung City, Taiwan 204             204基隆市安樂區基金一路118號",
  "locatedIn": null,
  "plusCode": "4PR6+5W Anle District, Keelung City, Taiwan",
  "website": null,
  "phone": "+886 2 2434 5975",
  "temporarilyClosed": false,
  "permanentlyClosed": false,
  "rank": 4,
  "placeId": "ChIJIR9bjd1NXTQRf1u0ckEXaPM",
  "url": "https://www.google.com/maps/place/%E7%8A%AC%E8%B2%93%E5%B1%8B%E5%8B%95%E7%89%A9%E9%86%AB%E9%99%A2/@25.1403845,121.7101701,17z/data=!3m1!4b1!4m5!3m4!1s0x345d4ddd8d5b1f21:0xf368174172b45b7f!8m2!3d25.1403845!4d121.7123588",
  "location": {
    "lat": 25.1403845,
    "lng": 121.7123588
  },
  "searchString": "基隆市的動物醫院",
  "openingHours": [
    {
      "day": "Tuesday,",
      "hours": "10AM to 9PM"
    },
    {
      "day": "Wednesday,",
      "hours": "10AM to 9PM"
    },
    {
      "day": "Thursday",
      "hours": "(Mid-Autumn Festival), 10AM to 9PM, Hours might differ"
    },
    {
      "day": "Friday,",
      "hours": "10AM to 9PM"
    },
    {
      "day": "Saturday,",
      "hours": "10AM to 9PM"
    },
    {
      "day": "Sunday,",
      "hours": "Closed"
    },
    {
      "day": "Monday,",
      "hours": "10AM to 9PM"
    }
  ],
  "reviewsCount": 41
},
{
  "title": "祥恩動物醫院",
  "totalScore": 4.3,
  "categoryName": "Veterinarian",
  "address": "No. 91, Shenmei Street, Xinyi District, Keelung City, Taiwan 201             201基隆市信義區深美街91號",
  "locatedIn": null,
  "plusCode": "4QPJ+63 Xinyi District, Keelung City, Taiwan",
  "website": "facebook.com",
  "phone": "+886 2 2465 5632",
  "temporarilyClosed": false,
  "permanentlyClosed": false,
  "rank": 6,
  "placeId": "ChIJpcsk6KRPXTQRvqXn3f1Ls_4",
  "url": "https://www.google.com/maps/place/%E7%A5%A5%E6%81%A9%E5%8B%95%E7%89%A9%E9%86%AB%E9%99%A2/@25.1355726,121.7780205,17z/data=!3m1!4b1!4m5!3m4!1s0x345d4fa4e824cba5:0xfeb34bfddde7a5be!8m2!3d25.1355726!4d121.7802092",
  "location": {
    "lat": 25.1355726,
    "lng": 121.7802092
  },
  "searchString": "基隆市的動物醫院",
  "openingHours": [
    {
      "day": "Tuesday,",
      "hours": "10AM to 12PM, 2 to 6PM, 7 to 9PM"
    },
    {
      "day": "Wednesday,",
      "hours": "10AM to 12PM, 2 to 6PM, 7 to 9PM"
    },
    {
      "day": "Thursday",
      "hours": "(Mid-Autumn Festival), 10AM to 12PM, 2 to 6PM, 7 to 9PM, Hours might differ"
    },
    {
      "day": "Friday,",
      "hours": "10AM to 12PM, 2 to 6PM, 7 to 9PM"
    },
    {
      "day": "Saturday,",
      "hours": "Closed"
    },
    {
      "day": "Sunday,",
      "hours": "10AM to 12PM, 2 to 5PM"
    },
    {
      "day": "Monday,",
      "hours": "10AM to 12PM, 2 to 6PM, 7 to 9PM"
    }
  ],
  "reviewsCount": 87
},
{
  "title": "臺大興安動物醫院(原貝斯特動物醫院)",
  "totalScore": 4.3,
  "categoryName": "Animal hospital",
  "address": "20147, Taiwan, Keelung City, Xinyi District, Xin'er Road, 43號1樓             20147基隆市信義區信二路43號1樓",
  "locatedIn": null,
  "plusCode": "4QH4+HG Xinyi District, Keelung City, Taiwan",
  "website": "business.site",
  "phone": "+886 2 2425 0231",
  "temporarilyClosed": false,
  "permanentlyClosed": false,
  "rank": 15,
  "placeId": "ChIJNcqI0zdOXTQRpb1SkQrdzcE",
  "url": "https://www.google.com/maps/place/%E8%87%BA%E5%A4%A7%E8%88%88%E5%AE%89%E5%8B%95%E7%89%A9%E9%86%AB%E9%99%A2(%E5%8E%9F%E8%B2%9D%E6%96%AF%E7%89%B9%E5%8B%95%E7%89%A9%E9%86%AB%E9%99%A2)/@25.1289472,121.7541719,17z/data=!3m1!4b1!4m5!3m4!1s0x345d4e37d388ca35:0xc1cddd0a9152bda5!8m2!3d25.1289472!4d121.7563606",
  "location": {
    "lat": 25.1289472,
    "lng": 121.7563606
  },
  "searchString": "基隆市的動物醫院",
  "openingHours": [
    {
      "day": "Tuesday,",
      "hours": "10AM to 1PM, 3 to 8PM"
    },
    {
      "day": "Wednesday,",
      "hours": "10AM to 1PM, 3 to 8PM"
    },
    {
      "day": "Thursday",
      "hours": "(Mid-Autumn Festival), Closed, Hours might differ"
    },
    {
      "day": "Friday,",
      "hours": "10AM to 1PM, 3 to 8PM"
    },
    {
      "day": "Saturday,",
      "hours": "10AM to 6PM"
    },
    {
      "day": "Sunday,",
      "hours": "10AM to 6PM"
    },
    {
      "day": "Monday,",
      "hours": "10AM to 1PM, 3 to 8PM"
    }
  ],
  "reviewsCount": 58
},
{
  "title": "基隆中興動物醫院",
  "totalScore": 3.7,
  "categoryName": "Animal hospital",
  "address": "No. 237號, Renyi Road, Ren’ai District, Keelung City, Taiwan 200             200基隆市仁愛區仁一路237號",
  "locatedIn": null,
  "plusCode": "4PHX+7V Ren’ai District, Keelung City, Taiwan",
  "website": "pmck.com.tw",
  "phone": "+886 2 2426 2900",
  "temporarilyClosed": false,
  "permanentlyClosed": false,
  "rank": 3,
  "placeId": "ChIJdePC9D5OXTQRywcmTQrr5v4",
  "url": "https://www.google.com/maps/place/%E5%9F%BA%E9%9A%86%E4%B8%AD%E8%88%88%E5%8B%95%E7%89%A9%E9%86%AB%E9%99%A2/@25.128147,121.7475093,17z/data=!3m1!4b1!4m5!3m4!1s0x345d4e3ef4c2e375:0xfee6eb0a4d2607cb!8m2!3d25.128147!4d121.749698",
  "location": {
    "lat": 25.128147,
    "lng": 121.749698
  },
  "searchString": "基隆市的動物醫院",
  "openingHours": [
    {
      "day": "Tuesday,",
      "hours": "9AM to 9:30PM"
    },
    {
      "day": "Wednesday,",
      "hours": "9AM to 9:30PM"
    },
    {
      "day": "Thursday",
      "hours": "(Mid-Autumn Festival), 9AM to 9:30PM, Hours might differ"
    },
    {
      "day": "Friday,",
      "hours": "9AM to 9:30PM"
    },
    {
      "day": "Saturday,",
      "hours": "9AM to 9:30PM"
    },
    {
      "day": "Sunday,",
      "hours": "9AM to 4:30PM"
    },
    {
      "day": "Monday,",
      "hours": "9AM to 9:30PM"
    }
  ],
  "reviewsCount": 124
},
{
  "title": "基隆動物醫院-基隆汎汶動物醫院",
  "totalScore": 4.4,
  "categoryName": "Hospital",
  "address": "No. 17號, Rensi Road, Ren’ai District, Keelung City, Taiwan 200             200基隆市仁愛區仁四路17號",
  "locatedIn": null,
  "plusCode": "4PGV+X3 Ren’ai District, Keelung City, Taiwan",
  "website": "twstay.com.tw",
  "phone": "+886 2 2426 0870      phone9",
  "temporarilyClosed": false,
  "permanentlyClosed": false,
  "rank": 10,
  "placeId": "ChIJkVHzLVpPXTQRvQlsKMYkypc",
  "url": "https://www.google.com/maps/place/%E5%9F%BA%E9%9A%86%E5%8B%95%E7%89%A9%E9%86%AB%E9%99%A2-%E5%9F%BA%E9%9A%86%E6%B1%8E%E6%B1%B6%E5%8B%95%E7%89%A9%E9%86%AB%E9%99%A2/@25.1274576,121.7404831,17z/data=!3m1!4b1!4m5!3m4!1s0x345d4f5a2df35191:0x97ca24c6286c09bd!8m2!3d25.1274576!4d121.7426718",
  "location": {
    "lat": 25.1274576,
    "lng": 121.7426718
  },
  "searchString": "基隆市的動物醫院",
  "openingHours": [
    {
      "day": "Tuesday,",
      "hours": "11AM to 7PM"
    },
    {
      "day": "Wednesday,",
      "hours": "11AM to 7PM"
    },
    {
      "day": "Thursday",
      "hours": "(Mid-Autumn Festival), 11AM to 7PM, Hours might differ"
    },
    {
      "day": "Friday,",
      "hours": "11AM to 7PM"
    },
    {
      "day": "Saturday,",
      "hours": "11AM to 7PM"
    },
    {
      "day": "Sunday,",
      "hours": "11AM to 7PM"
    },
    {
      "day": "Monday,",
      "hours": "11AM to 7PM"
    }
  ],
  "reviewsCount": 124
},
{
  "title": "林犬貓專科醫院",
  "totalScore": null,
  "categoryName": "Veterinarijos klinika",
  "address": "No. 87號, Xin'er Road, Xinyi District, Keelung City, Taivanas 201             201基隆市信義區信二路87號",
  "locatedIn": null,
  "plusCode": "4QH4+M2 Xinyi District, Keelung City, Taivanas",
  "website": "facebook.com",
  "phone": "+886 2 2429 1552",
  "temporarilyClosed": false,
  "permanentlyClosed": false,
  "rank": 12,
  "placeId": "ChIJfzyu5zdOXTQR8nfNhoVyyQk",
  "url": "https://www.google.com/maps/place/%E6%9E%97%E7%8A%AC%E8%B2%93%E5%B0%88%E7%A7%91%E9%86%AB%E9%99%A2/@25.1291494,121.7528986,17z/data=!3m1!4b1!4m5!3m4!1s0x345d4e37e7ae3c7f:0x9c9728586cd77f2!8m2!3d25.1291494!4d121.7550873",
  "location": {
    "lat": 25.1291494,
    "lng": 121.7550873
  },
  "searchString": "基隆市的動物醫院",
  "openingHours": [
    null,
    null,
    {
      "day": "ketvirtadienis",
      "hours": "(Rudens vidurio šventė),10–21,Darbo laikas gali skirtis"
    },
    null,
    null,
    null,
    {
      "day": "pirmadienis,10–21.",
      "hours": "Slėpti savaitės darbo laiką"
    }
  ],
  "reviewsCount": 62
},
{
  "title": "臺大興安動物醫院",
  "totalScore": "",
  "categoryName": "Animal hospital",
  "address": "201, Taiwan, Keelung City, Xinyi District, Xin'er Road, 43號1樓             201基隆市信義區信二路43號1樓",
  "locatedIn": null,
  "plusCode": "4QH4+HG Xinyi District, Keelung City, Taiwan",
  "website": "business.site",
  "phone": "+886 2 2425 0231",
  "temporarilyClosed": false,
  "permanentlyClosed": false,
  "rank": 19,
  "placeId": "ChIJy0gD841PXTQRy7LRf8IifaU",
  "url": "https://www.google.com/maps/place/%E8%87%BA%E5%A4%A7%E8%88%88%E5%AE%89%E5%8B%95%E7%89%A9%E9%86%AB%E9%99%A2/@25.1289472,121.7541719,17z/data=!3m1!4b1!4m5!3m4!1s0x345d4f8df30348cb:0xa57d22c27fd1b2cb!8m2!3d25.1289472!4d121.7563606",
  "location": {
    "lat": 25.1289472,
    "lng": 121.7563606
  },
  "searchString": "基隆市的動物醫院",
  "openingHours": [
    {
      "day": "Tuesday,",
      "hours": "10AM to 1PM, 3 to 8PM"
    },
    {
      "day": "Wednesday,",
      "hours": "10AM to 1PM, 3 to 8PM"
    },
    {
      "day": "Thursday",
      "hours": "(Mid-Autumn Festival), Closed, Hours might differ"
    },
    {
      "day": "Friday,",
      "hours": "Closed"
    },
    {
      "day": "Saturday,",
      "hours": "10AM to 6PM"
    },
    {
      "day": "Sunday,",
      "hours": "10AM to 6PM"
    },
    {
      "day": "Monday,",
      "hours": "10AM to 1PM, 3 to 8PM"
    }
  ]
},
{
  "title": "仁愛家畜醫院",
  "totalScore": null,
  "categoryName": "Veterinarijos klinika",
  "address": "No. 35號, Xiao'er Road, Ren’ai District, Keelung City, Taivanas 200             200基隆市仁愛區孝二路35號",
  "locatedIn": null,
  "plusCode": "4PHQ+GP Ren’ai District, Keelung City, Taivanas",
  "website": null,
  "phone": "+886 2 2428 7653",
  "temporarilyClosed": false,
  "permanentlyClosed": false,
  "rank": 18,
  "placeId": "ChIJqVPyMhROXTQRWaKLNdX38TU",
  "url": "https://www.google.com/maps/place/%E4%BB%81%E6%84%9B%E5%AE%B6%E7%95%9C%E9%86%AB%E9%99%A2/@25.1288363,121.7371815,17z/data=!3m1!4b1!4m5!3m4!1s0x345d4e1432f253a9:0x35f1f7d5358ba259!8m2!3d25.1288363!4d121.7393702",
  "location": {
    "lat": 25.1288363,
    "lng": 121.7393702
  },
  "searchString": "基隆市的動物醫院",
  "reviewsCount": 6
},
{
  "title": "台大稚沅動物醫院",
  "totalScore": null,
  "categoryName": "Veterinarijos klinika",
  "address": "No. 307號, Zhongshan 1st Road, Zhongshan District, Keelung City, Taivanas 203             203基隆市中山區中山一路307號",
  "locatedIn": null,
  "plusCode": "4PPR+J9 Zhongshan District, Keelung City, Taivanas",
  "website": "facebook.com",
  "phone": "+886 2 2428 6784",
  "temporarilyClosed": false,
  "permanentlyClosed": false,
  "rank": 13,
  "placeId": "ChIJ34_-aWpOXTQRNY1lYbljOgU",
  "url": "https://www.google.com/maps/place/%E5%8F%B0%E5%A4%A7%E7%A8%9A%E6%B2%85%E5%8B%95%E7%89%A9%E9%86%AB%E9%99%A2/@25.1365914,121.7387438,17z/data=!3m1!4b1!4m5!3m4!1s0x345d4e6a69fe8fdf:0x53a63b961658d35!8m2!3d25.1365914!4d121.7409325",
  "location": {
    "lat": 25.1365914,
    "lng": 121.7409325
  },
  "searchString": "基隆市的動物醫院",
  "openingHours": [
    null,
    null,
    {
      "day": "ketvirtadienis",
      "hours": "(Rudens vidurio šventė),10–13,14:30–21,Darbo laikas gali skirtis"
    },
    null,
    null,
    null,
    {
      "day": "pirmadienis,10–13,14:30–21.",
      "hours": "Slėpti savaitės darbo laiką"
    }
  ],
  "reviewsCount": 144
},
{
  "title": "台大成安動物醫院",
  "totalScore": 3.8,
  "categoryName": "Animal hospital",
  "address": "No. 54號, Chenggong 2nd Road, Zhongshan District, Keelung City, Taiwan 203             203基隆市中山區成功二路54號",
  "locatedIn": null,
  "plusCode": "4PJP+39 Zhongshan District, Keelung City, Taiwan",
  "website": "facebook.com",
  "phone": "+886 2 2423 3739",
  "temporarilyClosed": false,
  "permanentlyClosed": false,
  "rank": 5,
  "placeId": "ChIJD6JTjRNOXTQRAO1UMlDxkXk",
  "url": "https://www.google.com/maps/place/%E5%8F%B0%E5%A4%A7%E6%88%90%E5%AE%89%E5%8B%95%E7%89%A9%E9%86%AB%E9%99%A2/@25.1301909,121.7337712,17z/data=!3m1!4b1!4m5!3m4!1s0x345d4e138d53a20f:0x7991f1503254ed00!8m2!3d25.1301909!4d121.7359599",
  "location": {
    "lat": 25.1301909,
    "lng": 121.7359599
  },
  "searchString": "基隆市的動物醫院",
  "openingHours": [
    {
      "day": "Tuesday,",
      "hours": "9AM to 12PM, 2 to 5:30PM, 6:30 to 9PM"
    },
    {
      "day": "Wednesday,",
      "hours": "9AM to 12PM, 2 to 5:30PM, 6:30 to 9PM"
    },
    {
      "day": "Thursday",
      "hours": "(Mid-Autumn Festival), 9AM to 12PM, 2 to 5:30PM, 6:30 to 9PM, Hours might differ"
    },
    {
      "day": "Friday,",
      "hours": "9AM to 12PM, 2 to 5:30PM, 6:30 to 9PM"
    },
    {
      "day": "Saturday,",
      "hours": "9AM to 12PM, 2 to 5:30PM, 6:30 to 9PM"
    },
    {
      "day": "Sunday,",
      "hours": "9AM to 12PM"
    },
    {
      "day": "Monday,",
      "hours": "9AM to 12PM, 2 to 5:30PM, 6:30 to 9PM"
    }
  ],
  "reviewsCount": 210
}]