[{
  "title": "立安動物醫院/寵物醫療",
  "totalScore": 3.6,
  "categoryName": "Veterinarian",
  "address": "No. 172, Section 1, Zhangmei Road, Changhua City, Changhua County, Taiwan 50062             50062彰化縣彰化市彰美路一段172號",
  "locatedIn": null,
  "plusCode": "3GQQ+G5 Changhua City, Changhua County, Taiwan",
  "website": null,
  "phone": "+886 4 727 0126",
  "temporarilyClosed": false,
  "permanentlyClosed": false,
  "rank": 11,
  "placeId": "ChIJYbEjvqI4aTQRIyv4qSyw2Tg",
  "url": "https://www.google.com/maps/place/%E7%AB%8B%E5%AE%89%E5%8B%95%E7%89%A9%E9%86%AB%E9%99%A2%2F%E5%AF%B5%E7%89%A9%E9%86%AB%E7%99%82/@24.0887844,120.53579,17z/data=!3m1!4b1!4m5!3m4!1s0x346938a2be23b161:0x38d9b02ca9f82b23!8m2!3d24.0887844!4d120.5379787",
  "location": {
    "lat": 24.0887844,
    "lng": 120.5379787
  },
  "searchString": "彰化縣的動物醫院",
  "openingHours": [
    {
      "day": "Tuesday,",
      "hours": "9AM to 8:30PM"
    },
    {
      "day": "Wednesday,",
      "hours": "9AM to 8:30PM"
    },
    {
      "day": "Thursday",
      "hours": "(Mid-Autumn Festival), 9AM to 8:30PM, Hours might differ"
    },
    {
      "day": "Friday,",
      "hours": "9AM to 8:30PM"
    },
    {
      "day": "Saturday,",
      "hours": "9AM to 8:30PM"
    },
    {
      "day": "Sunday,",
      "hours": "9 to 11AM"
    },
    {
      "day": "Monday,",
      "hours": "9AM to 8:30PM"
    }
  ],
  "reviewsCount": 102
},
{
  "title": "胜宏動物医院",
  "totalScore": 4.4,
  "categoryName": "Animal hospital",
  "address": "No. 31, Zhongxin 2nd Street, Tianzhong Township, Changhua County, Taiwan 520             520彰化縣田中鎮中新二街31號",
  "locatedIn": null,
  "plusCode": "VH4Q+XP Tianzhong Township, Changhua County, Taiwan",
  "website": null,
  "phone": "+886 4 874 2410",
  "temporarilyClosed": false,
  "permanentlyClosed": false,
  "rank": 6,
  "placeId": "ChIJ07sQjMM0aTQRuZJk6wINDQk",
  "url": "https://www.google.com/maps/place/%E8%83%9C%E5%AE%8F%E5%8B%95%E7%89%A9%E5%8C%BB%E9%99%A2/@23.8574669,120.5870921,17z/data=!3m1!4b1!4m5!3m4!1s0x346934c38c10bbd3:0x90d0d02eb6492b9!8m2!3d23.8574669!4d120.5892808",
  "location": {
    "lat": 23.8574669,
    "lng": 120.5892808
  },
  "searchString": "彰化縣的動物醫院",
  "openingHours": [
    {
      "day": "Tuesday,",
      "hours": "9AM to 12PM, 2 to 6PM, 7 to 9PM"
    },
    {
      "day": "Wednesday,",
      "hours": "Closed"
    },
    {
      "day": "Thursday",
      "hours": "(Mid-Autumn Festival), Closed, Hours might differ"
    },
    {
      "day": "Friday,",
      "hours": "9AM to 12PM, 2 to 6PM, 7 to 9PM"
    },
    {
      "day": "Saturday,",
      "hours": "9AM to 12PM, 2 to 6PM, 7 to 9PM"
    },
    {
      "day": "Sunday,",
      "hours": "9AM to 12PM, 2 to 6PM, 7 to 9PM"
    },
    {
      "day": "Monday,",
      "hours": "9AM to 12PM, 2 to 6PM, 7 to 9PM"
    }
  ],
  "reviewsCount": 41
},
{
  "title": "築愛動物醫院",
  "totalScore": 4.6,
  "categoryName": "Animal hospital",
  "address": "No. 51號, Minsheng South Road, Changhua City, Changhua County, Taiwan 500             500彰化縣彰化市民生南路51號",
  "locatedIn": null,
  "plusCode": "3GFR+7Q Changhua City, Changhua County, Taiwan",
  "website": "facebook.com",
  "phone": "+886 4 723 9939      phone5",
  "temporarilyClosed": false,
  "permanentlyClosed": false,
  "rank": 18,
  "placeId": "ChIJpU5QAY84aTQRTGjCB_xcGvI",
  "url": "https://www.google.com/maps/place/%E7%AF%89%E6%84%9B%E5%8B%95%E7%89%A9%E9%86%AB%E9%99%A2/@24.0731829,120.5397883,17z/data=!3m1!4b1!4m5!3m4!1s0x3469388f01504ea5:0xf21a5cfc07c2684c!8m2!3d24.0731829!4d120.541977",
  "location": {
    "lat": 24.0731829,
    "lng": 120.541977
  },
  "searchString": "彰化縣的動物醫院",
  "openingHours": [
    {
      "day": "Tuesday,",
      "hours": "9 to 11:30AM, 1 to 4:30PM, 5:30 to 8:30PM"
    },
    {
      "day": "Wednesday,",
      "hours": "9 to 11:30AM, 1 to 4:30PM, 5:30 to 8:30PM"
    },
    {
      "day": "Thursday",
      "hours": "(Mid-Autumn Festival), 9 to 11:30AM, 1 to 4:30PM, 5:30 to 8:30PM, Hours might differ"
    },
    {
      "day": "Friday,",
      "hours": "9 to 11:30AM, 1 to 4:30PM, 5:30 to 8:30PM"
    },
    {
      "day": "Saturday,",
      "hours": "9 to 11:30AM, 1 to 4:30PM, 5:30 to 8:30PM"
    },
    {
      "day": "Sunday,",
      "hours": "9AM to 4:30PM"
    },
    {
      "day": "Monday,",
      "hours": "9 to 11:30AM, 1 to 4:30PM, 5:30 to 8:30PM"
    }
  ],
  "reviewsCount": 286
},
{
  "title": "全興動物醫院",
  "totalScore": 4.3,
  "categoryName": "Animal hospital",
  "address": "No. 256, Section 2, Zhongzheng Road, Changhua City, Changhua County, Taiwan 500             500彰化縣彰化市中正路二段256號",
  "locatedIn": null,
  "plusCode": "3GGP+GQ Changhua City, Changhua County, Taiwan",
  "website": null,
  "phone": "+886 4 725 8916",
  "temporarilyClosed": false,
  "permanentlyClosed": false,
  "rank": 7,
  "placeId": "ChIJWenWIIU4aTQRQ3WOaj6q2jM",
  "url": "https://www.google.com/maps/place/%E5%85%A8%E8%88%88%E5%8B%95%E7%89%A9%E9%86%AB%E9%99%A2/@24.0763103,120.5346913,17z/data=!3m1!4b1!4m5!3m4!1s0x3469388520d6e959:0x33daaa3e6a8e7543!8m2!3d24.0763103!4d120.53688",
  "location": {
    "lat": 24.0763103,
    "lng": 120.53688
  },
  "searchString": "彰化縣的動物醫院",
  "openingHours": [
    {
      "day": "Tuesday,",
      "hours": "9AM to 9PM"
    },
    {
      "day": "Wednesday,",
      "hours": "9AM to 9PM"
    },
    {
      "day": "Thursday",
      "hours": "(Mid-Autumn Festival), 9AM to 9PM, Hours might differ"
    },
    {
      "day": "Friday,",
      "hours": "9AM to 9PM"
    },
    {
      "day": "Saturday,",
      "hours": "9AM to 9PM"
    },
    {
      "day": "Sunday,",
      "hours": "9AM to 12PM"
    },
    {
      "day": "Monday,",
      "hours": "9AM to 9PM"
    }
  ],
  "reviewsCount": 48
},
{
  "title": "群力動物醫院",
  "totalScore": 4.6,
  "categoryName": "Animal hospital",
  "address": "No. 261, Yonglong 1st Street, Dali District, Taiwan 412             412大里區永隆一街261號",
  "locatedIn": null,
  "plusCode": "4M3G+Q6 Dali District, Taichung City, Taiwan",
  "website": "m.facebook.com",
  "phone": "+886 4 2406 9160",
  "temporarilyClosed": false,
  "permanentlyClosed": false,
  "rank": 76,
  "placeId": "ChIJfYATOfI8aTQRKSzM8xIYnMk",
  "url": "https://www.google.com/maps/place/%E7%BE%A4%E5%8A%9B%E5%8B%95%E7%89%A9%E9%86%AB%E9%99%A2/@24.1044614,120.6734069,17z/data=!3m1!4b1!4m5!3m4!1s0x34693cf23913807d:0xc99c1812f3cc2c29!8m2!3d24.1044614!4d120.6755956",
  "location": {
    "lat": 24.1044614,
    "lng": 120.6755956
  },
  "searchString": "彰化縣的動物醫院",
  "openingHours": [
    {
      "day": "Tuesday,",
      "hours": "9:30AM to 9PM"
    },
    {
      "day": "Wednesday,",
      "hours": "9:30AM to 9PM"
    },
    {
      "day": "Thursday",
      "hours": "(Mid-Autumn Festival), 9:30AM to 9PM, Hours might differ"
    },
    {
      "day": "Friday,",
      "hours": "9:30AM to 9PM"
    },
    {
      "day": "Saturday,",
      "hours": "9:30AM to 12PM"
    },
    {
      "day": "Sunday,",
      "hours": "Closed"
    },
    {
      "day": "Monday,",
      "hours": "9:30AM to 9PM"
    }
  ],
  "reviewsCount": 19
},
{
  "title": "文志動物醫院",
  "totalScore": 4.5,
  "categoryName": "Animal hospital",
  "address": "No. 344號, Wenhua Road, Douliu City, Yunlin County, Taiwan 640             640雲林縣斗六市文化路344號",
  "locatedIn": null,
  "plusCode": "PH63+MC Douliu City, Yunlin County, Taiwan",
  "website": null,
  "phone": "+886 5 532 2735",
  "temporarilyClosed": false,
  "permanentlyClosed": false,
  "rank": 69,
  "placeId": "ChIJZVlYV0jIbjQRWqICTw3oAWo",
  "url": "https://www.google.com/maps/place/%E6%96%87%E5%BF%97%E5%8B%95%E7%89%A9%E9%86%AB%E9%99%A2/@23.7116468,120.5513188,17z/data=!3m1!4b1!4m5!3m4!1s0x346ec84857585965:0x6a01e80d4f02a25a!8m2!3d23.7116468!4d120.5535075",
  "location": {
    "lat": 23.7116468,
    "lng": 120.5535075
  },
  "searchString": "彰化縣的動物醫院",
  "openingHours": [
    {
      "day": "Tuesday,",
      "hours": "9 to 11:30AM, 2 to 5:30PM, 7 to 8:30PM"
    },
    {
      "day": "Wednesday,",
      "hours": "9 to 11:30AM, 2 to 5:30PM, 7 to 8:30PM"
    },
    {
      "day": "Thursday",
      "hours": "(Mid-Autumn Festival), 9 to 11:30AM, 2 to 5:30PM, 7 to 8:30PM, Hours might differ"
    },
    {
      "day": "Friday,",
      "hours": "9 to 11:30AM, 2 to 5:30PM, 7 to 8:30PM"
    },
    {
      "day": "Saturday,",
      "hours": "9 to 11:30AM, 2 to 5:30PM, 7 to 8:30PM"
    },
    {
      "day": "Sunday,",
      "hours": "Closed"
    },
    {
      "day": "Monday,",
      "hours": "9 to 11:30AM, 2 to 5:30PM, 7 to 8:30PM"
    }
  ],
  "reviewsCount": 233
},
{
  "title": "李家畜診所",
  "totalScore": 3.8,
  "categoryName": "Medical clinic",
  "address": "No. 69, Huanzhong Street, Xihu Township, Changhua County, Taiwan 514             514彰化縣溪湖鎮環中街69號",
  "locatedIn": null,
  "plusCode": "XF6J+2C Xihu Township, Changhua County, Taiwan",
  "website": null,
  "phone": "+886 4 885 3981",
  "temporarilyClosed": false,
  "permanentlyClosed": false,
  "rank": 61,
  "placeId": "ChIJBdGkynhJaTQRVnfoGQxOVX4",
  "url": "https://www.google.com/maps/place/%E6%9D%8E%E5%AE%B6%E7%95%9C%E8%A8%BA%E6%89%80/@23.9600483,120.4789207,17z/data=!3m1!4b1!4m5!3m4!1s0x34694978caa4d105:0x7e554e0c19e87756!8m2!3d23.9600483!4d120.4811094",
  "location": {
    "lat": 23.9600483,
    "lng": 120.4811094
  },
  "searchString": "彰化縣的動物醫院",
  "openingHours": [
    {
      "day": "Tuesday,",
      "hours": "9AM to 12PM, 3 to 8PM"
    },
    {
      "day": "Wednesday,",
      "hours": "9AM to 12PM, 3 to 8PM"
    },
    {
      "day": "Thursday",
      "hours": "(Mid-Autumn Festival), 9AM to 12PM, 3 to 8PM, Hours might differ"
    },
    {
      "day": "Friday,",
      "hours": "9AM to 12PM, 3 to 8PM"
    },
    {
      "day": "Saturday,",
      "hours": "Closed"
    },
    {
      "day": "Sunday,",
      "hours": "9AM to 12PM, 3 to 8PM"
    },
    {
      "day": "Monday,",
      "hours": "9AM to 12PM, 3 to 8PM"
    }
  ],
  "reviewsCount": 16
},
{
  "title": "瑞和動物醫院",
  "totalScore": 4.2,
  "categoryName": "Animal hospital",
  "address": "No. 426號, Section 1, Zhongxing Road, Dali District, Taichung City, Taiwan 412             412台中市大里區中興路一段426號",
  "locatedIn": null,
  "plusCode": "3MVR+28 Dali District, Taichung City, Taiwan",
  "website": "realher.com.tw",
  "phone": "+886 4 2493 2524",
  "temporarilyClosed": false,
  "permanentlyClosed": false,
  "rank": 70,
  "placeId": "ChIJZV1eab48aTQRgamq7lJWQlo",
  "url": "https://www.google.com/maps/place/%E7%91%9E%E5%92%8C%E5%8B%95%E7%89%A9%E9%86%AB%E9%99%A2/@24.0925649,120.6886303,17z/data=!3m1!4b1!4m5!3m4!1s0x34693cbe695e5d65:0x5a425652eeaaa981!8m2!3d24.0925649!4d120.690819",
  "location": {
    "lat": 24.0925649,
    "lng": 120.690819
  },
  "searchString": "彰化縣的動物醫院",
  "openingHours": [
    {
      "day": "Tuesday,",
      "hours": "8AM to 5PM"
    },
    {
      "day": "Wednesday,",
      "hours": "8AM to 5PM"
    },
    {
      "day": "Thursday",
      "hours": "(Mid-Autumn Festival), 8AM to 5PM, Hours might differ"
    },
    {
      "day": "Friday,",
      "hours": "8AM to 5PM"
    },
    {
      "day": "Saturday,",
      "hours": "8AM to 5PM"
    },
    {
      "day": "Sunday,",
      "hours": "Closed"
    },
    {
      "day": "Monday,",
      "hours": "8AM to 5PM"
    }
  ],
  "reviewsCount": 55
},
{
  "title": "啟仁動物醫院",
  "totalScore": 4.6,
  "categoryName": "Hospital",
  "address": "號 No. 364, Section 1, Zhongxing Road, Dali District, Taichung City, Taiwan 412             號 No. 364, 中興路一段大里區台中市412",
  "locatedIn": null,
  "plusCode": "3MRR+GX Dali District, Taichung City, Taiwan",
  "website": "hospital-3323.business.site",
  "phone": "+886 4 2493 3385",
  "temporarilyClosed": false,
  "permanentlyClosed": false,
  "rank": 71,
  "placeId": "ChIJXSdYgr48aTQRnO3GjPio5fk",
  "url": "https://www.google.com/maps/place/%E5%95%9F%E4%BB%81%E5%8B%95%E7%89%A9%E9%86%AB%E9%99%A2/@24.09126,120.6902233,17z/data=!3m1!4b1!4m5!3m4!1s0x34693cbe8258275d:0xf9e5a8f88cc6ed9c!8m2!3d24.09126!4d120.692412",
  "location": {
    "lat": 24.09126,
    "lng": 120.692412
  },
  "searchString": "彰化縣的動物醫院",
  "openingHours": [
    {
      "day": "Tuesday,",
      "hours": "11AM to 11PM"
    },
    {
      "day": "Wednesday,",
      "hours": "11AM to 11PM"
    },
    {
      "day": "Thursday",
      "hours": "(Mid-Autumn Festival), 11AM to 11PM, Hours might differ"
    },
    {
      "day": "Friday,",
      "hours": "11AM to 11PM"
    },
    {
      "day": "Saturday,",
      "hours": "11AM to 11PM"
    },
    {
      "day": "Sunday,",
      "hours": "Closed"
    },
    {
      "day": "Monday,",
      "hours": "11AM to 11PM"
    }
  ],
  "reviewsCount": 66
},
{
  "title": "南投縣家畜疾病防治所",
  "totalScore": 4.5,
  "categoryName": "Animal hospital",
  "address": "No. 499, Minzu Road, Nantou City, Nantou County, Taiwan 540             540南投縣南投市民族路499號",
  "locatedIn": null,
  "plusCode": "WM4J+M9 Nantou City, Nantou County, Taiwan",
  "website": "adcc.nantou.gov.tw",
  "phone": "+886 4 9222 2542",
  "temporarilyClosed": false,
  "permanentlyClosed": false,
  "rank": 68,
  "placeId": "ChIJ-WfigCcyaTQRjx-JS9k8Yzo",
  "url": "https://www.google.com/maps/place/%E5%8D%97%E6%8A%95%E7%B8%A3%E5%AE%B6%E7%95%9C%E7%96%BE%E7%97%85%E9%98%B2%E6%B2%BB%E6%89%80/@23.9066594,120.6787665,17z/data=!3m1!4b1!4m5!3m4!1s0x3469322780e267f9:0x3a633cd94b891f8f!8m2!3d23.9066594!4d120.6809552",
  "location": {
    "lat": 23.9066594,
    "lng": 120.6809552
  },
  "searchString": "彰化縣的動物醫院",
  "reviewsCount": 19
},
{
  "title": "ㄚ貓ㄚ狗動物醫院暨寵物高壓氧中心-台中寵物高壓氧|南屯動物醫院|動物醫院評價|動物醫院推薦|寵物癱瘓治療|貓狗急救",
  "totalScore": 4.6,
  "categoryName": "Animal hospital",
  "address": "號, No. 783, Dadun 11th St, Nantun District, Taichung City, Taiwan 408             號, No. 783大墩十一街南屯區台中市408",
  "locatedIn": null,
  "plusCode": "4JXM+7M Nantun District, Taichung City, Taiwan",
  "website": "facebook.com",
  "phone": "+886 4 2380 5811",
  "temporarilyClosed": false,
  "permanentlyClosed": false,
  "rank": 75,
  "placeId": "ChIJ-98ZC8M9aTQRGy_RQgklaOU",
  "url": "https://www.google.com/maps/place/%E3%84%9A%E8%B2%93%E3%84%9A%E7%8B%97%E5%8B%95%E7%89%A9%E9%86%AB%E9%99%A2%E6%9A%A8%E5%AF%B5%E7%89%A9%E9%AB%98%E5%A3%93%E6%B0%A7%E4%B8%AD%E5%BF%83-%E5%8F%B0%E4%B8%AD%E5%AF%B5%E7%89%A9%E9%AB%98%E5%A3%93%E6%B0%A7%7C%E5%8D%97%E5%B1%AF%E5%8B%95%E7%89%A9%E9%86%AB%E9%99%A2%7C%E5%8B%95%E7%89%A9%E9%86%AB%E9%99%A2%E8%A9%95%E5%83%B9%7C%E5%8B%95%E7%89%A9%E9%86%AB%E9%99%A2%E6%8E%A8%E8%96%A6%7C%E5%AF%B5%E7%89%A9%E7%99%B1%E7%98%93%E6%B2%BB%E7%99%82%7C%E8%B2%93%E7%8B%97%E6%80%A5%E6%95%91/@24.1482329,120.6319577,17z/data=!3m1!4b1!4m5!3m4!1s0x34693dc30b19dffb:0xe568250942d12f1b!8m2!3d24.1482329!4d120.6341464",
  "location": {
    "lat": 24.1482329,
    "lng": 120.6341464
  },
  "searchString": "彰化縣的動物醫院",
  "openingHours": [
    {
      "day": "Tuesday,",
      "hours": "9:30AM to 12PM, 2 to 9PM"
    },
    {
      "day": "Wednesday,",
      "hours": "9:30AM to 12PM, 2 to 9PM"
    },
    {
      "day": "Thursday",
      "hours": "(Mid-Autumn Festival), 9:30AM to 12PM, 2 to 9PM, Holiday hours"
    },
    {
      "day": "Friday,",
      "hours": "9:30AM to 12PM, 2 to 9PM"
    },
    {
      "day": "Saturday,",
      "hours": "9:30AM to 12PM, 2 to 9PM"
    },
    {
      "day": "Sunday,",
      "hours": "Closed"
    },
    {
      "day": "Monday,",
      "hours": "9:30AM to 12PM, 2 to 9PM"
    }
  ],
  "reviewsCount": 109
},
{
  "title": "佑犬動物醫院",
  "totalScore": 4.5,
  "categoryName": "Veterinarian",
  "address": "No. 58, Hushan Road, Nantou City, Nantou County, Taiwan 540             540南投縣南投市虎山路58號",
  "locatedIn": null,
  "plusCode": "XM5P+P3 Nantou City, Nantou County, Taiwan",
  "website": null,
  "phone": "+886 4 9235 1442",
  "temporarilyClosed": false,
  "permanentlyClosed": false,
  "rank": 62,
  "placeId": "ChIJTZflJkYwaTQRYKAtvHtIkYE",
  "url": "https://www.google.com/maps/place/%E4%BD%91%E7%8A%AC%E5%8B%95%E7%89%A9%E9%86%AB%E9%99%A2/@23.9592639,120.6829843,17z/data=!3m1!4b1!4m5!3m4!1s0x3469304626e5974d:0x8191487bbc2da060!8m2!3d23.9592639!4d120.685173",
  "location": {
    "lat": 23.9592639,
    "lng": 120.685173
  },
  "searchString": "彰化縣的動物醫院",
  "reviewsCount": 26
},
{
  "title": "心美動物醫院",
  "totalScore": 4.6,
  "categoryName": "Animal hospital",
  "address": "No. 539號, Section 2, Wuquan West Road, Nantun District, Taichung City, Taiwan 408             408台中市南屯區五權西路二段539號",
  "locatedIn": null,
  "plusCode": "4JRR+9J Nantun District, Taichung City, Taiwan",
  "website": "shinmei-vet.com",
  "phone": "+886 4 2389 2263",
  "temporarilyClosed": false,
  "permanentlyClosed": false,
  "rank": 74,
  "placeId": "ChIJEVBXIL49aTQRM9A7Pe4XauQ",
  "url": "https://www.google.com/maps/place/%E5%BF%83%E7%BE%8E%E5%8B%95%E7%89%A9%E9%86%AB%E9%99%A2/@24.1408892,120.63941,17z/data=!3m1!4b1!4m5!3m4!1s0x34693dbe20575011:0xe46a17ee3d3bd033!8m2!3d24.1408892!4d120.6415987",
  "location": {
    "lat": 24.1408892,
    "lng": 120.6415987
  },
  "searchString": "彰化縣的動物醫院",
  "openingHours": [
    {
      "day": "Tuesday,",
      "hours": "10AM to 10:30PM"
    },
    {
      "day": "Wednesday,",
      "hours": "10AM to 10:30PM"
    },
    {
      "day": "Thursday",
      "hours": "(Mid-Autumn Festival), 10AM to 10:30PM, Hours might differ"
    },
    {
      "day": "Friday,",
      "hours": "10AM to 10:30PM"
    },
    {
      "day": "Saturday,",
      "hours": "10AM to 10:30PM"
    },
    {
      "day": "Sunday,",
      "hours": "10AM to 10:30PM"
    },
    {
      "day": "Monday,",
      "hours": "10AM to 10:30PM"
    }
  ],
  "reviewsCount": 135
},
{
  "title": "會統動物醫院",
  "totalScore": "",
  "categoryName": "",
  "address": "No. 397號, Section 3, Zhongshan Road, Xizhou Township, Changhua County, Taiwan 524             524彰化縣溪州鄉中山路三段397號",
  "locatedIn": null,
  "plusCode": "VF3W+57 Xizhou Township, Changhua County, Taiwan",
  "website": null,
  "phone": "+886 4 889 5036",
  "temporarilyClosed": false,
  "permanentlyClosed": false,
  "rank": 66,
  "placeId": "ChIJtxYGUTC1bjQRIf9GbsBoBzY",
  "url": "https://www.google.com/maps/place/%E6%9C%83%E7%B5%B1%E5%8B%95%E7%89%A9%E9%86%AB%E9%99%A2/@23.852922,120.4935313,17z/data=!3m1!4b1!4m5!3m4!1s0x346eb530510616b7:0x360768c06e46ff21!8m2!3d23.852922!4d120.49572",
  "location": {
    "lat": 23.852922,
    "lng": 120.49572
  },
  "searchString": "彰化縣的動物醫院"
},
{
  "title": "龍恩動物醫院",
  "totalScore": 4.5,
  "categoryName": "Animal hospital",
  "address": "No. 287, Dadun 6th St, Nantun District, Taichung City, Taiwan 408             408台中市南屯區大墩六街287號",
  "locatedIn": null,
  "plusCode": "4JRW+XC Nantun District, Taichung City, Taiwan",
  "website": "facebook.com",
  "phone": "+886 4 2383 0622",
  "temporarilyClosed": false,
  "permanentlyClosed": false,
  "rank": 73,
  "placeId": "ChIJvY1QHrk9aTQRFjbXIa0xiso",
  "url": "https://www.google.com/maps/place/%E9%BE%8D%E6%81%A9%E5%8B%95%E7%89%A9%E9%86%AB%E9%99%A2/@24.142472,120.6439313,17z/data=!3m1!4b1!4m5!3m4!1s0x34693db91e508dbd:0xca8a31ad21d73616!8m2!3d24.142472!4d120.64612",
  "location": {
    "lat": 24.142472,
    "lng": 120.64612
  },
  "searchString": "彰化縣的動物醫院",
  "openingHours": [
    {
      "day": "Tuesday,",
      "hours": "9:30AM to 9:15PM"
    },
    {
      "day": "Wednesday,",
      "hours": "9:30AM to 9:15PM"
    },
    {
      "day": "Thursday",
      "hours": "(Mid-Autumn Festival), 9:30AM to 9:15PM, Hours might differ"
    },
    {
      "day": "Friday,",
      "hours": "9:30AM to 9:15PM"
    },
    {
      "day": "Saturday,",
      "hours": "9:30AM to 9:15PM"
    },
    {
      "day": "Sunday,",
      "hours": "Closed"
    },
    {
      "day": "Monday,",
      "hours": "9:30AM to 9:15PM"
    }
  ],
  "reviewsCount": 66
},
{
  "title": "興旺動物醫院",
  "totalScore": 4.3,
  "categoryName": "Animal hospital",
  "address": "403, Taiwan, Taichung City, 40869 五權西路二段1146號             403台中市40869 五權西路二段1146號",
  "locatedIn": null,
  "plusCode": "4JXG+9Q Nantun District, Taichung City, Taiwan",
  "website": "facebook.com",
  "phone": "+886 4 2389 0700",
  "temporarilyClosed": false,
  "permanentlyClosed": false,
  "rank": 64,
  "placeId": "ChIJSXHwV3Q9aTQRKaj3CYTI7vk",
  "url": "https://www.google.com/maps/place/%E8%88%88%E6%97%BA%E5%8B%95%E7%89%A9%E9%86%AB%E9%99%A2/@24.1484789,120.6247023,17z/data=!3m1!4b1!4m5!3m4!1s0x34693d7457f07149:0xf9eec88409f7a829!8m2!3d24.1484789!4d120.626891",
  "location": {
    "lat": 24.1484789,
    "lng": 120.626891
  },
  "searchString": "彰化縣的動物醫院",
  "openingHours": [
    {
      "day": "Tuesday,",
      "hours": "1:10 to 6PM, 7 to 9PM"
    },
    {
      "day": "Wednesday,",
      "hours": "1:10 to 6PM, 7 to 9PM"
    },
    {
      "day": "Thursday",
      "hours": "(Mid-Autumn Festival), 1:10 to 6PM, 7 to 9PM, Hours might differ"
    },
    {
      "day": "Friday,",
      "hours": "1:10 to 6PM, 7 to 9PM"
    },
    {
      "day": "Saturday,",
      "hours": "1:10 to 6PM, 7 to 9PM"
    },
    {
      "day": "Sunday,",
      "hours": "1:10 to 6PM, 7 to 9PM"
    },
    {
      "day": "Monday,",
      "hours": "1:10 to 6PM, 7 to 9PM"
    }
  ],
  "reviewsCount": 174
},
{
  "title": "大原動物醫院-南屯動物醫院推薦|貓狗皮膚科|動物醫院評價|寵物生病|寵物醫院|獸醫推薦",
  "totalScore": 4.5,
  "categoryName": "Animal hospital",
  "address": "No. 165號, Section 2, Liming Road, Nantun District, Taichung City, Taiwan 408             408台中市南屯區黎明路二段165號",
  "locatedIn": null,
  "plusCode": "4JWP+GG Nantun District, Taichung City, Taiwan",
  "website": null,
  "phone": "+886 4 2389 1108",
  "temporarilyClosed": false,
  "permanentlyClosed": false,
  "rank": 63,
  "placeId": "ChIJTYoKRZk9aTQRTNWS8mobt_o",
  "url": "https://www.google.com/maps/place/%E5%A4%A7%E5%8E%9F%E5%8B%95%E7%89%A9%E9%86%AB%E9%99%A2-%E5%8D%97%E5%B1%AF%E5%8B%95%E7%89%A9%E9%86%AB%E9%99%A2%E6%8E%A8%E8%96%A6%7C%E8%B2%93%E7%8B%97%E7%9A%AE%E8%86%9A%E7%A7%91%7C%E5%8B%95%E7%89%A9%E9%86%AB%E9%99%A2%E8%A9%95%E5%83%B9%7C%E5%AF%B5%E7%89%A9%E7%94%9F%E7%97%85%7C%E5%AF%B5%E7%89%A9%E9%86%AB%E9%99%A2%7C%E7%8D%B8%E9%86%AB%E6%8E%A8%E8%96%A6/@24.1463656,120.6340632,17z/data=!3m1!4b1!4m5!3m4!1s0x34693d99450a8a4d:0xfab71b6af292d54c!8m2!3d24.1463656!4d120.6362519",
  "location": {
    "lat": 24.1463656,
    "lng": 120.6362519
  },
  "searchString": "彰化縣的動物醫院",
  "openingHours": [
    {
      "day": "Tuesday,",
      "hours": "9AM to 12PM, 2 to 9PM"
    },
    {
      "day": "Wednesday,",
      "hours": "9AM to 12PM, 2 to 9PM"
    },
    {
      "day": "Thursday",
      "hours": "(Mid-Autumn Festival), 9AM to 12PM, 2 to 9PM, Hours might differ"
    },
    {
      "day": "Friday,",
      "hours": "9AM to 12PM, 2 to 9PM"
    },
    {
      "day": "Saturday,",
      "hours": "9AM to 12PM, 2 to 9PM"
    },
    {
      "day": "Sunday,",
      "hours": "Closed"
    },
    {
      "day": "Monday,",
      "hours": "9AM to 12PM, 2 to 9PM"
    }
  ],
  "reviewsCount": 37
},
{
  "title": "毛毛動物診所",
  "totalScore": 4.1,
  "categoryName": "Animal hospital",
  "address": "No. 111號, Xinxing Road, Wuri District, Taichung City, Taiwan 414             414台中市烏日區新興路111號",
  "locatedIn": null,
  "plusCode": "4J3H+J6 Wuri District, Taichung City, Taiwan",
  "website": "phibus.pixnet.net",
  "phone": "+886 4 2337 1199",
  "temporarilyClosed": false,
  "permanentlyClosed": false,
  "rank": 67,
  "placeId": "ChIJWVu9txs8aTQRGJLdqMGxSao",
  "url": "https://www.google.com/maps/place/%E6%AF%9B%E6%AF%9B%E5%8B%95%E7%89%A9%E8%A8%BA%E6%89%80/@24.1040487,120.6258556,17z/data=!3m1!4b1!4m5!3m4!1s0x34693c1bb7bd5b59:0xaa49b1c1a8dd9218!8m2!3d24.1040487!4d120.6280443",
  "location": {
    "lat": 24.1040487,
    "lng": 120.6280443
  },
  "searchString": "彰化縣的動物醫院",
  "openingHours": [
    {
      "day": "Tuesday,",
      "hours": "10AM to 12PM, 3 to 8:30PM"
    },
    {
      "day": "Wednesday,",
      "hours": "10AM to 12PM, 3 to 8:30PM"
    },
    {
      "day": "Thursday",
      "hours": "(Mid-Autumn Festival), 10AM to 12PM, 3 to 8:30PM, Holiday hours"
    },
    {
      "day": "Friday,",
      "hours": "10AM to 12PM, 3 to 8:30PM"
    },
    {
      "day": "Saturday,",
      "hours": "10AM to 12PM, 3 to 6PM"
    },
    {
      "day": "Sunday,",
      "hours": "Closed"
    },
    {
      "day": "Monday,",
      "hours": "3 to 8:30PM"
    }
  ],
  "reviewsCount": 56
},
{
  "title": "永吉動物醫院",
  "totalScore": 4.1,
  "categoryName": "Animal hospital",
  "address": "No. 1191號, Section 1, Liming Road, Nantun District, Taichung City, Taiwan 408             408台中市南屯區黎明路一段1191號",
  "locatedIn": null,
  "plusCode": "4JRQ+M4 Nantun District, Taichung City, Taiwan",
  "website": null,
  "phone": "+886 4 2389 2575",
  "temporarilyClosed": false,
  "permanentlyClosed": false,
  "rank": 72,
  "placeId": "ChIJJzG3DcY9aTQR_HpEMBn3mTI",
  "url": "https://www.google.com/maps/place/%E6%B0%B8%E5%90%89%E5%8B%95%E7%89%A9%E9%86%AB%E9%99%A2/@24.141741,120.6356353,17z/data=!3m1!4b1!4m5!3m4!1s0x34693dc60db73127:0x3299f71930447afc!8m2!3d24.141741!4d120.637824",
  "location": {
    "lat": 24.141741,
    "lng": 120.637824
  },
  "searchString": "彰化縣的動物醫院",
  "reviewsCount": 14
},
{
  "title": "傑生動物醫院",
  "totalScore": 4.4,
  "categoryName": "Pet store",
  "address": "No. 475號, Section 2, Yuanlu Road, Xihu Township, Changhua County, Taiwan 514             514彰化縣溪湖鎮員鹿路二段475號",
  "locatedIn": null,
  "plusCode": "XF4M+QP Xihu Township, Changhua County, Taiwan",
  "website": "facebook.com",
  "phone": "+886 4 882 6262",
  "temporarilyClosed": false,
  "permanentlyClosed": false,
  "rank": 65,
  "placeId": "ChIJh_LCb25JaTQRbZsNGwd4p5A",
  "url": "https://www.google.com/maps/place/%E5%82%91%E7%94%9F%E5%8B%95%E7%89%A9%E9%86%AB%E9%99%A2/@23.9569326,120.4821085,17z/data=!3m1!4b1!4m5!3m4!1s0x3469496e6fc2f287:0x90a778071b0d9b6d!8m2!3d23.9569326!4d120.4842972",
  "location": {
    "lat": 23.9569326,
    "lng": 120.4842972
  },
  "searchString": "彰化縣的動物醫院",
  "openingHours": [
    {
      "day": "Tuesday,",
      "hours": "9:30AM to 8PM"
    },
    {
      "day": "Wednesday,",
      "hours": "Closed"
    },
    {
      "day": "Thursday",
      "hours": "(Mid-Autumn Festival), 9:30AM to 8PM, Hours might differ"
    },
    {
      "day": "Friday,",
      "hours": "9:30AM to 8PM"
    },
    {
      "day": "Saturday,",
      "hours": "9:30AM to 8PM"
    },
    {
      "day": "Sunday,",
      "hours": "9:30AM to 12AM"
    },
    {
      "day": "Monday,",
      "hours": "9:30AM to 8PM"
    }
  ],
  "reviewsCount": 35
},
{
  "title": "Thanksgiving Pet Animal Hospital",
  "totalScore": 4,
  "categoryName": "Animal hospital",
  "address": null,
  "locatedIn": null,
  "plusCode": null,
  "website": "facebook.com",
  "phone": "+886 4 2320 2590",
  "temporarilyClosed": false,
  "permanentlyClosed": false,
  "rank": 59,
  "placeId": "ChIJzYxP1YM9aTQRCRNtZJ6yRvU",
  "url": "https://www.google.com/maps/place/Thanksgiving+Pet+Animal+Hospital/@23.4205329,115.6087676,6z/data=!3m1!4b1!4m5!3m4!1s0x34693d83d54f8ccd:0xf546b29e646d1309!8m2!3d23.4849839!4d120.1040176",
  "location": {
    "lat": 23.4849839,
    "lng": 120.1040176
  },
  "searchString": "彰化縣的動物醫院",
  "openingHours": [
    {
      "day": "Tuesday,",
      "hours": "9AM to 12PM, 2 to 6PM, 7 to 9PM"
    },
    {
      "day": "Wednesday,",
      "hours": "9AM to 12PM, 2 to 6PM, 7 to 9PM"
    },
    {
      "day": "Thursday",
      "hours": "(Mid-Autumn Festival), 9AM to 12PM, 2 to 6PM, 7 to 9PM, Hours might differ"
    },
    {
      "day": "Friday,",
      "hours": "9AM to 12PM, 2 to 6PM, 7 to 9PM"
    },
    {
      "day": "Saturday,",
      "hours": "9AM to 12PM, 2 to 6PM, 7 to 9PM"
    },
    {
      "day": "Sunday,",
      "hours": "3 to 6PM, 7 to 9PM"
    },
    {
      "day": "Monday,",
      "hours": "9AM to 12PM, 2 to 6PM, 7 to 9PM"
    }
  ],
  "reviewsCount": 183
},
{
  "title": "大心動物醫院",
  "totalScore": 4.6,
  "categoryName": "Veterinarian",
  "address": "No. 486號, Section 1, Taiping Road, Caotun Township, Nantou County, Taiwan 542             542南投縣草屯鎮太平路一段486號",
  "locatedIn": null,
  "plusCode": "XM9M+43 Caotun Township, Nantou County, Taiwan",
  "website": "facebook.com",
  "phone": "+886 4 9235 3838      phone3",
  "temporarilyClosed": false,
  "permanentlyClosed": false,
  "rank": 60,
  "placeId": "ChIJbWF82WswaTQRt5xDP0m-uTs",
  "url": "https://www.google.com/maps/place/%E5%A4%A7%E5%BF%83%E5%8B%95%E7%89%A9%E9%86%AB%E9%99%A2/@23.9678394,120.6805454,17z/data=!3m1!4b1!4m5!3m4!1s0x3469306bd97c616d:0x3bb9be493f439cb7!8m2!3d23.9678394!4d120.6827341",
  "location": {
    "lat": 23.9678394,
    "lng": 120.6827341
  },
  "searchString": "彰化縣的動物醫院",
  "openingHours": [
    {
      "day": "Tuesday,",
      "hours": "9AM to 12PM, 3 to 5PM, 6:30 to 9PM"
    },
    {
      "day": "Wednesday,",
      "hours": "9AM to 12PM, 3 to 5PM, 6:30 to 9PM"
    },
    {
      "day": "Thursday",
      "hours": "(Mid-Autumn Festival), 9AM to 12PM, 3 to 5PM, Hours might differ"
    },
    {
      "day": "Friday,",
      "hours": "9AM to 12PM, 3 to 5PM, 6:30 to 9PM"
    },
    {
      "day": "Saturday,",
      "hours": "9AM to 12PM, 3 to 5PM, 6:30 to 9PM"
    },
    {
      "day": "Sunday,",
      "hours": "Closed"
    },
    {
      "day": "Monday,",
      "hours": "9AM to 12PM, 3 to 5PM, 6:30 to 9PM"
    }
  ],
  "reviewsCount": 246
},
{
  "title": "良友動物醫院",
  "totalScore": "",
  "categoryName": "Veterinarian",
  "address": "No. 511, Section 2, Yuanshui Road, Yuanlin City, Changhua County, Taiwan 510             510彰化縣員林市員水路二段511號",
  "locatedIn": null,
  "plusCode": "XH4G+8V Yuanlin City, Changhua County, Taiwan",
  "website": null,
  "phone": "+886 4 832 1951",
  "temporarilyClosed": false,
  "permanentlyClosed": false,
  "rank": 44,
  "placeId": "ChIJS8XNK_Q2aTQRE5RALAR3TWA",
  "url": "https://www.google.com/maps/place/%E8%89%AF%E5%8F%8B%E5%8B%95%E7%89%A9%E9%86%AB%E9%99%A2/@23.9558627,120.5749533,17z/data=!3m1!4b1!4m5!3m4!1s0x346936f42bcdc54b:0x604d77042c409413!8m2!3d23.9558627!4d120.577142",
  "location": {
    "lat": 23.9558627,
    "lng": 120.577142
  },
  "searchString": "彰化縣的動物醫院"
},
{
  "title": "大台中動物醫院",
  "totalScore": 3.5,
  "categoryName": "Veterinarian",
  "address": "No. 131, Nanping West Street, Yuanlin City, Changhua County, Taiwan 510             510彰化縣員林市南平西街131號",
  "locatedIn": null,
  "plusCode": "XH87+7F Yuanlin City, Changhua County, Taiwan",
  "website": null,
  "phone": "+886 4 832 5603",
  "temporarilyClosed": false,
  "permanentlyClosed": false,
  "rank": 45,
  "placeId": "ChIJDcmPFVA2aTQRYS9Ry0ImFCE",
  "url": "https://www.google.com/maps/place/%E5%A4%A7%E5%8F%B0%E4%B8%AD%E5%8B%95%E7%89%A9%E9%86%AB%E9%99%A2/@23.965658,120.5614633,17z/data=!3m1!4b1!4m5!3m4!1s0x34693650158fc90d:0x21142642cb512f61!8m2!3d23.965658!4d120.563652",
  "location": {
    "lat": 23.965658,
    "lng": 120.563652
  },
  "searchString": "彰化縣的動物醫院",
  "reviewsCount": 2
},
{
  "title": "中興動物醫院",
  "totalScore": 4.5,
  "categoryName": "Veterinarian",
  "address": "No. 100, Section 2, Taiping Road, Caotun Township, Nantou County, Taiwan 542             542南投縣草屯鎮太平路二段100號",
  "locatedIn": null,
  "plusCode": "XMCM+J7 Caotun Township, Nantou County, Taiwan",
  "website": null,
  "phone": "+886 4 9233 3969",
  "temporarilyClosed": false,
  "permanentlyClosed": false,
  "rank": 57,
  "placeId": "ChIJGRFV9WkwaTQR2L1BZatx6YQ",
  "url": "https://www.google.com/maps/place/%E4%B8%AD%E8%88%88%E5%8B%95%E7%89%A9%E9%86%AB%E9%99%A2/@23.971508,120.6810593,17z/data=!3m1!4b1!4m5!3m4!1s0x34693069f5551119:0x84e971ab6541bdd8!8m2!3d23.971508!4d120.683248",
  "location": {
    "lat": 23.971508,
    "lng": 120.683248
  },
  "searchString": "彰化縣的動物醫院",
  "openingHours": [
    {
      "day": "Tuesday,",
      "hours": "9 to 11:30AM, 1:30 to 8:30PM"
    },
    {
      "day": "Wednesday,",
      "hours": "9 to 11:30AM, 1:30 to 8:30PM"
    },
    {
      "day": "Thursday",
      "hours": "(Mid-Autumn Festival), 9 to 11:30AM, 1:30 to 8:30PM, Hours might differ"
    },
    {
      "day": "Friday,",
      "hours": "9 to 11:30AM, 1:30 to 8:30PM"
    },
    {
      "day": "Saturday,",
      "hours": "9 to 11:30AM, 1:30 to 8:30PM"
    },
    {
      "day": "Sunday,",
      "hours": "9 to 11:30AM, 1:30 to 3:30PM"
    },
    {
      "day": "Monday,",
      "hours": "9 to 11:30AM, 1:30 to 3:30PM"
    }
  ],
  "reviewsCount": 159
},
{
  "title": "佳欣動物醫院",
  "totalScore": 4.8,
  "categoryName": "Veterinarian",
  "address": "No. 153號, Pingdeng Street, Caotun Township, Nantou County, Taiwan 542             542南投縣草屯鎮平等街153號",
  "locatedIn": null,
  "plusCode": "XMMP+V7 Caotun Township, Nantou County, Taiwan",
  "website": "facebook.com",
  "phone": "+886 4 9238 0784",
  "temporarilyClosed": false,
  "permanentlyClosed": false,
  "rank": 52,
  "placeId": "ChIJz-s7LvcxaTQRZaaARnthArg",
  "url": "https://www.google.com/maps/place/%E4%BD%B3%E6%AC%A3%E5%8B%95%E7%89%A9%E9%86%AB%E9%99%A2/@23.9847068,120.6835441,17z/data=!3m1!4b1!4m5!3m4!1s0x346931f72e3bebcf:0xb802617b4680a665!8m2!3d23.9847068!4d120.6857328",
  "location": {
    "lat": 23.9847068,
    "lng": 120.6857328
  },
  "searchString": "彰化縣的動物醫院",
  "openingHours": [
    {
      "day": "Tuesday,",
      "hours": "9AM to 12PM, 2 to 5PM, 6 to 9PM"
    },
    {
      "day": "Wednesday,",
      "hours": "Closed"
    },
    {
      "day": "Thursday",
      "hours": "(Mid-Autumn Festival), 9AM to 12PM, 2 to 5PM, 6 to 9PM, Hours might differ"
    },
    {
      "day": "Friday,",
      "hours": "9AM to 12PM, 2 to 5PM, 6 to 9PM"
    },
    {
      "day": "Saturday,",
      "hours": "9AM to 12PM, 2 to 5PM, 6 to 9PM"
    },
    {
      "day": "Sunday,",
      "hours": "9AM to 12PM, 2 to 5PM, 6 to 9PM"
    },
    {
      "day": "Monday,",
      "hours": "9AM to 12PM, 2 to 5PM, 6 to 9PM"
    }
  ],
  "reviewsCount": 52
},
{
  "title": "博愛動物醫院",
  "totalScore": 3.2,
  "categoryName": "",
  "address": "No. 955號, Section 2, Zhongshan Road, Changhua City, Changhua County, Taiwan 500             500彰化縣彰化市中山路二段955號",
  "locatedIn": null,
  "plusCode": "3HM2+HH Changhua City, Changhua County, Taiwan",
  "website": null,
  "phone": "+886 4 727 4910",
  "temporarilyClosed": false,
  "permanentlyClosed": false,
  "rank": 53,
  "placeId": "ChIJDT7jsOo4aTQRqhwjlfkkSOo",
  "url": "https://www.google.com/maps/place/%E5%8D%9A%E6%84%9B%E5%8B%95%E7%89%A9%E9%86%AB%E9%99%A2/@24.083879,120.5492993,17z/data=!3m1!4b1!4m5!3m4!1s0x346938eab0e33e0d:0xea4824f995231caa!8m2!3d24.083879!4d120.551488",
  "location": {
    "lat": 24.083879,
    "lng": 120.551488
  },
  "searchString": "彰化縣的動物醫院",
  "reviewsCount": 5
},
{
  "title": "溪湖動物醫院",
  "totalScore": 4.5,
  "categoryName": "",
  "address": "No. 669, Section 1, Erxi Road, Xihu Township, Changhua County, Taiwan 514             514彰化縣溪湖鎮二溪路一段669號",
  "locatedIn": null,
  "plusCode": "XF58+J6 Xihu Township, Changhua County, Taiwan",
  "website": null,
  "phone": "+886 4 885 4790",
  "temporarilyClosed": false,
  "permanentlyClosed": false,
  "rank": 46,
  "placeId": "ChIJMW0d9mNJaTQR1wxwIRHET2Y",
  "url": "https://www.google.com/maps/place/%E6%BA%AA%E6%B9%96%E5%8B%95%E7%89%A9%E9%86%AB%E9%99%A2/@23.9590407,120.4633912,17z/data=!3m1!4b1!4m5!3m4!1s0x34694963f61d6d31:0x664fc41121700cd7!8m2!3d23.9590407!4d120.4655799",
  "location": {
    "lat": 23.9590407,
    "lng": 120.4655799
  },
  "searchString": "彰化縣的動物醫院",
  "reviewsCount": 2
},
{
  "title": "謝宗達動物診所",
  "totalScore": 3.9,
  "categoryName": "Animal hospital",
  "address": "No. 130, Yuanji Road, Mingjian Township, Nantou County, Taiwan 551             551南投縣名間鄉員集路130號",
  "locatedIn": null,
  "plusCode": "RPP3+72 Mingjian Township, Nantou County, Taiwan",
  "website": null,
  "phone": "+886 4 9273 4854",
  "temporarilyClosed": false,
  "permanentlyClosed": false,
  "rank": 58,
  "placeId": "ChIJMVO576IyaTQRQh_mFXCQRw8",
  "url": "https://www.google.com/maps/place/%E8%AC%9D%E5%AE%97%E9%81%94%E5%8B%95%E7%89%A9%E8%A8%BA%E6%89%80/@23.8356525,120.7004015,17z/data=!3m1!4b1!4m5!3m4!1s0x346932a2efb95331:0xf47907015e61f42!8m2!3d23.8356525!4d120.7025902",
  "location": {
    "lat": 23.8356525,
    "lng": 120.7025902
  },
  "searchString": "彰化縣的動物醫院",
  "reviewsCount": 32
},
{
  "title": "健潔犬貓診所",
  "totalScore": 5,
  "categoryName": "Hospital",
  "address": "No. 104, Section 1, Dashe Road, Tianzhong Township, Changhua County, Taiwan 520             520彰化縣田中鎮大社路一段104號",
  "locatedIn": null,
  "plusCode": "VH7M+P6 Tianzhong Township, Changhua County, Taiwan",
  "website": null,
  "phone": "+886 4 876 1761",
  "temporarilyClosed": false,
  "permanentlyClosed": false,
  "rank": 50,
  "placeId": "ChIJ3aPkhOc0aTQRoPD6-7pTHKs",
  "url": "https://www.google.com/maps/place/%E5%81%A5%E6%BD%94%E7%8A%AC%E8%B2%93%E8%A8%BA%E6%89%80/@23.8643084,120.5809169,17z/data=!3m1!4b1!4m5!3m4!1s0x346934e784e4a3dd:0xab1c53bafbfaf0a0!8m2!3d23.8643084!4d120.5831056",
  "location": {
    "lat": 23.8643084,
    "lng": 120.5831056
  },
  "searchString": "彰化縣的動物醫院",
  "openingHours": [
    {
      "day": "Tuesday,",
      "hours": "9AM to 12PM, 1:30 to 5PM, 6 to 8PM"
    },
    {
      "day": "Wednesday,",
      "hours": "9AM to 12PM, 1:30 to 5PM, 6 to 8PM"
    },
    {
      "day": "Thursday",
      "hours": "(Mid-Autumn Festival), 9AM to 12PM, 1:30 to 5PM, 6 to 8PM, Hours might differ"
    },
    {
      "day": "Friday,",
      "hours": "9AM to 12PM, 1:30 to 5PM, 6 to 8PM"
    },
    {
      "day": "Saturday,",
      "hours": "9AM to 12PM, 1:30 to 5PM, 6 to 8PM"
    },
    {
      "day": "Sunday,",
      "hours": "Closed"
    },
    {
      "day": "Monday,",
      "hours": "9AM to 12PM, 1:30 to 5PM, 6 to 8PM"
    }
  ],
  "reviewsCount": 8
},
{
  "title": "鹿港動物醫院",
  "totalScore": 3.7,
  "categoryName": "Hospital",
  "address": "505, Taiwan, Changhua County, Lukang Township, Jhongjheng Rd, 402號1             505彰化縣鹿港鎮中正路402號1",
  "locatedIn": null,
  "plusCode": "3C5Q+QJ Lukang Township, Changhua County, Taiwan",
  "website": null,
  "phone": "+886 4 776 2037",
  "temporarilyClosed": false,
  "permanentlyClosed": false,
  "rank": 41,
  "placeId": "ChIJuXGTDglGaTQRHEavIa6Dy2E",
  "url": "https://www.google.com/maps/place/%E9%B9%BF%E6%B8%AF%E5%8B%95%E7%89%A9%E9%86%AB%E9%99%A2/@24.059394,120.4368596,17z/data=!3m1!4b1!4m5!3m4!1s0x346946090e9371b9:0x61cb83ae21af461c!8m2!3d24.059394!4d120.4390483",
  "location": {
    "lat": 24.059394,
    "lng": 120.4390483
  },
  "searchString": "彰化縣的動物醫院",
  "openingHours": [
    {
      "day": "Tuesday,",
      "hours": "9:30AM to 9PM"
    },
    {
      "day": "Wednesday,",
      "hours": "9:30AM to 9PM"
    },
    {
      "day": "Thursday",
      "hours": "(Mid-Autumn Festival), 9:30AM to 9PM, Hours might differ"
    },
    {
      "day": "Friday,",
      "hours": "9:30AM to 9PM"
    },
    {
      "day": "Saturday,",
      "hours": "9:30AM to 9PM"
    },
    {
      "day": "Sunday,",
      "hours": "Closed"
    },
    {
      "day": "Monday,",
      "hours": "9:30AM to 9PM"
    }
  ],
  "reviewsCount": 13
},
{
  "title": "大愛動物醫院",
  "totalScore": 4.7,
  "categoryName": "Veterinarian",
  "address": "No. 407號, Bo'ai Road, Caotun Township, Nantou County, Taiwan 542             542南投縣草屯鎮博愛路407號",
  "locatedIn": null,
  "plusCode": "XMPP+6C Caotun Township, Nantou County, Taiwan",
  "website": null,
  "phone": "+886 4 9238 1559",
  "temporarilyClosed": false,
  "permanentlyClosed": false,
  "rank": 51,
  "placeId": "ChIJWbc9gHMwaTQRNiq-1OPQSIk",
  "url": "https://www.google.com/maps/place/%E5%A4%A7%E6%84%9B%E5%8B%95%E7%89%A9%E9%86%AB%E9%99%A2/@23.985507,120.6838813,17z/data=!3m1!4b1!4m5!3m4!1s0x34693073803db759:0x8948d0e3d4be2a36!8m2!3d23.985507!4d120.68607",
  "location": {
    "lat": 23.985507,
    "lng": 120.68607
  },
  "searchString": "彰化縣的動物醫院",
  "openingHours": [
    {
      "day": "Tuesday,",
      "hours": "9:30AM to 12PM, 3 to 6PM"
    },
    {
      "day": "Wednesday,",
      "hours": "9:30AM to 6PM"
    },
    {
      "day": "Thursday",
      "hours": "(Mid-Autumn Festival), 9:30AM to 12PM, 3 to 6PM, Hours might differ"
    },
    {
      "day": "Friday,",
      "hours": "9:30AM to 12PM, 3 to 6PM"
    },
    {
      "day": "Saturday,",
      "hours": "9:30AM to 6PM"
    },
    {
      "day": "Sunday,",
      "hours": "Closed"
    },
    {
      "day": "Monday,",
      "hours": "9:30AM to 12PM, 3 to 6PM"
    }
  ],
  "reviewsCount": 111
},
{
  "title": "佑明動物醫院",
  "totalScore": 3.6,
  "categoryName": "Hospital",
  "address": "No. 40號, Fuxing Road, Beidou Township, Changhua County, Taiwan 521             521彰化縣北斗鎮復興路40號",
  "locatedIn": null,
  "plusCode": "VGFH+79 Beidou Township, Changhua County, Taiwan",
  "website": null,
  "phone": "+886 4 888 5251",
  "temporarilyClosed": false,
  "permanentlyClosed": false,
  "rank": 48,
  "placeId": "ChIJGSbog181aTQRnlKXAJUwZFc",
  "url": "https://www.google.com/maps/place/%E4%BD%91%E6%98%8E%E5%8B%95%E7%89%A9%E9%86%AB%E9%99%A2/@23.8732223,120.5262161,17z/data=!3m1!4b1!4m5!3m4!1s0x3469355f83e82619:0x576430950097529e!8m2!3d23.8732223!4d120.5284048",
  "location": {
    "lat": 23.8732223,
    "lng": 120.5284048
  },
  "searchString": "彰化縣的動物醫院",
  "openingHours": [
    {
      "day": "Tuesday,",
      "hours": "9AM to 12PM, 2 to 6PM, 7 to 9PM"
    },
    {
      "day": "Wednesday,",
      "hours": "9AM to 12PM, 2 to 6PM, 7 to 9PM"
    },
    {
      "day": "Thursday",
      "hours": "(Mid-Autumn Festival), 9AM to 12PM, 2 to 6PM, 7 to 9PM, Hours might differ"
    },
    {
      "day": "Friday,",
      "hours": "9AM to 12PM, 2 to 6PM, 7 to 9PM"
    },
    {
      "day": "Saturday,",
      "hours": "9AM to 12PM, 2 to 6PM, 7 to 9PM"
    },
    {
      "day": "Sunday,",
      "hours": "Closed"
    },
    {
      "day": "Monday,",
      "hours": "9AM to 12PM, 2 to 6PM, 7 to 9PM"
    }
  ],
  "reviewsCount": 49
},
{
  "title": "小林犬貓診所",
  "totalScore": 4.6,
  "categoryName": "Animal hospital",
  "address": "No. 167, Section 1, Fanhua Road, Fuxing Township, Changhua County, Taiwan 506             506彰化縣福興鄉番花路一段167號",
  "locatedIn": null,
  "plusCode": "2F8R+8P Fuxing Township, Changhua County, Taiwan",
  "website": "facebook.com",
  "phone": "+886 4 768 5805",
  "temporarilyClosed": false,
  "permanentlyClosed": false,
  "rank": 43,
  "placeId": "ChIJZ5hAR2ZIaTQRfPJhXF4jCOk",
  "url": "https://www.google.com/maps/place/%E5%B0%8F%E6%9E%97%E7%8A%AC%E8%B2%93%E8%A8%BA%E6%89%80/@24.015821,120.4896463,17z/data=!3m1!4b1!4m5!3m4!1s0x3469486647409867:0xe908235e5c61f27c!8m2!3d24.015821!4d120.491835",
  "location": {
    "lat": 24.015821,
    "lng": 120.491835
  },
  "searchString": "彰化縣的動物醫院",
  "openingHours": [
    {
      "day": "Tuesday,",
      "hours": "9AM to 12PM, 2 to 8:30PM"
    },
    {
      "day": "Wednesday,",
      "hours": "9AM to 12PM, 2 to 8:30PM"
    },
    {
      "day": "Thursday",
      "hours": "(Mid-Autumn Festival), 9AM to 12PM, 2 to 8:30PM, Hours might differ"
    },
    {
      "day": "Friday,",
      "hours": "9AM to 12PM, 2 to 8:30PM"
    },
    {
      "day": "Saturday,",
      "hours": "9AM to 12PM, 2 to 8:30PM"
    },
    {
      "day": "Sunday,",
      "hours": "9AM to 12PM, 2 to 8:30PM"
    },
    {
      "day": "Monday,",
      "hours": "Closed"
    }
  ],
  "reviewsCount": 107
},
{
  "title": "英仁動物醫院",
  "totalScore": 4.6,
  "categoryName": "Animal hospital",
  "address": "No. 145號, Guangri Road, Wuri District, Taichung City, Taiwan 414             414台中市烏日區光日路145號",
  "locatedIn": null,
  "plusCode": "4J4F+PX Wuri District, Taichung City, Taiwan",
  "website": "zh-tw.facebook.com",
  "phone": "+886 4 2338 5708",
  "temporarilyClosed": false,
  "permanentlyClosed": false,
  "rank": 55,
  "placeId": "ChIJL2QspR48aTQR07iLp3R0Zu0",
  "url": "https://www.google.com/maps/place/%E8%8B%B1%E4%BB%81%E5%8B%95%E7%89%A9%E9%86%AB%E9%99%A2/@24.1067517,120.6227433,17z/data=!3m1!4b1!4m5!3m4!1s0x34693c1ea52c642f:0xed667474a78bb8d3!8m2!3d24.1067517!4d120.624932",
  "location": {
    "lat": 24.1067517,
    "lng": 120.624932
  },
  "searchString": "彰化縣的動物醫院",
  "openingHours": [
    {
      "day": "Tuesday,",
      "hours": "8:30AM to 12PM, 1:30 to 9PM"
    },
    {
      "day": "Wednesday,",
      "hours": "8:30AM to 12PM, 1:30 to 9PM"
    },
    {
      "day": "Thursday",
      "hours": "(Mid-Autumn Festival), 8:30AM to 12PM, 1:30 to 9PM, Hours might differ"
    },
    {
      "day": "Friday,",
      "hours": "8:30AM to 12PM, 1:30 to 9PM"
    },
    {
      "day": "Saturday,",
      "hours": "8:30AM to 12PM, 1:30 to 9PM"
    },
    {
      "day": "Sunday,",
      "hours": "Closed"
    },
    {
      "day": "Monday,",
      "hours": "8:30AM to 12PM, 1:30 to 9PM"
    }
  ],
  "reviewsCount": 174
},
{
  "title": "吉美動物醫院",
  "totalScore": 4,
  "categoryName": "",
  "address": "No. 750號, Minsheng Road, Shetou Township, Changhua County, Taiwan 511             511彰化縣社頭鄉民生路750號",
  "locatedIn": null,
  "plusCode": "VHWQ+RG Shetou Township, Changhua County, Taiwan",
  "website": null,
  "phone": "+886 4 872 2982",
  "temporarilyClosed": false,
  "permanentlyClosed": false,
  "rank": 54,
  "placeId": "ChIJMXlz-UQ0aTQR2jaMWv3u3p4",
  "url": "https://www.google.com/maps/place/%E5%90%89%E7%BE%8E%E5%8B%95%E7%89%A9%E9%86%AB%E9%99%A2/@23.897028,120.5866713,17z/data=!3m1!4b1!4m5!3m4!1s0x34693444f9737931:0x9edeeefd5a8c36da!8m2!3d23.897028!4d120.58886",
  "location": {
    "lat": 23.897028,
    "lng": 120.58886
  },
  "searchString": "彰化縣的動物醫院",
  "reviewsCount": 7
},
{
  "title": "寵物當家生活館",
  "totalScore": 4.2,
  "categoryName": "Pet supply store",
  "address": "No. 823號, Section 2, Zhongzheng Road, Changhua City, Changhua County, Taiwan 500             500彰化縣彰化市中正路二段823號",
  "locatedIn": null,
  "plusCode": "3G8M+2W Changhua City, Changhua County, Taiwan",
  "website": "chungai.com.tw",
  "phone": "+886 4 751 2869",
  "temporarilyClosed": false,
  "permanentlyClosed": false,
  "rank": 49,
  "placeId": "ChIJV18Ixn04aTQRSeQAkML6si8",
  "url": "https://www.google.com/maps/place/%E5%AF%B5%E7%89%A9%E7%95%B6%E5%AE%B6%E7%94%9F%E6%B4%BB%E9%A4%A8/@24.065081,120.5325683,17z/data=!3m1!4b1!4m5!3m4!1s0x3469387dc6085f57:0x2fb2fac29000e449!8m2!3d24.065081!4d120.534757",
  "location": {
    "lat": 24.065081,
    "lng": 120.534757
  },
  "searchString": "彰化縣的動物醫院",
  "openingHours": [
    {
      "day": "Tuesday,",
      "hours": "9:30AM to 10PM"
    },
    {
      "day": "Wednesday,",
      "hours": "9:30AM to 10PM"
    },
    {
      "day": "Thursday",
      "hours": "(Mid-Autumn Festival), 9:30AM to 10PM, Hours might differ"
    },
    {
      "day": "Friday,",
      "hours": "9:30AM to 10PM"
    },
    {
      "day": "Saturday,",
      "hours": "9:30AM to 10PM"
    },
    {
      "day": "Sunday,",
      "hours": "9:30AM to 10PM"
    },
    {
      "day": "Monday,",
      "hours": "9:30AM to 10PM"
    }
  ],
  "reviewsCount": 262
},
{
  "title": "好主人寵物鹿港旗艦店",
  "totalScore": 4.9,
  "categoryName": "Pet supply store",
  "address": "No. 126號, Fuxing Rd, Lukang Township, Changhua County, Taiwan 50542             50542彰化縣鹿港鎮復興路126號",
  "locatedIn": null,
  "plusCode": "3C3Q+7F Lukang Township, Changhua County, Taiwan",
  "website": "petso.com.tw",
  "phone": "+886 4 778 8383",
  "temporarilyClosed": false,
  "permanentlyClosed": false,
  "rank": 56,
  "placeId": "ChIJA0TepvxHaTQRisZtFXLY9i0",
  "url": "https://www.google.com/maps/place/%E5%A5%BD%E4%B8%BB%E4%BA%BA%E5%AF%B5%E7%89%A9%E9%B9%BF%E6%B8%AF%E6%97%97%E8%89%A6%E5%BA%97/@24.0531597,120.4365529,17z/data=!3m1!4b1!4m5!3m4!1s0x346947fca6de4403:0x2df6d872156dc68a!8m2!3d24.0531597!4d120.4387416",
  "location": {
    "lat": 24.0531597,
    "lng": 120.4387416
  },
  "searchString": "彰化縣的動物醫院",
  "reviewsCount": 117
},
{
  "title": "酷牛動物醫院",
  "totalScore": 5,
  "categoryName": "Veterinary pharmacy",
  "address": "No. 73-17, Xinsheng Road, Fuxing Township, Changhua County, Taiwan 506             506彰化縣福興鄉新生路73-17號",
  "locatedIn": null,
  "plusCode": "29VR+FJ Fuxing Township, Changhua County, Taiwan",
  "website": null,
  "phone": "+886 4 770 7253",
  "temporarilyClosed": false,
  "permanentlyClosed": false,
  "rank": 42,
  "placeId": "ChIJp-oalndPaTQRBr53qLLW0Fc",
  "url": "https://www.google.com/maps/place/%E9%85%B7%E7%89%9B%E5%8B%95%E7%89%A9%E9%86%AB%E9%99%A2/@24.0436514,120.3893466,17z/data=!3m1!4b1!4m5!3m4!1s0x34694f77961aeaa7:0x57d0d6b2a877be06!8m2!3d24.0436514!4d120.3915353",
  "location": {
    "lat": 24.0436514,
    "lng": 120.3915353
  },
  "searchString": "彰化縣的動物醫院",
  "openingHours": [
    {
      "day": "Tuesday,",
      "hours": "Open 24 hours"
    },
    {
      "day": "Wednesday,",
      "hours": "Open 24 hours"
    },
    {
      "day": "Thursday",
      "hours": "(Mid-Autumn Festival), Open 24 hours, Hours might differ"
    },
    {
      "day": "Friday,",
      "hours": "Open 24 hours"
    },
    {
      "day": "Saturday,",
      "hours": "Open 24 hours"
    },
    {
      "day": "Sunday,",
      "hours": "Open 24 hours"
    },
    {
      "day": "Monday,",
      "hours": "Open 24 hours"
    }
  ],
  "reviewsCount": 3
},
{
  "title": "生偉動物醫院",
  "totalScore": 3,
  "categoryName": "Doctor",
  "address": "No. 15, Shuangping Road, Yuanlin City, Changhua County, Taiwan 510             510彰化縣員林市雙平路15號",
  "locatedIn": null,
  "plusCode": "XH7C+P5 Yuanlin City, Changhua County, Taiwan",
  "website": null,
  "phone": "+886 4 833 5769",
  "temporarilyClosed": false,
  "permanentlyClosed": false,
  "rank": 47,
  "placeId": "ChIJhRB1DVc2aTQRL-udXxbnjeo",
  "url": "https://www.google.com/maps/place/%E7%94%9F%E5%81%89%E5%8B%95%E7%89%A9%E9%86%AB%E9%99%A2/@23.9643661,120.5682546,17z/data=!3m1!4b1!4m5!3m4!1s0x346936570d751085:0xea8de7165f9deb2f!8m2!3d23.9643661!4d120.5704433",
  "location": {
    "lat": 23.9643661,
    "lng": 120.5704433
  },
  "searchString": "彰化縣的動物醫院",
  "openingHours": [
    {
      "day": "Tuesday,",
      "hours": "9AM to 9PM"
    },
    {
      "day": "Wednesday,",
      "hours": "9AM to 9PM"
    },
    {
      "day": "Thursday",
      "hours": "(Mid-Autumn Festival), 9AM to 9PM, Hours might differ"
    },
    {
      "day": "Friday,",
      "hours": "9AM to 9PM"
    },
    {
      "day": "Saturday,",
      "hours": "9AM to 9PM"
    },
    {
      "day": "Sunday,",
      "hours": "Closed"
    },
    {
      "day": "Monday,",
      "hours": "9AM to 9PM"
    }
  ],
  "reviewsCount": 12
},
{
  "title": "家飛兒動物醫院",
  "totalScore": 4.7,
  "categoryName": "Animal hospital",
  "address": "No. 373號, Section 7, Zhanglu Road, Fuxing Township, Changhua County, Taiwan 506             506彰化縣福興鄉彰鹿路七段373號",
  "locatedIn": null,
  "plusCode": "2CWX+V2 Fuxing Township, Changhua County, Taiwan",
  "website": null,
  "phone": "+886 4 777 3618",
  "temporarilyClosed": false,
  "permanentlyClosed": false,
  "rank": 40,
  "placeId": "ChIJ05dOyhxGaTQRFXBmfq63IxM",
  "url": "https://www.google.com/maps/place/%E5%AE%B6%E9%A3%9B%E5%85%92%E5%8B%95%E7%89%A9%E9%86%AB%E9%99%A2/@24.0471978,120.4453381,17z/data=!3m1!4b1!4m5!3m4!1s0x3469461cca4e97d3:0x1323b7ae7e667015!8m2!3d24.0471978!4d120.4475268",
  "location": {
    "lat": 24.0471978,
    "lng": 120.4475268
  },
  "searchString": "彰化縣的動物醫院",
  "openingHours": [
    {
      "day": "Tuesday,",
      "hours": "10AM to 12PM, 2 to 5PM, 6 to 8:30PM"
    },
    {
      "day": "Wednesday,",
      "hours": "10AM to 12PM, 2 to 5PM, 6 to 8:30PM"
    },
    {
      "day": "Thursday",
      "hours": "(Mid-Autumn Festival), Closed, Hours might differ"
    },
    {
      "day": "Friday,",
      "hours": "10AM to 12PM, 2 to 5PM, 6 to 8:30PM"
    },
    {
      "day": "Saturday,",
      "hours": "10AM to 12PM, 2 to 5PM, 6 to 8:30PM"
    },
    {
      "day": "Sunday,",
      "hours": "10AM to 4:30PM"
    },
    {
      "day": "Monday,",
      "hours": "10AM to 12PM, 2 to 5PM, 6 to 8:30PM"
    }
  ],
  "reviewsCount": 39
},
{
  "title": "園緣動物醫院",
  "totalScore": 4.8,
  "categoryName": "Animal hospital",
  "address": "No. 168號, Zhonghua West Road, Changhua City, Changhua County, Taiwan 50055             50055彰化縣彰化市中華西路168號",
  "locatedIn": null,
  "plusCode": "3GFJ+58 Changhua City, Changhua County, Taiwan",
  "website": "business.site",
  "phone": "+886 4 761 5088",
  "temporarilyClosed": false,
  "permanentlyClosed": false,
  "rank": 35,
  "placeId": "ChIJiQu3eIE4aTQRylxtxioOcLw",
  "url": "https://www.google.com/maps/place/%E5%9C%92%E7%B7%A3%E5%8B%95%E7%89%A9%E9%86%AB%E9%99%A2/@24.072877,120.5286767,17z/data=!3m1!4b1!4m5!3m4!1s0x3469388178b70b89:0xbc700e2ac66d5cca!8m2!3d24.072877!4d120.5308654",
  "location": {
    "lat": 24.072877,
    "lng": 120.5308654
  },
  "searchString": "彰化縣的動物醫院",
  "openingHours": [
    {
      "day": "Tuesday,",
      "hours": "9AM to 9PM"
    },
    {
      "day": "Wednesday,",
      "hours": "9AM to 9PM"
    },
    {
      "day": "Thursday",
      "hours": "(Mid-Autumn Festival), 9AM to 9PM, Hours might differ"
    },
    {
      "day": "Friday,",
      "hours": "9AM to 9PM"
    },
    {
      "day": "Saturday,",
      "hours": "9AM to 9PM"
    },
    {
      "day": "Sunday,",
      "hours": "Closed"
    },
    {
      "day": "Monday,",
      "hours": "9AM to 9PM"
    }
  ],
  "reviewsCount": 24
},
{
  "title": "永祥動物醫院",
  "totalScore": 4.2,
  "categoryName": "Veterinarian",
  "address": "No. 318, Section 2, Yuandong Road, Yuanlin City, Changhua County, Taiwan 510             510彰化縣員林市員東路二段318號",
  "locatedIn": null,
  "plusCode": "XH5J+PC Yuanlin City, Changhua County, Taiwan",
  "website": null,
  "phone": "+886 4 831 1781",
  "temporarilyClosed": false,
  "permanentlyClosed": false,
  "rank": 21,
  "placeId": "ChIJJdOzv_A2aTQR7sIvBe0u4ZU",
  "url": "https://www.google.com/maps/place/%E6%B0%B8%E7%A5%A5%E5%8B%95%E7%89%A9%E9%86%AB%E9%99%A2/@23.959358,120.5788393,17z/data=!3m1!4b1!4m5!3m4!1s0x346936f0bfb3d325:0x95e12eed052fc2ee!8m2!3d23.959358!4d120.581028",
  "location": {
    "lat": 23.959358,
    "lng": 120.581028
  },
  "searchString": "彰化縣的動物醫院",
  "openingHours": [
    {
      "day": "Tuesday,",
      "hours": "9AM to 9:30PM"
    },
    {
      "day": "Wednesday,",
      "hours": "9AM to 9:30PM"
    },
    {
      "day": "Thursday",
      "hours": "(Mid-Autumn Festival), 9AM to 9:30PM, Hours might differ"
    },
    {
      "day": "Friday,",
      "hours": "9AM to 9:30PM"
    },
    {
      "day": "Saturday,",
      "hours": "9AM to 9:30PM"
    },
    {
      "day": "Sunday,",
      "hours": "Closed"
    },
    {
      "day": "Monday,",
      "hours": "9AM to 9:30PM"
    }
  ],
  "reviewsCount": 97
},
{
  "title": "躍犬獸動物醫院",
  "totalScore": 3.7,
  "categoryName": "Animal hospital",
  "address": "號, No. 66, Siwei Road, Beidou Township, Changhua County, Taiwan 521             號, No. 66四維路北斗鎮彰化縣521",
  "locatedIn": null,
  "plusCode": "VGC8+RW Beidou Township, Changhua County, Taiwan",
  "website": null,
  "phone": "+886 4 887 0977",
  "temporarilyClosed": false,
  "permanentlyClosed": false,
  "rank": 27,
  "placeId": "ChIJkcMyu6RKaTQRqfgxNSPu8VU",
  "url": "https://www.google.com/maps/place/%E8%BA%8D%E7%8A%AC%E7%8D%B8%E5%8B%95%E7%89%A9%E9%86%AB%E9%99%A2/@23.8721189,120.5150938,17z/data=!3m1!4b1!4m5!3m4!1s0x34694aa4bb32c391:0x55f1ee233531f8a9!8m2!3d23.8721189!4d120.5172825",
  "location": {
    "lat": 23.8721189,
    "lng": 120.5172825
  },
  "searchString": "彰化縣的動物醫院",
  "openingHours": [
    {
      "day": "Tuesday,",
      "hours": "8AM to 10PM"
    },
    {
      "day": "Wednesday,",
      "hours": "8AM to 10PM"
    },
    {
      "day": "Thursday",
      "hours": "(Mid-Autumn Festival), 8AM to 10PM, Hours might differ"
    },
    {
      "day": "Friday,",
      "hours": "8AM to 10PM"
    },
    {
      "day": "Saturday,",
      "hours": "8AM to 10PM"
    },
    {
      "day": "Sunday,",
      "hours": "8AM to 10PM"
    },
    {
      "day": "Monday,",
      "hours": "8AM to 10PM"
    }
  ],
  "reviewsCount": 31
},
{
  "title": "加恩動物醫院",
  "totalScore": 4.5,
  "categoryName": "Animal hospital",
  "address": "No. 481號, Section 2, Yuanji Road, Yuanlin City, Changhua County, Taiwan 510             510彰化縣員林市員集路二段481號",
  "locatedIn": null,
  "plusCode": "WHWG+V5 Yuanlin City, Changhua County, Taiwan",
  "website": "facebook.com",
  "phone": "+886 4 836 1919",
  "temporarilyClosed": false,
  "permanentlyClosed": false,
  "rank": 28,
  "placeId": "ChIJbVSkE_U2aTQRuDzEaQH14So",
  "url": "https://www.google.com/maps/place/%E5%8A%A0%E6%81%A9%E5%8B%95%E7%89%A9%E9%86%AB%E9%99%A2/@23.947132,120.5732,17z/data=!3m1!4b1!4m5!3m4!1s0x346936f513a4546d:0x2ae1f50169c43cb8!8m2!3d23.947132!4d120.5753887",
  "location": {
    "lat": 23.947132,
    "lng": 120.5753887
  },
  "searchString": "彰化縣的動物醫院",
  "openingHours": [
    {
      "day": "Tuesday,",
      "hours": "9AM to 9PM"
    },
    {
      "day": "Wednesday,",
      "hours": "9AM to 9PM"
    },
    {
      "day": "Thursday",
      "hours": "(Mid-Autumn Festival), 9AM to 9PM, Hours might differ"
    },
    {
      "day": "Friday,",
      "hours": "9AM to 9PM"
    },
    {
      "day": "Saturday,",
      "hours": "9AM to 8PM"
    },
    {
      "day": "Sunday,",
      "hours": "Closed"
    },
    {
      "day": "Monday,",
      "hours": "9AM to 9PM"
    }
  ],
  "reviewsCount": 82
},
{
  "title": "濟生獸醫院",
  "totalScore": 5,
  "categoryName": "Animal hospital",
  "address": "No. 74-8號, Jingxiu Road, Yuanlin City, Changhua County, Taiwan 510             510彰化縣員林市靜修路74-8號",
  "locatedIn": null,
  "plusCode": "XH67+XX Yuanlin City, Changhua County, Taiwan",
  "website": "business.site",
  "phone": "+886 4 834 3560",
  "temporarilyClosed": false,
  "permanentlyClosed": false,
  "rank": 39,
  "placeId": "ChIJ1alw8Vo2aTQRXsFUWQcv4g4",
  "url": "https://www.google.com/maps/place/%E6%BF%9F%E7%94%9F%E7%8D%B8%E9%86%AB%E9%99%A2/@23.962402,120.5626913,17z/data=!3m1!4b1!4m5!3m4!1s0x3469365af170a9d5:0xee22f075954c15e!8m2!3d23.962402!4d120.56488",
  "location": {
    "lat": 23.962402,
    "lng": 120.56488
  },
  "searchString": "彰化縣的動物醫院",
  "openingHours": [
    {
      "day": "Tuesday,",
      "hours": "9:30AM to 8:30PM"
    },
    {
      "day": "Wednesday,",
      "hours": "9:30AM to 8:30PM"
    },
    {
      "day": "Thursday",
      "hours": "(Mid-Autumn Festival), 9:30AM to 8:30PM, Hours might differ"
    },
    {
      "day": "Friday,",
      "hours": "9:30AM to 8:30PM"
    },
    {
      "day": "Saturday,",
      "hours": "9:30AM to 8:30PM"
    },
    {
      "day": "Sunday,",
      "hours": "Closed"
    },
    {
      "day": "Monday,",
      "hours": "9:30AM to 8:30PM"
    }
  ],
  "reviewsCount": 4
},
{
  "title": "人愛動物醫院（周師全）",
  "totalScore": 3.8,
  "categoryName": "Veterinarian",
  "address": "No. 272號, Jhongjheng Rd, Lukang Township, Changhua County, Taiwan 505             505彰化縣鹿港鎮中正路272號",
  "locatedIn": null,
  "plusCode": "3C4R+F5 Lukang Township, Changhua County, Taiwan",
  "website": null,
  "phone": "+886 4 776 2818",
  "temporarilyClosed": false,
  "permanentlyClosed": false,
  "rank": 24,
  "placeId": "ChIJnU_cvAhGaTQRuTpxH_mFcnk",
  "url": "https://www.google.com/maps/place/%E4%BA%BA%E6%84%9B%E5%8B%95%E7%89%A9%E9%86%AB%E9%99%A2%EF%BC%88%E5%91%A8%E5%B8%AB%E5%85%A8%EF%BC%89/@24.0561679,120.4382404,17z/data=!3m1!4b1!4m5!3m4!1s0x34694608bcdc4f9d:0x797285f91f713ab9!8m2!3d24.0561679!4d120.4404291",
  "location": {
    "lat": 24.0561679,
    "lng": 120.4404291
  },
  "searchString": "彰化縣的動物醫院",
  "openingHours": [
    {
      "day": "Tuesday,",
      "hours": "9:30AM to 9PM"
    },
    {
      "day": "Wednesday,",
      "hours": "9:30AM to 9PM"
    },
    {
      "day": "Thursday",
      "hours": "(Mid-Autumn Festival), 9:30AM to 9PM, Hours might differ"
    },
    {
      "day": "Friday,",
      "hours": "9:30AM to 9PM"
    },
    {
      "day": "Saturday,",
      "hours": "9:30AM to 9PM"
    },
    {
      "day": "Sunday,",
      "hours": "Closed"
    },
    {
      "day": "Monday,",
      "hours": "9:30AM to 9PM"
    }
  ],
  "reviewsCount": 77
},
{
  "title": "福來動物醫院",
  "totalScore": 4.6,
  "categoryName": "Animal hospital",
  "address": "No. 352之1號, Section 2, Fuzhen Road, Yuanlin City, Changhua County, Taiwan 510             510彰化縣員林市浮圳路二段352之1號",
  "locatedIn": null,
  "plusCode": "XH8H+J9 Yuanlin City, Changhua County, Taiwan",
  "website": "facebook.com",
  "phone": "+886 4 831 6393",
  "temporarilyClosed": false,
  "permanentlyClosed": false,
  "rank": 25,
  "placeId": "ChIJ03owtf42aTQRRApFu0sQ1Cw",
  "url": "https://www.google.com/maps/place/%E7%A6%8F%E4%BE%86%E5%8B%95%E7%89%A9%E9%86%AB%E9%99%A2/@23.966505,120.5761973,17z/data=!3m1!4b1!4m5!3m4!1s0x346936feb5307ad3:0x2cd4104bbb450a44!8m2!3d23.966505!4d120.578386",
  "location": {
    "lat": 23.966505,
    "lng": 120.578386
  },
  "searchString": "彰化縣的動物醫院",
  "openingHours": [
    {
      "day": "Tuesday,",
      "hours": "10:30AM to 1PM, 3 to 9PM"
    },
    {
      "day": "Wednesday,",
      "hours": "10:30AM to 1PM, 3 to 9PM"
    },
    {
      "day": "Thursday",
      "hours": "(Mid-Autumn Festival), 10:30AM to 1PM, 3 to 9PM, Hours might differ"
    },
    {
      "day": "Friday,",
      "hours": "Closed"
    },
    {
      "day": "Saturday,",
      "hours": "10:30AM to 1PM, 3 to 9PM"
    },
    {
      "day": "Sunday,",
      "hours": "Closed"
    },
    {
      "day": "Monday,",
      "hours": "Closed"
    }
  ],
  "reviewsCount": 160
},
{
  "title": "農友之家動物醫院",
  "totalScore": 3.9,
  "categoryName": "Veterinary pharmacy",
  "address": "No. 113, Yuying Road, Yuanlin City, Changhua County, Taiwan 510             510彰化縣員林市育英路113號",
  "locatedIn": null,
  "plusCode": "XH6F+WP Yuanlin City, Changhua County, Taiwan",
  "website": null,
  "phone": "+886 4 832 1267",
  "temporarilyClosed": false,
  "permanentlyClosed": false,
  "rank": 32,
  "placeId": "ChIJpzKtBvg2aTQRa_l8C9baU_Q",
  "url": "https://www.google.com/maps/place/%E8%BE%B2%E5%8F%8B%E4%B9%8B%E5%AE%B6%E5%8B%95%E7%89%A9%E9%86%AB%E9%99%A2/@23.9623599,120.5720819,17z/data=!3m1!4b1!4m5!3m4!1s0x346936f806ad32a7:0xf453dad60b7cf96b!8m2!3d23.9623599!4d120.5742706",
  "location": {
    "lat": 23.9623599,
    "lng": 120.5742706
  },
  "searchString": "彰化縣的動物醫院",
  "openingHours": [
    {
      "day": "Tuesday,",
      "hours": "9:30AM to 12PM, 2:30 to 6PM"
    },
    {
      "day": "Wednesday,",
      "hours": "9:30AM to 12PM, 2:30 to 6PM"
    },
    {
      "day": "Thursday",
      "hours": "(Mid-Autumn Festival), 9:30AM to 12PM, 2:30 to 6PM, Hours might differ"
    },
    {
      "day": "Friday,",
      "hours": "9:30AM to 12PM, 2:30 to 6PM"
    },
    {
      "day": "Saturday,",
      "hours": "9:30AM to 12PM, 2:30 to 6PM"
    },
    {
      "day": "Sunday,",
      "hours": "Closed"
    },
    {
      "day": "Monday,",
      "hours": "9:30AM to 12PM, 2:30 to 6PM"
    }
  ],
  "reviewsCount": 30
},
{
  "title": "愛牠寵物超市&成愛動物醫院",
  "totalScore": 4.2,
  "categoryName": "Pet store",
  "address": "No. 708, Section 7, Zhanglu Road, Fuxing Township, Changhua County, Taiwan 506             506彰化縣福興鄉彰鹿路七段708號",
  "locatedIn": null,
  "plusCode": "2CXR+M4 Fuxing Township, Changhua County, Taiwan",
  "website": null,
  "phone": "+886 4 775 5984",
  "temporarilyClosed": false,
  "permanentlyClosed": false,
  "rank": 23,
  "placeId": "ChIJq6qqqgFGaTQR6yNCR_65b5s",
  "url": "https://www.google.com/maps/place/%E6%84%9B%E7%89%A0%E5%AF%B5%E7%89%A9%E8%B6%85%E5%B8%82%26%E6%88%90%E6%84%9B%E5%8B%95%E7%89%A9%E9%86%AB%E9%99%A2/@24.0491779,120.4381263,17z/data=!3m1!4b1!4m5!3m4!1s0x34694601aaaaaaab:0x9b6fb9fe474223eb!8m2!3d24.0491779!4d120.440315",
  "location": {
    "lat": 24.0491779,
    "lng": 120.440315
  },
  "searchString": "彰化縣的動物醫院",
  "openingHours": [
    {
      "day": "Tuesday,",
      "hours": "Closed"
    },
    {
      "day": "Wednesday,",
      "hours": "9AM to 9:30PM"
    },
    {
      "day": "Thursday",
      "hours": "(Mid-Autumn Festival), 9AM to 9:30PM, Hours might differ"
    },
    {
      "day": "Friday,",
      "hours": "9AM to 9:30PM"
    },
    {
      "day": "Saturday,",
      "hours": "9AM to 9:30PM"
    },
    {
      "day": "Sunday,",
      "hours": "9AM to 9PM"
    },
    {
      "day": "Monday,",
      "hours": "9AM to 9:30PM"
    }
  ],
  "reviewsCount": 63
},
{
  "title": "佑旺動物醫院",
  "totalScore": 4.8,
  "categoryName": "Animal hospital",
  "address": "No. 53號, Jingxiu East Road, Yuanlin City, Changhua County, Taiwan 510             510彰化縣員林市靜修東路53號",
  "locatedIn": null,
  "plusCode": "XH7G+88 Yuanlin City, Changhua County, Taiwan",
  "website": "facebook.com",
  "phone": "+886 4 836 9896",
  "temporarilyClosed": false,
  "permanentlyClosed": false,
  "rank": 22,
  "placeId": "ChIJoZSoRvg2aTQRs7LLyh7c0vw",
  "url": "https://www.google.com/maps/place/%E4%BD%91%E6%97%BA%E5%8B%95%E7%89%A9%E9%86%AB%E9%99%A2/@23.9632712,120.5736234,17z/data=!3m1!4b1!4m5!3m4!1s0x346936f846a894a1:0xfcd2dc1ecacbb2b3!8m2!3d23.9632712!4d120.5758121",
  "location": {
    "lat": 23.9632712,
    "lng": 120.5758121
  },
  "searchString": "彰化縣的動物醫院",
  "openingHours": [
    {
      "day": "Tuesday,",
      "hours": "9:30 to 11:30AM, 3 to 8:30PM"
    },
    {
      "day": "Wednesday,",
      "hours": "9:30 to 11:30AM, 3 to 8:30PM"
    },
    {
      "day": "Thursday",
      "hours": "(Mid-Autumn Festival), 9:30 to 11:30AM, 3 to 8:30PM, Hours might differ"
    },
    {
      "day": "Friday,",
      "hours": "9:30 to 11:30AM, 3 to 8:30PM"
    },
    {
      "day": "Saturday,",
      "hours": "9:30AM to 12PM"
    },
    {
      "day": "Sunday,",
      "hours": "Closed"
    },
    {
      "day": "Monday,",
      "hours": "9:30 to 11:30AM, 3 to 8:30PM"
    }
  ],
  "reviewsCount": 158
},
{
  "title": "蘿伊動物醫院 ROYZ Veterinary Hospital",
  "totalScore": 3.5,
  "categoryName": "Veterinarian",
  "address": "No. 391-3號, Section 1, Zhongshan Road, Huatan Township, Changhua County, Taiwan 50343             50343彰化縣花壇鄉中山路一段391-3號",
  "locatedIn": null,
  "plusCode": "2GFR+P7 Huatan Township, Changhua County, Taiwan",
  "website": null,
  "phone": "+886 4 786 7387",
  "temporarilyClosed": false,
  "permanentlyClosed": false,
  "rank": 38,
  "placeId": "ChIJdWmhPx04aTQRGg_HqZBRsfs",
  "url": "https://www.google.com/maps/place/%E8%98%BF%E4%BC%8A%E5%8B%95%E7%89%A9%E9%86%AB%E9%99%A2+ROYZ+Veterinary+Hospital/@24.0242891,120.5384443,17z/data=!3m1!4b1!4m5!3m4!1s0x3469381d3fa16975:0xfbb15190a9c70f1a!8m2!3d24.0242891!4d120.540633",
  "location": {
    "lat": 24.0242891,
    "lng": 120.540633
  },
  "searchString": "彰化縣的動物醫院",
  "openingHours": [
    {
      "day": "Tuesday,",
      "hours": "9AM to 9PM"
    },
    {
      "day": "Wednesday,",
      "hours": "9AM to 9PM"
    },
    {
      "day": "Thursday",
      "hours": "(Mid-Autumn Festival), 9AM to 9PM, Hours might differ"
    },
    {
      "day": "Friday,",
      "hours": "9AM to 9PM"
    },
    {
      "day": "Saturday,",
      "hours": "9AM to 9PM"
    },
    {
      "day": "Sunday,",
      "hours": "9AM to 9PM"
    },
    {
      "day": "Monday,",
      "hours": "9AM to 9PM"
    }
  ],
  "reviewsCount": 50
},
{
  "title": "杏林獸醫院",
  "totalScore": 3.2,
  "categoryName": "Veterinarian",
  "address": "No. 362, Ren'ai Road, Erlin Township, Changhua County, Taiwan 526             526彰化縣二林鎮仁愛路362號",
  "locatedIn": null,
  "plusCode": "W93C+CQ Erlin Township, Changhua County, Taiwan",
  "website": null,
  "phone": "+886 4 895 0710      phone3",
  "temporarilyClosed": false,
  "permanentlyClosed": false,
  "rank": 33,
  "placeId": "ChIJx4LFWzlNaTQR8NQd7u98cyI",
  "url": "https://www.google.com/maps/place/%E6%9D%8F%E6%9E%97%E7%8D%B8%E9%86%AB%E9%99%A2/@23.9035275,120.3697684,17z/data=!3m1!4b1!4m5!3m4!1s0x34694d395bc582c7:0x22737cefee1dd4f0!8m2!3d23.9035275!4d120.3719571",
  "location": {
    "lat": 23.9035275,
    "lng": 120.3719571
  },
  "searchString": "彰化縣的動物醫院",
  "openingHours": [
    {
      "day": "Tuesday,",
      "hours": "9AM to 8:30PM"
    },
    {
      "day": "Wednesday,",
      "hours": "9AM to 8:30PM"
    },
    {
      "day": "Thursday",
      "hours": "(Mid-Autumn Festival), 9AM to 8:30PM, Hours might differ"
    },
    {
      "day": "Friday,",
      "hours": "9AM to 8:30PM"
    },
    {
      "day": "Saturday,",
      "hours": "9AM to 8:30PM"
    },
    {
      "day": "Sunday,",
      "hours": "Closed"
    },
    {
      "day": "Monday,",
      "hours": "9AM to 8:30PM"
    }
  ],
  "reviewsCount": 31
},
{
  "title": "農友家畜醫院",
  "totalScore": 4.6,
  "categoryName": "Veterinarian",
  "address": "No. 125, Yuying Road, Yuanlin City, Changhua County, Taiwan 510             510彰化縣員林市育英路125號",
  "locatedIn": null,
  "plusCode": "XH7F+3P Yuanlin City, Changhua County, Taiwan",
  "website": null,
  "phone": "+886 4 837 4203",
  "temporarilyClosed": false,
  "permanentlyClosed": false,
  "rank": 34,
  "placeId": "ChIJYz1oBvg2aTQRzHbUFqKQ4hg",
  "url": "https://www.google.com/maps/place/%E8%BE%B2%E5%8F%8B%E5%AE%B6%E7%95%9C%E9%86%AB%E9%99%A2/@23.9626569,120.5720647,17z/data=!3m1!4b1!4m5!3m4!1s0x346936f806683d63:0x18e290a216d476cc!8m2!3d23.9626569!4d120.5742534",
  "location": {
    "lat": 23.9626569,
    "lng": 120.5742534
  },
  "searchString": "彰化縣的動物醫院",
  "reviewsCount": 10
},
{
  "title": "興旺動物醫院",
  "totalScore": 4.2,
  "categoryName": "Veterinarian",
  "address": "No. 90, Jinde Road, Changhua City, Changhua County, Taiwan 500             500彰化縣彰化市進德路90號",
  "locatedIn": null,
  "plusCode": "3HP5+8H Changhua City, Changhua County, Taiwan",
  "website": "poi.zhupiter.com",
  "phone": "+886 4 724 2277",
  "temporarilyClosed": false,
  "permanentlyClosed": false,
  "rank": 26,
  "placeId": "ChIJh2lQrcM4aTQRs0Ll-BFC12E",
  "url": "https://www.google.com/maps/place/%E8%88%88%E6%97%BA%E5%8B%95%E7%89%A9%E9%86%AB%E9%99%A2/@24.085857,120.5566993,17z/data=!3m1!4b1!4m5!3m4!1s0x346938c3ad506987:0x61d74211f8e542b3!8m2!3d24.085857!4d120.558888",
  "location": {
    "lat": 24.085857,
    "lng": 120.558888
  },
  "searchString": "彰化縣的動物醫院",
  "reviewsCount": 29
},
{
  "title": "喬喬獸醫",
  "totalScore": 4.7,
  "categoryName": "Animal hospital",
  "address": "No. 163號, Renmei Road, Hemei Township, Changhua County, Taiwan 508             508彰化縣和美鎮仁美路163號",
  "locatedIn": null,
  "plusCode": "4F5X+86 Hemei Township, Changhua County, Taiwan",
  "website": "m.facebook.com",
  "phone": "+886 4 755 9877",
  "temporarilyClosed": false,
  "permanentlyClosed": false,
  "rank": 31,
  "placeId": "ChIJbbWLvjBHaTQRvQa1i-y7xPY",
  "url": "https://www.google.com/maps/place/%E5%96%AC%E5%96%AC%E7%8D%B8%E9%86%AB/@24.1083153,120.4958921,17z/data=!3m1!4b1!4m5!3m4!1s0x34694730be8bb56d:0xf6c4bbec8bb506bd!8m2!3d24.1083153!4d120.4980808",
  "location": {
    "lat": 24.1083153,
    "lng": 120.4980808
  },
  "searchString": "彰化縣的動物醫院",
  "openingHours": [
    {
      "day": "Tuesday,",
      "hours": "10AM to 9PM"
    },
    {
      "day": "Wednesday,",
      "hours": "10AM to 9PM"
    },
    {
      "day": "Thursday",
      "hours": "(Mid-Autumn Festival), 10AM to 9PM, Hours might differ"
    },
    {
      "day": "Friday,",
      "hours": "10AM to 9PM"
    },
    {
      "day": "Saturday,",
      "hours": "10AM to 9PM"
    },
    {
      "day": "Sunday,",
      "hours": "Closed"
    },
    {
      "day": "Monday,",
      "hours": "10AM to 9PM"
    }
  ],
  "reviewsCount": 28
},
{
  "title": "華成獸醫院",
  "totalScore": 4.4,
  "categoryName": "Veterinarian",
  "address": "No. 30, Section 2, Datong Road, Yuanlin City, Changhua County, Taiwan 510             510彰化縣員林市大同路二段30號",
  "locatedIn": null,
  "plusCode": "XH8H+XG Yuanlin City, Changhua County, Taiwan",
  "website": null,
  "phone": "+886 4 832 8112",
  "temporarilyClosed": false,
  "permanentlyClosed": false,
  "rank": 36,
  "placeId": "ChIJFb9fvP42aTQRPrsAP8i3sFo",
  "url": "https://www.google.com/maps/place/%E8%8F%AF%E6%88%90%E7%8D%B8%E9%86%AB%E9%99%A2/@23.9674524,120.5765905,17z/data=!3m1!4b1!4m5!3m4!1s0x346936febc5fbf15:0x5ab0b7c83f00bb3e!8m2!3d23.9674524!4d120.5787792",
  "location": {
    "lat": 23.9674524,
    "lng": 120.5787792
  },
  "searchString": "彰化縣的動物醫院",
  "openingHours": [
    {
      "day": "Tuesday,",
      "hours": "9AM to 12PM, 2 to 9PM"
    },
    {
      "day": "Wednesday,",
      "hours": "9AM to 12PM, 2 to 9PM"
    },
    {
      "day": "Thursday",
      "hours": "(Mid-Autumn Festival), 9AM to 12PM, 2 to 9PM, Hours might differ"
    },
    {
      "day": "Friday,",
      "hours": "9AM to 12PM, 2 to 9PM"
    },
    {
      "day": "Saturday,",
      "hours": "9AM to 12PM, 2 to 9PM"
    },
    {
      "day": "Sunday,",
      "hours": "Closed"
    },
    {
      "day": "Monday,",
      "hours": "9AM to 12PM, 2 to 9PM"
    }
  ],
  "reviewsCount": 47
},
{
  "title": "旺旺動物醫院",
  "totalScore": 4.1,
  "categoryName": "Animal hospital",
  "address": "No. 405號, Section 1, Zhangnan Road, Changhua City, Changhua County, Taiwan 500             500彰化縣彰化市彰南路一段405號",
  "locatedIn": null,
  "plusCode": "3HPG+C7 Changhua City, Changhua County, Taiwan",
  "website": null,
  "phone": "+886 4 732 1657",
  "temporarilyClosed": false,
  "permanentlyClosed": false,
  "rank": 30,
  "placeId": "ChIJfX88Pic5aTQR63Fcv0QfcSU",
  "url": "https://www.google.com/maps/place/%E6%97%BA%E6%97%BA%E5%8B%95%E7%89%A9%E9%86%AB%E9%99%A2/@24.0860929,120.5734553,17z/data=!3m1!4b1!4m5!3m4!1s0x346939273e3c7f7d:0x25711f44bf5c71eb!8m2!3d24.0860929!4d120.575644",
  "location": {
    "lat": 24.0860929,
    "lng": 120.575644
  },
  "searchString": "彰化縣的動物醫院",
  "openingHours": [
    {
      "day": "Tuesday,",
      "hours": "10AM to 8PM"
    },
    {
      "day": "Wednesday,",
      "hours": "10AM to 8PM"
    },
    {
      "day": "Thursday",
      "hours": "(Mid-Autumn Festival), 10AM to 8PM, Hours might differ"
    },
    {
      "day": "Friday,",
      "hours": "10AM to 8PM"
    },
    {
      "day": "Saturday,",
      "hours": "10AM to 8PM"
    },
    {
      "day": "Sunday,",
      "hours": "10AM to 2PM"
    },
    {
      "day": "Monday,",
      "hours": "10AM to 8PM"
    }
  ],
  "reviewsCount": 43
},
{
  "title": "聯合動物醫院",
  "totalScore": 4.3,
  "categoryName": "Veterinarian",
  "address": "No. 432, Section 1, Erxi Road, Xihu Township, Changhua County, Taiwan 514             514彰化縣溪湖鎮二溪路一段432號",
  "locatedIn": null,
  "plusCode": "XF59+MX Xihu Township, Changhua County, Taiwan",
  "website": null,
  "phone": "+886 4 881 5585",
  "temporarilyClosed": false,
  "permanentlyClosed": false,
  "rank": 29,
  "placeId": "ChIJf0qAtmRJaTQRn2Q74qRmiHw",
  "url": "https://www.google.com/maps/place/%E8%81%AF%E5%90%88%E5%8B%95%E7%89%A9%E9%86%AB%E9%99%A2/@23.9592446,120.4677714,17z/data=!3m1!4b1!4m5!3m4!1s0x34694964b6804a7f:0x7c8866a4e23b649f!8m2!3d23.9592446!4d120.4699601",
  "location": {
    "lat": 23.9592446,
    "lng": 120.4699601
  },
  "searchString": "彰化縣的動物醫院",
  "openingHours": [
    {
      "day": "Tuesday,",
      "hours": "10AM to 9PM"
    },
    {
      "day": "Wednesday,",
      "hours": "10AM to 9PM"
    },
    {
      "day": "Thursday",
      "hours": "(Mid-Autumn Festival), 10AM to 9PM, Hours might differ"
    },
    {
      "day": "Friday,",
      "hours": "10AM to 9PM"
    },
    {
      "day": "Saturday,",
      "hours": "10AM to 9PM"
    },
    {
      "day": "Sunday,",
      "hours": "Closed"
    },
    {
      "day": "Monday,",
      "hours": "10AM to 9PM"
    }
  ],
  "reviewsCount": 74
},
{
  "title": "龍貓動物醫院",
  "totalScore": 4.3,
  "categoryName": "Animal hospital",
  "address": "No. 639號, Section 7, Zhanglu Road, Lukang Township, Changhua County, Taiwan 505             505彰化縣鹿港鎮彰鹿路七段639號",
  "locatedIn": null,
  "plusCode": "2CXR+F5 Lukang Township, Changhua County, Taiwan",
  "website": "facebook.com",
  "phone": "+886 4 777 3488",
  "temporarilyClosed": false,
  "permanentlyClosed": false,
  "rank": 37,
  "placeId": "ChIJKdvTycGrQjQRg8DhjqRlEvA",
  "url": "https://www.google.com/maps/place/%E9%BE%8D%E8%B2%93%E5%8B%95%E7%89%A9%E9%86%AB%E9%99%A2/@24.0487188,120.4381895,17z/data=!3m1!4b1!4m5!3m4!1s0x3442abc1c9d3db29:0xf01265a48ee1c083!8m2!3d24.0487188!4d120.4403782",
  "location": {
    "lat": 24.0487188,
    "lng": 120.4403782
  },
  "searchString": "彰化縣的動物醫院",
  "openingHours": [
    {
      "day": "Tuesday,",
      "hours": "9:30AM to 12PM, 2 to 9PM"
    },
    {
      "day": "Wednesday,",
      "hours": "9:30AM to 12PM, 2 to 9PM"
    },
    {
      "day": "Thursday",
      "hours": "(Mid-Autumn Festival), Closed, Holiday hours"
    },
    {
      "day": "Friday,",
      "hours": "Closed"
    },
    {
      "day": "Saturday,",
      "hours": "Closed"
    },
    {
      "day": "Sunday,",
      "hours": "Closed"
    },
    {
      "day": "Monday,",
      "hours": "9:30AM to 12PM, 2 to 9PM"
    }
  ],
  "reviewsCount": 46
},
{
  "title": "惟仁動物醫院",
  "totalScore": 4.6,
  "categoryName": "Animal hospital",
  "address": "No. 570, Section 2, Yuanlu Road, Xihu Township, Changhua County, Taiwan 514             514彰化縣溪湖鎮員鹿路二段570號",
  "locatedIn": null,
  "plusCode": "XF5J+5X Xihu Township, Changhua County, Taiwan",
  "website": "zh-tw.facebook.com",
  "phone": "+886 4 881 0093",
  "temporarilyClosed": false,
  "permanentlyClosed": false,
  "rank": 1,
  "placeId": "ChIJPWRcfYJJaTQRHz1JDaExuWk",
  "url": "https://www.google.com/maps/place/%E6%83%9F%E4%BB%81%E5%8B%95%E7%89%A9%E9%86%AB%E9%99%A2/@23.957994,120.4803043,17z/data=!3m1!4b1!4m5!3m4!1s0x346949827d5c643d:0x69b931a10d493d1f!8m2!3d23.957994!4d120.482493",
  "location": {
    "lat": 23.957994,
    "lng": 120.482493
  },
  "searchString": "彰化縣的動物醫院",
  "openingHours": [
    {
      "day": "Tuesday,",
      "hours": "9AM to 12PM, 2 to 8PM"
    },
    {
      "day": "Wednesday,",
      "hours": "9AM to 12PM, 2 to 8PM"
    },
    {
      "day": "Thursday",
      "hours": "(Mid-Autumn Festival), 9AM to 12PM, 2 to 8PM, Hours might differ"
    },
    {
      "day": "Friday,",
      "hours": "9AM to 12PM, 2 to 8PM"
    },
    {
      "day": "Saturday,",
      "hours": "9AM to 12PM, 2 to 8PM"
    },
    {
      "day": "Sunday,",
      "hours": "10AM to 12PM, 2 to 5PM"
    },
    {
      "day": "Monday,",
      "hours": "9AM to 12PM, 2 to 8PM"
    }
  ],
  "reviewsCount": 150
},
{
  "title": "冠豪動物醫院",
  "totalScore": 4.4,
  "categoryName": "Veterinarian",
  "address": "No. 230, Section 1, Zhangmei Road, Changhua City, Changhua County, Taiwan 500             500彰化縣彰化市彰美路一段230號",
  "locatedIn": null,
  "plusCode": "3GQP+VV Changhua City, Changhua County, Taiwan",
  "website": "facebook.com",
  "phone": "+886 4 720 0696",
  "temporarilyClosed": false,
  "permanentlyClosed": false,
  "rank": 19,
  "placeId": "ChIJeaKU8aI4aTQRBNkUFphrYd0",
  "url": "https://www.google.com/maps/place/%E5%86%A0%E8%B1%AA%E5%8B%95%E7%89%A9%E9%86%AB%E9%99%A2/@24.0896569,120.5349803,17z/data=!3m1!4b1!4m5!3m4!1s0x346938a2f194a279:0xdd616b981614d904!8m2!3d24.0896569!4d120.537169",
  "location": {
    "lat": 24.0896569,
    "lng": 120.537169
  },
  "searchString": "彰化縣的動物醫院",
  "openingHours": [
    {
      "day": "Tuesday,",
      "hours": "9:30AM to 12PM, 2:30 to 9PM"
    },
    {
      "day": "Wednesday,",
      "hours": "9:30AM to 12PM, 2:30 to 9PM"
    },
    {
      "day": "Thursday",
      "hours": "(Mid-Autumn Festival), 9:30AM to 12PM, 2:30 to 9PM, Hours might differ"
    },
    {
      "day": "Friday,",
      "hours": "9:30AM to 12PM, 2:30 to 9PM"
    },
    {
      "day": "Saturday,",
      "hours": "9:30AM to 12PM, 2:30 to 5PM"
    },
    {
      "day": "Sunday,",
      "hours": "Closed"
    },
    {
      "day": "Monday,",
      "hours": "9:30AM to 12PM, 2:30 to 9PM"
    }
  ],
  "reviewsCount": 107
},
{
  "title": "三福動物醫院",
  "totalScore": 4.6,
  "categoryName": "Animal hospital",
  "address": "No. 117號, Section 5, Zhangmei Road, Hemei Township, Changhua County, Taiwan 508             508彰化縣和美鎮彰美路五段117號",
  "locatedIn": null,
  "plusCode": "4G42+XW Hemei Township, Changhua County, Taiwan",
  "website": null,
  "phone": "+886 4 755 1240",
  "temporarilyClosed": false,
  "permanentlyClosed": false,
  "rank": 16,
  "placeId": "ChIJUUNymTdHaTQRSZ0oqp51wQs",
  "url": "https://www.google.com/maps/place/%E4%B8%89%E7%A6%8F%E5%8B%95%E7%89%A9%E9%86%AB%E9%99%A2/@24.107395,120.5000795,17z/data=!3m1!4b1!4m5!3m4!1s0x3469473799724351:0xbc1759eaa289d49!8m2!3d24.107395!4d120.5022682",
  "location": {
    "lat": 24.107395,
    "lng": 120.5022682
  },
  "searchString": "彰化縣的動物醫院",
  "openingHours": [
    {
      "day": "Tuesday,",
      "hours": "8:30AM to 12PM, 2 to 6:30PM"
    },
    {
      "day": "Wednesday,",
      "hours": "8:30AM to 12PM, 2 to 6:30PM"
    },
    {
      "day": "Thursday",
      "hours": "(Mid-Autumn Festival), 8:30AM to 12PM, 2 to 6:30PM, Hours might differ"
    },
    {
      "day": "Friday,",
      "hours": "8:30AM to 12PM, 2 to 6:30PM"
    },
    {
      "day": "Saturday,",
      "hours": "8:30AM to 12PM, 2 to 4PM"
    },
    {
      "day": "Sunday,",
      "hours": "Closed"
    },
    {
      "day": "Monday,",
      "hours": "8:30AM to 12PM, 2 to 6:30PM"
    }
  ],
  "reviewsCount": 119
},
{
  "title": "忠愛動物醫院 / 愛米樂寵物美容",
  "totalScore": 3.4,
  "categoryName": "Animal hospital",
  "address": "No. 490, Section 2, Zhongshan Road, Yuanlin City, Changhua County, Taiwan 510             510彰化縣員林市中山路二段490號",
  "locatedIn": null,
  "plusCode": "XHCC+HJ Yuanlin City, Changhua County, Taiwan",
  "website": "chungai.com.tw",
  "phone": "+886 4 833 5520",
  "temporarilyClosed": false,
  "permanentlyClosed": false,
  "rank": 13,
  "placeId": "ChIJ-9GdBVU2aTQRRHfaxL-Lyrc",
  "url": "https://www.google.com/maps/place/%E5%BF%A0%E6%84%9B%E5%8B%95%E7%89%A9%E9%86%AB%E9%99%A2+%2F+%E6%84%9B%E7%B1%B3%E6%A8%82%E5%AF%B5%E7%89%A9%E7%BE%8E%E5%AE%B9/@23.9714224,120.5693893,17z/data=!3m1!4b1!4m5!3m4!1s0x34693655059dd1fb:0xb7ca8bbfc4da7744!8m2!3d23.9714224!4d120.571578",
  "location": {
    "lat": 23.9714224,
    "lng": 120.571578
  },
  "searchString": "彰化縣的動物醫院",
  "openingHours": [
    {
      "day": "Tuesday,",
      "hours": "9AM to 9:30PM"
    },
    {
      "day": "Wednesday,",
      "hours": "9AM to 9:30PM"
    },
    {
      "day": "Thursday",
      "hours": "(Mid-Autumn Festival), 9AM to 9:30PM, Hours might differ"
    },
    {
      "day": "Friday,",
      "hours": "9AM to 9:30PM"
    },
    {
      "day": "Saturday,",
      "hours": "9AM to 9:30PM"
    },
    {
      "day": "Sunday,",
      "hours": "9AM to 9:30PM"
    },
    {
      "day": "Monday,",
      "hours": "9AM to 9:30PM"
    }
  ],
  "reviewsCount": 243
},
{
  "title": "員林動物醫院",
  "totalScore": 3.9,
  "categoryName": "Veterinarian",
  "address": "No. 49, Jingxiu Road, Yuanlin City, Changhua County, Taiwan 510             510彰化縣員林市靜修路49號",
  "locatedIn": null,
  "plusCode": "XH69+VW Yuanlin City, Changhua County, Taiwan",
  "website": null,
  "phone": "+886 4 835 7631",
  "temporarilyClosed": false,
  "permanentlyClosed": false,
  "rank": 5,
  "placeId": "ChIJT469w1k2aTQReLuVd-M959M",
  "url": "https://www.google.com/maps/place/%E5%93%A1%E6%9E%97%E5%8B%95%E7%89%A9%E9%86%AB%E9%99%A2/@23.9622261,120.5676525,17z/data=!3m1!4b1!4m5!3m4!1s0x34693659c3bd8e4f:0xd3e73de37795bb78!8m2!3d23.9622261!4d120.5698412",
  "location": {
    "lat": 23.9622261,
    "lng": 120.5698412
  },
  "searchString": "彰化縣的動物醫院",
  "reviewsCount": 49
},
{
  "title": "China Animal Hospital (Vet)",
  "totalScore": 3.8,
  "categoryName": "Animal hospital",
  "address": "510, Taiwan, Changhua County, Yuanlin City, Section 2, Zhongshan Road, 477號之 1 號             510彰化縣員林市中山路二段477號之 1 號",
  "locatedIn": null,
  "plusCode": "XHCC+CG Yuanlin City, Changhua County, Taiwan",
  "website": "business.site",
  "phone": "+886 4 832 1316",
  "temporarilyClosed": false,
  "permanentlyClosed": false,
  "rank": 12,
  "placeId": "ChIJtcyZHFU2aTQRkQ35BVjW3Hk",
  "url": "https://www.google.com/maps/place/China+Animal+Hospital+(Vet)/@23.9710197,120.5691215,17z/data=!3m1!4b1!4m5!3m4!1s0x346936551c99ccb5:0x79dcd65805f90d91!8m2!3d23.9710197!4d120.5713102",
  "location": {
    "lat": 23.9710197,
    "lng": 120.5713102
  },
  "searchString": "彰化縣的動物醫院",
  "openingHours": [
    {
      "day": "Tuesday,",
      "hours": "10AM to 6PM"
    },
    {
      "day": "Wednesday,",
      "hours": "10AM to 6PM"
    },
    {
      "day": "Thursday",
      "hours": "(Mid-Autumn Festival), 10AM to 6PM, Hours might differ"
    },
    {
      "day": "Friday,",
      "hours": "10AM to 6PM"
    },
    {
      "day": "Saturday,",
      "hours": "10AM to 6PM"
    },
    {
      "day": "Sunday,",
      "hours": "Closed"
    },
    {
      "day": "Monday,",
      "hours": "10AM to 6PM"
    }
  ],
  "reviewsCount": 17
},
{
  "title": "慧光動物醫院",
  "totalScore": 3.7,
  "categoryName": "Veterinarian",
  "address": "No. 38, Lane 69, Siwei Road, Changhua City, Changhua County, Taiwan 500             500彰化縣彰化市四維路69巷38號",
  "locatedIn": null,
  "plusCode": "3G8P+76 Changhua City, Changhua County, Taiwan",
  "website": null,
  "phone": "+886 4 763 3320",
  "temporarilyClosed": false,
  "permanentlyClosed": false,
  "rank": 10,
  "placeId": "ChIJN_77j304aTQRYqbxxINEKEk",
  "url": "https://www.google.com/maps/place/%E6%85%A7%E5%85%89%E5%8B%95%E7%89%A9%E9%86%AB%E9%99%A2/@24.0656603,120.5333806,17z/data=!3m1!4b1!4m5!3m4!1s0x3469387d8ffbfe37:0x49284483c4f1a662!8m2!3d24.0656603!4d120.5355693",
  "location": {
    "lat": 24.0656603,
    "lng": 120.5355693
  },
  "searchString": "彰化縣的動物醫院",
  "openingHours": [
    {
      "day": "Tuesday,",
      "hours": "9AM to 5:30PM"
    },
    {
      "day": "Wednesday,",
      "hours": "9AM to 5:30PM"
    },
    {
      "day": "Thursday",
      "hours": "(Mid-Autumn Festival), 9AM to 5:30PM, Hours might differ"
    },
    {
      "day": "Friday,",
      "hours": "9AM to 5:30PM"
    },
    {
      "day": "Saturday,",
      "hours": "9AM to 5:30PM"
    },
    {
      "day": "Sunday,",
      "hours": "Closed"
    },
    {
      "day": "Monday,",
      "hours": "9AM to 5:30PM"
    }
  ],
  "reviewsCount": 75
},
{
  "title": "沛國動物醫院",
  "totalScore": 4.4,
  "categoryName": "Veterinarian",
  "address": "No. 4號, Dazhi Street, Yuanlin City, Changhua County, Taiwan 510             510彰化縣員林市大智街4號",
  "locatedIn": null,
  "plusCode": "XH9F+Q2 Yuanlin City, Changhua County, Taiwan",
  "website": "veterinarian-626.business.site",
  "phone": "+886 4 832 6979",
  "temporarilyClosed": false,
  "permanentlyClosed": false,
  "rank": 15,
  "placeId": "ChIJE8wdvlU2aTQRfz7rR9raEZg",
  "url": "https://www.google.com/maps/place/%E6%B2%9B%E5%9C%8B%E5%8B%95%E7%89%A9%E9%86%AB%E9%99%A2/@23.969381,120.5703203,17z/data=!3m1!4b1!4m5!3m4!1s0x34693655be1dcc13:0x9811dada47eb3e7f!8m2!3d23.969381!4d120.572509",
  "location": {
    "lat": 23.969381,
    "lng": 120.572509
  },
  "searchString": "彰化縣的動物醫院",
  "reviewsCount": 51
},
{
  "title": "獸依動物醫院 1992年開業（院長親自看診）",
  "totalScore": 4.1,
  "categoryName": "Emergency veterinarian service",
  "address": "No. 289, Section 2, Zhongshan Road, Changhua City, Changhua County, Taiwan 500             500彰化縣彰化市中山路二段289號",
  "locatedIn": null,
  "plusCode": "3GFV+45 Changhua City, Changhua County, Taiwan",
  "website": "facebook.com",
  "phone": "+886 4 728 5678",
  "temporarilyClosed": false,
  "permanentlyClosed": false,
  "rank": 17,
  "placeId": "ChIJaYMR-o44aTQRAgVOzE7SyLU",
  "url": "https://www.google.com/maps/place/%E7%8D%B8%E4%BE%9D%E5%8B%95%E7%89%A9%E9%86%AB%E9%99%A2+1992%E5%B9%B4%E9%96%8B%E6%A5%AD%EF%BC%88%E9%99%A2%E9%95%B7%E8%A6%AA%E8%87%AA%E7%9C%8B%E8%A8%BA%EF%BC%89/@24.0728576,120.5407793,17z/data=!3m1!4b1!4m5!3m4!1s0x3469388efa118369:0xb5c8d24ecc4e0502!8m2!3d24.0728576!4d120.542968",
  "location": {
    "lat": 24.0728576,
    "lng": 120.542968
  },
  "searchString": "彰化縣的動物醫院",
  "openingHours": [
    {
      "day": "Tuesday,",
      "hours": "9 to 11:45AM, 2 to 9PM"
    },
    {
      "day": "Wednesday,",
      "hours": "9 to 11:45AM, 2 to 9PM"
    },
    {
      "day": "Thursday",
      "hours": "(Mid-Autumn Festival), 9 to 11:50AM, 2 to 9PM, Hours might differ"
    },
    {
      "day": "Friday,",
      "hours": "9 to 11:50AM, 2 to 9PM"
    },
    {
      "day": "Saturday,",
      "hours": "9 to 11:50AM, 2 to 9PM"
    },
    {
      "day": "Sunday,",
      "hours": "Closed"
    },
    {
      "day": "Monday,",
      "hours": "9 to 11:45AM, 2 to 9PM"
    }
  ],
  "reviewsCount": 58
},
{
  "title": "佳佳動物醫院",
  "totalScore": 4.3,
  "categoryName": "Animal hospital",
  "address": "No. 350之2號, Section 1, Zhongshan Road, Tianwei Township, Changhua County, Taiwan 522             522彰化縣田尾鄉中山路一段350之2號",
  "locatedIn": null,
  "plusCode": "VGQG+RH Tianwei Township, Changhua County, Taiwan",
  "website": null,
  "phone": "+886 4 883 3766",
  "temporarilyClosed": false,
  "permanentlyClosed": false,
  "rank": 9,
  "placeId": "ChIJPyIIYIJKaTQRIFPwf_glmMk",
  "url": "https://www.google.com/maps/place/%E4%BD%B3%E4%BD%B3%E5%8B%95%E7%89%A9%E9%86%AB%E9%99%A2/@23.889565,120.5242833,17z/data=!3m1!4b1!4m5!3m4!1s0x34694a826008223f:0xc99825f87ff05320!8m2!3d23.889565!4d120.526472",
  "location": {
    "lat": 23.889565,
    "lng": 120.526472
  },
  "searchString": "彰化縣的動物醫院",
  "openingHours": [
    {
      "day": "Tuesday,",
      "hours": "9AM to 9PM"
    },
    {
      "day": "Wednesday,",
      "hours": "9AM to 9PM"
    },
    {
      "day": "Thursday",
      "hours": "(Mid-Autumn Festival), 9AM to 9PM, Hours might differ"
    },
    {
      "day": "Friday,",
      "hours": "9AM to 9PM"
    },
    {
      "day": "Saturday,",
      "hours": "9AM to 9PM"
    },
    {
      "day": "Sunday,",
      "hours": "Closed"
    },
    {
      "day": "Monday,",
      "hours": "9AM to 9PM"
    }
  ],
  "reviewsCount": 100
},
{
  "title": "快樂動物醫院",
  "totalScore": 2.9,
  "categoryName": "Animal hospital",
  "address": "500, Taiwan, 彰化縣彰化市彰南路二段180號",
  "locatedIn": null,
  "plusCode": "3HMJ+V9 Changhua City, Changhua County, Taiwan",
  "website": null,
  "phone": "+886 4 738 4978",
  "temporarilyClosed": false,
  "permanentlyClosed": false,
  "rank": 14,
  "placeId": "ChIJ6xeBFCQ5aTQRpoxbpvaTRLI",
  "url": "https://www.google.com/maps/place/%E5%BF%AB%E6%A8%82%E5%8B%95%E7%89%A9%E9%86%AB%E9%99%A2/@24.084651,120.5787973,17z/data=!3m1!4b1!4m5!3m4!1s0x34693924148117eb:0xb24493f6a65b8ca6!8m2!3d24.084651!4d120.580986",
  "location": {
    "lat": 24.084651,
    "lng": 120.580986
  },
  "searchString": "彰化縣的動物醫院",
  "reviewsCount": 19
},
{
  "title": "民家動物醫院",
  "totalScore": 3.9,
  "categoryName": "Veterinarian",
  "address": "No. 124, Ren'ai Road, Changhua City, Changhua County, Taiwan 505             505彰化縣彰化市仁愛路124號",
  "locatedIn": null,
  "plusCode": "3G9P+XQ Changhua City, Changhua County, Taiwan",
  "website": "hillspet.com.tw",
  "phone": "+886 4 728 2581",
  "temporarilyClosed": false,
  "permanentlyClosed": false,
  "rank": 20,
  "placeId": "ChIJeREJWoY4aTQR7s3AJHxAHtc",
  "url": "https://www.google.com/maps/place/%E6%B0%91%E5%AE%B6%E5%8B%95%E7%89%A9%E9%86%AB%E9%99%A2/@24.0698777,120.5347835,17z/data=!3m1!4b1!4m5!3m4!1s0x346938865a091179:0xd71e407c24c0cdee!8m2!3d24.0698777!4d120.5369722",
  "location": {
    "lat": 24.0698777,
    "lng": 120.5369722
  },
  "searchString": "彰化縣的動物醫院",
  "openingHours": [
    {
      "day": "Tuesday,",
      "hours": "9AM to 9PM"
    },
    {
      "day": "Wednesday,",
      "hours": "9AM to 9PM"
    },
    {
      "day": "Thursday",
      "hours": "(Mid-Autumn Festival), 9AM to 6PM, Holiday hours"
    },
    {
      "day": "Friday,",
      "hours": "9AM to 9PM"
    },
    {
      "day": "Saturday,",
      "hours": "9AM to 9PM"
    },
    {
      "day": "Sunday,",
      "hours": "Closed"
    },
    {
      "day": "Monday,",
      "hours": "9AM to 9PM"
    }
  ],
  "reviewsCount": 86
},
{
  "title": "謝獸醫動物醫院",
  "totalScore": 4.3,
  "categoryName": "Veterinarian",
  "address": "No. 616, Section 2, Zhongshan Road, Changhua City, Changhua County, Taiwan 500             500彰化縣彰化市中山路二段616號",
  "locatedIn": null,
  "plusCode": "3GJW+68 Changhua City, Changhua County, Taiwan",
  "website": null,
  "phone": "+886 4 728 9465",
  "temporarilyClosed": false,
  "permanentlyClosed": false,
  "rank": 3,
  "placeId": "ChIJRf40-JM4aTQRKaVybkBPln8",
  "url": "https://www.google.com/maps/place/%E8%AC%9D%E7%8D%B8%E9%86%AB%E5%8B%95%E7%89%A9%E9%86%AB%E9%99%A2/@24.080508,120.5436323,17z/data=!3m1!4b1!4m5!3m4!1s0x34693893f834fe45:0x7f964f406e72a529!8m2!3d24.080508!4d120.545821",
  "location": {
    "lat": 24.080508,
    "lng": 120.545821
  },
  "searchString": "彰化縣的動物醫院",
  "openingHours": [
    {
      "day": "Tuesday,",
      "hours": "9AM to 9PM"
    },
    {
      "day": "Wednesday,",
      "hours": "9AM to 9PM"
    },
    {
      "day": "Thursday",
      "hours": "(Mid-Autumn Festival), 9AM to 9PM, Hours might differ"
    },
    {
      "day": "Friday,",
      "hours": "9AM to 9PM"
    },
    {
      "day": "Saturday,",
      "hours": "9AM to 9PM"
    },
    {
      "day": "Sunday,",
      "hours": "Closed"
    },
    {
      "day": "Monday,",
      "hours": "9AM to 9PM"
    }
  ],
  "reviewsCount": 94
},
{
  "title": "愛犬動物醫院",
  "totalScore": 4.2,
  "categoryName": "Animal hospital",
  "address": "No. 553號, Daozhou Road, Hemei Township, Changhua County, Taiwan 508             508彰化縣和美鎮道周路553號",
  "locatedIn": null,
  "plusCode": "4F5V+R5 Hemei Township, Changhua County, Taiwan",
  "website": null,
  "phone": "+886 4 756 7481",
  "temporarilyClosed": false,
  "permanentlyClosed": false,
  "rank": 8,
  "placeId": "ChIJD8UX3i9HaTQRzceZ9VcBrX8",
  "url": "https://www.google.com/maps/place/%E6%84%9B%E7%8A%AC%E5%8B%95%E7%89%A9%E9%86%AB%E9%99%A2/@24.1095978,120.4908063,17z/data=!3m1!4b1!4m5!3m4!1s0x3469472fde17c50f:0x7fad0157f599c7cd!8m2!3d24.1095978!4d120.492995",
  "location": {
    "lat": 24.1095978,
    "lng": 120.492995
  },
  "searchString": "彰化縣的動物醫院",
  "openingHours": [
    {
      "day": "Tuesday,",
      "hours": "9AM to 9PM"
    },
    {
      "day": "Wednesday,",
      "hours": "9AM to 9PM"
    },
    {
      "day": "Thursday",
      "hours": "(Mid-Autumn Festival), 9AM to 9PM, Hours might differ"
    },
    {
      "day": "Friday,",
      "hours": "9AM to 9PM"
    },
    {
      "day": "Saturday,",
      "hours": "9AM to 9PM"
    },
    {
      "day": "Sunday,",
      "hours": "Closed"
    },
    {
      "day": "Monday,",
      "hours": "9AM to 9PM"
    }
  ],
  "reviewsCount": 115
},
{
  "title": "陳獸醫動物醫院",
  "totalScore": 4.4,
  "categoryName": "Veterinarian",
  "address": "No. 620, Xihuan Road, Xihu Township, Changhua County, Taiwan 514             514彰化縣溪湖鎮西環路620號",
  "locatedIn": null,
  "plusCode": "XF7J+C9 Xihu Township, Changhua County, Taiwan",
  "website": null,
  "phone": "+886 4 881 1999",
  "temporarilyClosed": false,
  "permanentlyClosed": false,
  "rank": 4,
  "placeId": "ChIJx8OPn3lJaTQRdLRUJvUQ_2w",
  "url": "https://www.google.com/maps/place/%E9%99%B3%E7%8D%B8%E9%86%AB%E5%8B%95%E7%89%A9%E9%86%AB%E9%99%A2/@23.9635227,120.4787162,17z/data=!3m1!4b1!4m5!3m4!1s0x346949799f8fc3c7:0x6cff10f52654b474!8m2!3d23.9635227!4d120.4809049",
  "location": {
    "lat": 23.9635227,
    "lng": 120.4809049
  },
  "searchString": "彰化縣的動物醫院",
  "openingHours": [
    {
      "day": "Tuesday,",
      "hours": "10AM to 10PM"
    },
    {
      "day": "Wednesday,",
      "hours": "10AM to 10PM"
    },
    {
      "day": "Thursday",
      "hours": "(Mid-Autumn Festival), 10AM to 10PM, Hours might differ"
    },
    {
      "day": "Friday,",
      "hours": "10AM to 10PM"
    },
    {
      "day": "Saturday,",
      "hours": "10AM to 10PM"
    },
    {
      "day": "Sunday,",
      "hours": "Closed"
    },
    {
      "day": "Monday,",
      "hours": "10AM to 10PM"
    }
  ],
  "reviewsCount": 40
},
{
  "title": "詹動物醫院",
  "totalScore": 4.2,
  "categoryName": "Animal hospital",
  "address": "No. 837號, Section 1, Zhongshan Road, Yongjing Township, Changhua County, Taiwan 512             512彰化縣永靖鄉中山路一段837號",
  "locatedIn": null,
  "plusCode": "WG9W+HG Yongjing Township, Changhua County, Taiwan",
  "website": null,
  "phone": "+886 4 823 1715",
  "temporarilyClosed": false,
  "permanentlyClosed": false,
  "rank": 2,
  "placeId": "ChIJeXbm6-s1aTQRy97x7KlFf44",
  "url": "https://www.google.com/maps/place/%E8%A9%B9%E5%8B%95%E7%89%A9%E9%86%AB%E9%99%A2/@23.918938,120.5441383,17z/data=!3m1!4b1!4m5!3m4!1s0x346935ebebe67679:0x8e7f45a9ecf1decb!8m2!3d23.918938!4d120.546327",
  "location": {
    "lat": 23.918938,
    "lng": 120.546327
  },
  "searchString": "彰化縣的動物醫院",
  "openingHours": [
    {
      "day": "Tuesday,",
      "hours": "9AM to 8PM"
    },
    {
      "day": "Wednesday,",
      "hours": "9AM to 8PM"
    },
    {
      "day": "Thursday",
      "hours": "(Mid-Autumn Festival), 9AM to 8PM, Hours might differ"
    },
    {
      "day": "Friday,",
      "hours": "9AM to 8PM"
    },
    {
      "day": "Saturday,",
      "hours": "Closed"
    },
    {
      "day": "Sunday,",
      "hours": "Closed"
    },
    {
      "day": "Monday,",
      "hours": "9AM to 8PM"
    }
  ],
  "reviewsCount": 18
}]