[{
  "title": "傑克動物醫院",
  "totalScore": null,
  "categoryName": "Veterinarijos klinika",
  "address": "No. 128號, Zhongshan Road, Zhubei City, Hsinchu County, Taivanas 302             302新竹縣竹北市中山路128號",
  "locatedIn": null,
  "plusCode": "R2PC+2M Džubėjus, Hsinchu County, Taivanas",
  "website": null,
  "phone": "+886 3 553 3235",
  "temporarilyClosed": false,
  "permanentlyClosed": false,
  "rank": 6,
  "placeId": "ChIJAz16Duk2aDQRYsIlej21dsk",
  "url": "https://www.google.com/maps/place/%E5%82%91%E5%85%8B%E5%8B%95%E7%89%A9%E9%86%AB%E9%99%A2/@24.8350475,121.0194528,17z/data=!3m1!4b1!4m5!3m4!1s0x346836e90e7a3d03:0xc976b53d7a25c262!8m2!3d24.8350475!4d121.0216415",
  "location": {
    "lat": 24.8350475,
    "lng": 121.0216415
  },
  "searchString": "新竹縣的動物醫院",
  "openingHours": [
    null,
    null,
    {
      "day": "ketvirtadienis",
      "hours": "(Rudens vidurio šventė),Uždaryta,Darbo laikas gali skirtis"
    },
    null,
    null,
    null,
    {
      "day": "pirmadienis,09:30–12,14–17,18–20:30.",
      "hours": "Slėpti savaitės darbo laiką"
    }
  ],
  "reviewsCount": 156
},
{
  "title": "品澤動物醫院",
  "totalScore": null,
  "categoryName": "Veterinarijos klinika",
  "address": "No. 875號, Zhonghua Road, Zhubei City, Hsinchu County, Taivanas 302             302新竹縣竹北市中華路875號",
  "locatedIn": null,
  "plusCode": "R2X3+5X Džubėjus, Hsinchu County, Taivanas",
  "website": "facebook.com",
  "phone": "+886 3 555 3259",
  "temporarilyClosed": false,
  "permanentlyClosed": false,
  "rank": 13,
  "placeId": "ChIJj-R2uD03aDQRHMu4QxvcUh0",
  "url": "https://www.google.com/maps/place/%E5%93%81%E6%BE%A4%E5%8B%95%E7%89%A9%E9%86%AB%E9%99%A2/@24.8479852,121.0027345,17z/data=!3m1!4b1!4m5!3m4!1s0x3468373db876e48f:0x1d52dc1b43b8cb1c!8m2!3d24.8479852!4d121.0049232",
  "location": {
    "lat": 24.8479852,
    "lng": 121.0049232
  },
  "searchString": "新竹縣的動物醫院",
  "openingHours": [
    null,
    null,
    {
      "day": "ketvirtadienis",
      "hours": "(Rudens vidurio šventė),10:30–17,Darbo laikas šventinę dieną"
    },
    null,
    null,
    null,
    {
      "day": "pirmadienis,10:30–20.",
      "hours": "Slėpti savaitės darbo laiką"
    }
  ],
  "reviewsCount": 16
},
{
  "title": "徐犬貓專科醫院",
  "totalScore": null,
  "categoryName": "Veterinarijos klinika",
  "address": "325, Taivanas, Taoyuan City, Longtan District, 中豐路中山段13號             325桃園市龍潭區中豐路中山段13號",
  "locatedIn": null,
  "plusCode": "V697+H8 Longtanas, Taoyuan City, Taivanas",
  "website": null,
  "phone": "+886 3 409 2158",
  "temporarilyClosed": false,
  "permanentlyClosed": false,
  "rank": 59,
  "placeId": "ChIJozNS1-M8aDQRRWIzgHO1C68",
  "url": "https://www.google.com/maps/place/%E5%BE%90%E7%8A%AC%E8%B2%93%E5%B0%88%E7%A7%91%E9%86%AB%E9%99%A2/@24.8689222,121.2111351,17z/data=!3m1!4b1!4m5!3m4!1s0x34683ce3d75233a3:0xaf0bb57380336245!8m2!3d24.8689222!4d121.2133238",
  "location": {
    "lat": 24.8689222,
    "lng": 121.2133238
  },
  "searchString": "新竹縣的動物醫院",
  "openingHours": [
    null,
    null,
    {
      "day": "ketvirtadienis",
      "hours": "(Rudens vidurio šventė),09–21,Darbo laikas gali skirtis"
    },
    null,
    null,
    null,
    {
      "day": "pirmadienis,09–21.",
      "hours": "Slėpti savaitės darbo laiką"
    }
  ],
  "reviewsCount": 9
},
{
  "title": "畜安動物醫院",
  "totalScore": null,
  "categoryName": "",
  "address": "No. 61, Section 1, Dongning Road, Zhudong Township, Hsinchu County, Taivanas 310             310新竹縣竹東鎮東寧路一段61號",
  "locatedIn": null,
  "plusCode": "P3FW+77 Zhudong Township, Hsinchu County, Taivanas",
  "website": null,
  "phone": "+886 3 595 6158",
  "temporarilyClosed": false,
  "permanentlyClosed": false,
  "rank": 62,
  "placeId": "ChIJASWnzcVHaDQRHD456Meao2k",
  "url": "https://www.google.com/maps/place/%E7%95%9C%E5%AE%89%E5%8B%95%E7%89%A9%E9%86%AB%E9%99%A2/@24.7231632,121.0935177,17z/data=!3m1!4b1!4m5!3m4!1s0x346847c5cda72501:0x69a39ac7e8393e1c!8m2!3d24.7231632!4d121.0957064",
  "location": {
    "lat": 24.7231632,
    "lng": 121.0957064
  },
  "searchString": "新竹縣的動物醫院",
  "reviewsCount": 13
},
{
  "title": "聖心動物醫院",
  "totalScore": null,
  "categoryName": "Veterinarijos klinika",
  "address": "No. 205, Section 1, Huanshi Road, Zhunan Township, Miaoli County, Taivanas 350             350苗栗縣竹南鎮環市路一段205號",
  "locatedIn": null,
  "plusCode": "MVJF+PM Zhunan Township, Miaoli County, Taivanas",
  "website": null,
  "phone": "+886 3 746 1332",
  "temporarilyClosed": false,
  "permanentlyClosed": false,
  "rank": 61,
  "placeId": "ChIJHyc7FSKzaTQRUEeVhSyF0io",
  "url": "https://www.google.com/maps/place/%E8%81%96%E5%BF%83%E5%8B%95%E7%89%A9%E9%86%AB%E9%99%A2/@24.6818731,120.8719773,17z/data=!3m1!4b1!4m5!3m4!1s0x3469b322153b271f:0x2ad2852c85954750!8m2!3d24.6818731!4d120.874166",
  "location": {
    "lat": 24.6818731,
    "lng": 120.874166
  },
  "searchString": "新竹縣的動物醫院",
  "openingHours": [
    null,
    null,
    {
      "day": "ketvirtadienis",
      "hours": "(Rudens vidurio šventė),09–21,Darbo laikas gali skirtis"
    },
    null,
    null,
    null,
    {
      "day": "pirmadienis,09–21.",
      "hours": "Slėpti savaitės darbo laiką"
    }
  ],
  "reviewsCount": 142
},
{
  "title": "有你動物醫院",
  "totalScore": null,
  "categoryName": "Veterinarijos klinika",
  "address": "No. 46號, Section 5, Zhonghua Road, Xiangshan District, Hsinchu City, Taivanas 300             300新竹市香山區中華路五段46號",
  "locatedIn": null,
  "plusCode": "QWQH+73 Xiangshan District, Hsinchu City, Taivanas",
  "website": null,
  "phone": "+886 3 530 0291",
  "temporarilyClosed": false,
  "permanentlyClosed": false,
  "rank": 51,
  "placeId": "ChIJW7Oh9BJLaDQRcm602nrYz-A",
  "url": "https://www.google.com/maps/place/%E6%9C%89%E4%BD%A0%E5%8B%95%E7%89%A9%E9%86%AB%E9%99%A2/@24.788235,120.9254513,17z/data=!3m1!4b1!4m5!3m4!1s0x34684b12f4a1b35b:0xe0cfd87adab46e72!8m2!3d24.788235!4d120.92764",
  "location": {
    "lat": 24.788235,
    "lng": 120.92764
  },
  "searchString": "新竹縣的動物醫院",
  "openingHours": [
    null,
    null,
    {
      "day": "ketvirtadienis",
      "hours": "(Rudens vidurio šventė),09–11:30,14–18:30,Darbo laikas šventinę dieną"
    },
    null,
    null,
    null,
    {
      "day": "pirmadienis,Uždaryta.",
      "hours": "Slėpti savaitės darbo laiką"
    }
  ],
  "reviewsCount": 8
},
{
  "title": "毛毛村動物醫院-,林倡弘醫師,洪于絜醫師&新竹動物醫院",
  "totalScore": 4.9,
  "categoryName": "Animal hospital",
  "address": "No. 79-2號, Nanda Road, East District, Hsinchu City, Taiwan 300             300新竹市東區南大路79-2號",
  "locatedIn": null,
  "plusCode": "RX2G+QP East District, Hsinchu City, Taiwan",
  "website": "business.site",
  "phone": "+886 3 562 0606",
  "temporarilyClosed": false,
  "permanentlyClosed": false,
  "rank": 43,
  "placeId": "ChIJhVN0zQY1aDQR-ff36fK86Q0",
  "url": "https://www.google.com/maps/place/%E6%AF%9B%E6%AF%9B%E6%9D%91%E5%8B%95%E7%89%A9%E9%86%AB%E9%99%A2-,%E6%9E%97%E5%80%A1%E5%BC%98%E9%86%AB%E5%B8%AB,%E6%B4%AA%E4%BA%8E%E7%B5%9C%E9%86%AB%E5%B8%AB%26%E6%96%B0%E7%AB%B9%E5%8B%95%E7%89%A9%E9%86%AB%E9%99%A2/@24.801939,120.9746753,17z/data=!3m1!4b1!4m5!3m4!1s0x34683506cd745385:0xde9bcf2e9f7f7f9!8m2!3d24.801939!4d120.976864",
  "location": {
    "lat": 24.801939,
    "lng": 120.976864
  },
  "searchString": "新竹縣的動物醫院",
  "openingHours": [
    {
      "day": "Tuesday,",
      "hours": "9:30AM to 1PM, 3 to 8:30PM"
    },
    {
      "day": "Wednesday,",
      "hours": "9:30AM to 1PM, 3 to 8:30PM"
    },
    {
      "day": "Thursday",
      "hours": "(Mid-Autumn Festival), 9:30AM to 1PM, 3 to 8:30PM, Hours might differ"
    },
    {
      "day": "Friday,",
      "hours": "9:30AM to 1PM, 3 to 8:30PM"
    },
    {
      "day": "Saturday,",
      "hours": "9:30AM to 1PM, 3 to 8:30PM"
    },
    {
      "day": "Sunday,",
      "hours": "9:30AM to 1PM, 3 to 8:30PM"
    },
    {
      "day": "Monday,",
      "hours": "9:30AM to 1PM, 3 to 8:30PM"
    }
  ],
  "reviewsCount": 56
},
{
  "title": "Anding Animal Hospital",
  "totalScore": null,
  "categoryName": "Veterinarijos klinika",
  "address": "No. 17號, Lane 434, Zhongxiao Road, East District, Hsinchu City, Taivanas 300             300新竹市東區忠孝路434巷17號",
  "locatedIn": null,
  "plusCode": "RX3M+53 East District, Hsinchu City, Taivanas",
  "website": "facebook.com",
  "phone": "+886 3 561 1369",
  "temporarilyClosed": false,
  "permanentlyClosed": false,
  "rank": 52,
  "placeId": "ChIJ5WmV9HE2aDQRYz-JphGx-dQ",
  "url": "https://www.google.com/maps/place/Anding+Animal+Hospital/@24.802922,120.9804723,17z/data=!3m1!4b1!4m5!3m4!1s0x34683671f49569e5:0xd4f9b111a6893f63!8m2!3d24.802922!4d120.982661",
  "location": {
    "lat": 24.802922,
    "lng": 120.982661
  },
  "searchString": "新竹縣的動物醫院",
  "openingHours": [
    null,
    null,
    {
      "day": "ketvirtadienis",
      "hours": "(Rudens vidurio šventė),09–11:30,14–16:30,18–20:30,Darbo laikas gali skirtis"
    },
    null,
    null,
    null,
    {
      "day": "pirmadienis,09–11:30,14–16:30,18–20:30.",
      "hours": "Slėpti savaitės darbo laiką"
    }
  ],
  "reviewsCount": 259
},
{
  "title": "中華動物醫院",
  "totalScore": 3.6,
  "categoryName": "Animal hospital",
  "address": "No. 1307號, Zhonghua Road, Toufen City, Miaoli County, Taiwan 351             351苗栗縣頭份市中華路1307號",
  "locatedIn": null,
  "plusCode": "MWR7+VH Toufen City, Miaoli County, Taiwan",
  "website": null,
  "phone": "+886 3 769 0020",
  "temporarilyClosed": false,
  "permanentlyClosed": false,
  "rank": 60,
  "placeId": "ChIJ3T7UpL5MaDQR1j912GBERoM",
  "url": "https://www.google.com/maps/place/%E4%B8%AD%E8%8F%AF%E5%8B%95%E7%89%A9%E9%86%AB%E9%99%A2/@24.6922411,120.9117673,17z/data=!3m1!4b1!4m5!3m4!1s0x34684cbea4d43edd:0x83464460d8753fd6!8m2!3d24.6922411!4d120.913956",
  "location": {
    "lat": 24.6922411,
    "lng": 120.913956
  },
  "searchString": "新竹縣的動物醫院",
  "openingHours": [
    {
      "day": "Tuesday,",
      "hours": "9AM to 12PM, 2:30 to 9PM"
    },
    {
      "day": "Wednesday,",
      "hours": "9AM to 12PM, 2:30 to 9PM"
    },
    {
      "day": "Thursday",
      "hours": "(Mid-Autumn Festival), 9AM to 12PM, 2:30 to 9PM, Hours might differ"
    },
    {
      "day": "Friday,",
      "hours": "9AM to 12PM, 2:30 to 9PM"
    },
    {
      "day": "Saturday,",
      "hours": "Closed"
    },
    {
      "day": "Sunday,",
      "hours": "10AM to 12PM, 2:30 to 9PM"
    },
    {
      "day": "Monday,",
      "hours": "9AM to 12PM, 2:30 to 9PM"
    }
  ],
  "reviewsCount": 55
},
{
  "title": "淇寶寶動物醫院",
  "totalScore": null,
  "categoryName": "Veterinarijos klinika",
  "address": "300, Taivanas, Hsinchu City, East District, Section 1, Guangfu Road, 360-22號300             300新竹市東區光復路一段360-22號300",
  "locatedIn": null,
  "plusCode": "Q2M8+GJ East District, Hsinchu City, Taivanas",
  "website": null,
  "phone": "+886 3 563 1093",
  "temporarilyClosed": false,
  "permanentlyClosed": false,
  "rank": 48,
  "placeId": "ChIJtSE4hzw2aDQRS_PdGOifLkg",
  "url": "https://www.google.com/maps/place/%E6%B7%87%E5%AF%B6%E5%AF%B6%E5%8B%95%E7%89%A9%E9%86%AB%E9%99%A2/@24.7838546,121.0143239,17z/data=!3m1!4b1!4m5!3m4!1s0x3468363c873821b5:0x482e9fe818ddf34b!8m2!3d24.7838546!4d121.0165126",
  "location": {
    "lat": 24.7838546,
    "lng": 121.0165126
  },
  "searchString": "新竹縣的動物醫院",
  "openingHours": [
    null,
    null,
    {
      "day": "ketvirtadienis",
      "hours": "(Rudens vidurio šventė),09–21,Darbo laikas gali skirtis"
    },
    null,
    null,
    null,
    {
      "day": "pirmadienis,09–21.",
      "hours": "Slėpti savaitės darbo laiką"
    }
  ],
  "reviewsCount": 155
},
{
  "title": "太僕動物醫院",
  "totalScore": null,
  "categoryName": "Veterinarijos klinika",
  "address": "No. 12號, Lane 392, Zhongxing Road, Longtan District, Taoyuan City, Taivanas 325             325桃園市龍潭區中興路392巷12號",
  "locatedIn": null,
  "plusCode": "V6FJ+FC Longtanas, Taoyuan City, Taivanas",
  "website": null,
  "phone": "+886 3 480 4988",
  "temporarilyClosed": false,
  "permanentlyClosed": false,
  "rank": 54,
  "placeId": "ChIJq5BA-Dw9aDQRLOiYy5KhHZw",
  "url": "https://www.google.com/maps/place/%E5%A4%AA%E5%83%95%E5%8B%95%E7%89%A9%E9%86%AB%E9%99%A2/@24.8737383,121.2288563,17z/data=!3m1!4b1!4m5!3m4!1s0x34683d3cf84090ab:0x9c1da192cb98e82c!8m2!3d24.8737383!4d121.231045",
  "location": {
    "lat": 24.8737383,
    "lng": 121.231045
  },
  "searchString": "新竹縣的動物醫院",
  "reviewsCount": 2
},
{
  "title": "仁愛動物醫院",
  "totalScore": 3.2,
  "categoryName": "Hospital",
  "address": "No. 358號, Ren'ai Road, Zhudong Township, Hsinchu County, Taiwan 310             310新竹縣竹東鎮仁愛路358號",
  "locatedIn": null,
  "plusCode": "P3QR+F8 Zhudong Township, Hsinchu County, Taiwan",
  "website": null,
  "phone": "+886 3 594 0029",
  "temporarilyClosed": false,
  "permanentlyClosed": false,
  "rank": 46,
  "placeId": "ChIJRdSPWO9HaDQRe5p6fGRHsdY",
  "url": "https://www.google.com/maps/place/%E4%BB%81%E6%84%9B%E5%8B%95%E7%89%A9%E9%86%AB%E9%99%A2/@24.7387459,121.0886651,17z/data=!3m1!4b1!4m5!3m4!1s0x346847ef588fd445:0xd6b147647c7a9a7b!8m2!3d24.7387459!4d121.0908538",
  "location": {
    "lat": 24.7387459,
    "lng": 121.0908538
  },
  "searchString": "新竹縣的動物醫院",
  "openingHours": [
    {
      "day": "Tuesday,",
      "hours": "8:30AM to 9PM"
    },
    {
      "day": "Wednesday,",
      "hours": "8:30AM to 9PM"
    },
    {
      "day": "Thursday",
      "hours": "(Mid-Autumn Festival), 8:30AM to 9PM, Hours might differ"
    },
    {
      "day": "Friday,",
      "hours": "8:30AM to 9PM"
    },
    {
      "day": "Saturday,",
      "hours": "8:30AM to 1:30PM"
    },
    {
      "day": "Sunday,",
      "hours": "Closed"
    },
    {
      "day": "Monday,",
      "hours": "8:30AM to 9PM"
    }
  ],
  "reviewsCount": 16
},
{
  "title": "東昇動物醫院",
  "totalScore": null,
  "categoryName": "Veterinarijos klinika",
  "address": "No. 109, Xincheng Road, Yangmei District, Taoyuan City, Taivanas 326             326桃園市楊梅區新成路109號",
  "locatedIn": null,
  "plusCode": "W46W+5Q Jangmėjus, Taoyuan City, Taivanas",
  "website": null,
  "phone": "+886 3 485 0171",
  "temporarilyClosed": false,
  "permanentlyClosed": false,
  "rank": 56,
  "placeId": "ChIJMY0zRjU7aDQR2EvT8HcwI3k",
  "url": "https://www.google.com/maps/place/%E6%9D%B1%E6%98%87%E5%8B%95%E7%89%A9%E9%86%AB%E9%99%A2/@24.9104828,121.1447033,17z/data=!3m1!4b1!4m5!3m4!1s0x34683b3546338d31:0x79233077f0d34bd8!8m2!3d24.9104828!4d121.146892",
  "location": {
    "lat": 24.9104828,
    "lng": 121.146892
  },
  "searchString": "新竹縣的動物醫院",
  "openingHours": [
    null,
    null,
    {
      "day": "ketvirtadienis",
      "hours": "(Rudens vidurio šventė),09–21,Darbo laikas gali skirtis"
    },
    null,
    null,
    null,
    {
      "day": "pirmadienis,09–21.",
      "hours": "Slėpti savaitės darbo laiką"
    }
  ],
  "reviewsCount": 69
},
{
  "title": "協和動物醫院",
  "totalScore": 4.5,
  "categoryName": "Animal hospital",
  "address": "No. 48號, Nanda Road, East District, Hsinchu City, Taiwan 300             300新竹市東區南大路48號",
  "locatedIn": null,
  "plusCode": "RX3H+44 East District, Hsinchu City, Taiwan",
  "website": null,
  "phone": "+886 3 521 5380",
  "temporarilyClosed": false,
  "permanentlyClosed": false,
  "rank": 42,
  "placeId": "ChIJhbQZF901aDQRCV9dGOYwBuA",
  "url": "https://www.google.com/maps/place/%E5%8D%94%E5%92%8C%E5%8B%95%E7%89%A9%E9%86%AB%E9%99%A2/@24.802804,120.9756622,17z/data=!3m1!4b1!4m5!3m4!1s0x346835dd1719b485:0xe00630e6185d5f09!8m2!3d24.802804!4d120.9778509",
  "location": {
    "lat": 24.802804,
    "lng": 120.9778509
  },
  "searchString": "新竹縣的動物醫院",
  "openingHours": [
    {
      "day": "Tuesday,",
      "hours": "9AM to 9PM"
    },
    {
      "day": "Wednesday,",
      "hours": "9AM to 9PM"
    },
    {
      "day": "Thursday",
      "hours": "(Mid-Autumn Festival), 9AM to 9PM, Hours might differ"
    },
    {
      "day": "Friday,",
      "hours": "9AM to 9PM"
    },
    {
      "day": "Saturday,",
      "hours": "9AM to 9PM"
    },
    {
      "day": "Sunday,",
      "hours": "Closed"
    },
    {
      "day": "Monday,",
      "hours": "9AM to 9PM"
    }
  ],
  "reviewsCount": 94
},
{
  "title": "懷生動物醫院",
  "totalScore": 4,
  "categoryName": "Animal hospital",
  "address": "No. 24, Jincheng 1st Road, East District, Hsinchu City, Taiwan 30070             30070新竹市東區金城一路24號",
  "locatedIn": null,
  "plusCode": "Q2V2+FQ East District, Hsinchu City, Taiwan",
  "website": "facebook.com",
  "phone": "+886 3 575 2382",
  "temporarilyClosed": false,
  "permanentlyClosed": false,
  "rank": 49,
  "placeId": "ChIJyfF04hI2aDQRtM64UZ0wtVo",
  "url": "https://www.google.com/maps/place/%E6%87%B7%E7%94%9F%E5%8B%95%E7%89%A9%E9%86%AB%E9%99%A2/@24.793668,120.9997673,17z/data=!3m1!4b1!4m5!3m4!1s0x34683612e274f1c9:0x5ab5309d51b8ceb4!8m2!3d24.793668!4d121.001956",
  "location": {
    "lat": 24.793668,
    "lng": 121.001956
  },
  "searchString": "新竹縣的動物醫院",
  "openingHours": [
    {
      "day": "Tuesday,",
      "hours": "9:30AM to 12PM, 3 to 8:30PM"
    },
    {
      "day": "Wednesday,",
      "hours": "3 to 8:30PM"
    },
    {
      "day": "Thursday",
      "hours": "(Mid-Autumn Festival), 9:30AM to 12PM, 3 to 8:30PM, Hours might differ"
    },
    {
      "day": "Friday,",
      "hours": "9:30AM to 12PM, 3 to 8:30PM"
    },
    {
      "day": "Saturday,",
      "hours": "9:30AM to 1:30PM"
    },
    {
      "day": "Sunday,",
      "hours": "Closed"
    },
    {
      "day": "Monday,",
      "hours": "9:30AM to 12PM, 3 to 8:30PM"
    }
  ],
  "reviewsCount": 26
},
{
  "title": "渤海動物診所",
  "totalScore": 4.8,
  "categoryName": "Animal hospital",
  "address": "No. 4號, Lane 102, Xida Road, East District, Hsinchu City, Taiwan 300             300新竹市東區西大路102巷4號",
  "locatedIn": null,
  "plusCode": "QXWC+H9 East District, Hsinchu City, Taiwan",
  "website": "zh-tw.facebook.com",
  "phone": "+886 3 561 0432",
  "temporarilyClosed": false,
  "permanentlyClosed": false,
  "rank": 53,
  "placeId": "ChIJ23PR3eg1aDQR_BjpltBeWK4",
  "url": "https://www.google.com/maps/place/%E6%B8%A4%E6%B5%B7%E5%8B%95%E7%89%A9%E8%A8%BA%E6%89%80/@24.7964049,120.9687598,17z/data=!3m1!4b1!4m5!3m4!1s0x346835e8ddd173db:0xae585ed096e918fc!8m2!3d24.7964049!4d120.9709485",
  "location": {
    "lat": 24.7964049,
    "lng": 120.9709485
  },
  "searchString": "新竹縣的動物醫院",
  "openingHours": [
    {
      "day": "Tuesday,",
      "hours": "9AM to 12PM, 2:30 to 9PM"
    },
    {
      "day": "Wednesday,",
      "hours": "9AM to 12PM, 2:30 to 9PM"
    },
    {
      "day": "Thursday",
      "hours": "(Mid-Autumn Festival), 9AM to 12PM, 2:30 to 9PM, Hours might differ"
    },
    {
      "day": "Friday,",
      "hours": "9AM to 12PM, 2:30 to 9PM"
    },
    {
      "day": "Saturday,",
      "hours": "9AM to 12PM, 2:30 to 9PM"
    },
    {
      "day": "Sunday,",
      "hours": "Closed"
    },
    {
      "day": "Monday,",
      "hours": "9AM to 12PM, 2:30 to 9PM"
    }
  ],
  "reviewsCount": 26
},
{
  "title": "加賀寵物醫院",
  "totalScore": null,
  "categoryName": "Veterinarijos klinika",
  "address": "No. 613號, Section 2, Zhonghua Rd, East District, Hsinchu City, Taivanas 300             300新竹市東區中華路二段613號",
  "locatedIn": null,
  "plusCode": "QXX8+JR East District, Hsinchu City, Taivanas",
  "website": null,
  "phone": "+886 3 525 4171",
  "temporarilyClosed": false,
  "permanentlyClosed": false,
  "rank": 47,
  "placeId": "ChIJ3_rgc-s1aDQRgsgEJr4PRKk",
  "url": "https://www.google.com/maps/place/%E5%8A%A0%E8%B3%80%E5%AF%B5%E7%89%A9%E9%86%AB%E9%99%A2/@24.799073,120.9649272,17z/data=!3m1!4b1!4m5!3m4!1s0x346835eb73e0fadf:0xa9440fbe2604c882!8m2!3d24.799073!4d120.9671159",
  "location": {
    "lat": 24.799073,
    "lng": 120.9671159
  },
  "searchString": "新竹縣的動物醫院",
  "openingHours": [
    null,
    null,
    {
      "day": "ketvirtadienis",
      "hours": "(Rudens vidurio šventė),09–21,Darbo laikas gali skirtis"
    },
    null,
    null,
    null,
    {
      "day": "pirmadienis,09–21.",
      "hours": "Slėpti savaitės darbo laiką"
    }
  ],
  "reviewsCount": 24
},
{
  "title": "明新動物醫院",
  "totalScore": 4.2,
  "categoryName": "Animal hospital",
  "address": "No. 158-3, Xinxing Road, Xinfeng Township, Hsinchu County, Taiwan 304             304新竹縣新豐鄉新興路158-3號",
  "locatedIn": null,
  "plusCode": "VX9V+7R Xinfeng Township, Hsinchu County, Taiwan",
  "website": null,
  "phone": "+886 3 557 7637      phone4",
  "temporarilyClosed": false,
  "permanentlyClosed": false,
  "rank": 5,
  "placeId": "ChIJ6-m-OVExaDQR3INZ2tU5_0M",
  "url": "https://www.google.com/maps/place/%E6%98%8E%E6%96%B0%E5%8B%95%E7%89%A9%E9%86%AB%E9%99%A2/@24.8682309,120.9924142,17z/data=!3m1!4b1!4m5!3m4!1s0x3468315139bee9eb:0x43ff39d5da5983dc!8m2!3d24.8682309!4d120.9946029",
  "location": {
    "lat": 24.8682309,
    "lng": 120.9946029
  },
  "searchString": "新竹縣的動物醫院",
  "openingHours": [
    {
      "day": "Tuesday,",
      "hours": "9:30AM to 12PM, 2 to 5PM, 5:30 to 8:30PM"
    },
    {
      "day": "Wednesday,",
      "hours": "9:30AM to 12PM, 2 to 5PM, 5:30 to 8:30PM"
    },
    {
      "day": "Thursday",
      "hours": "(Mid-Autumn Festival), 9:30AM to 12PM, 2 to 5PM, 5:30 to 8:30PM, Hours might differ"
    },
    {
      "day": "Friday,",
      "hours": "9:30AM to 12PM, 2 to 5PM, 5:30 to 8:30PM"
    },
    {
      "day": "Saturday,",
      "hours": "9:30AM to 12PM"
    },
    {
      "day": "Sunday,",
      "hours": "Closed"
    },
    {
      "day": "Monday,",
      "hours": "9:30AM to 12PM, 2 to 5PM, 5:30 to 8:30PM"
    }
  ],
  "reviewsCount": 63
},
{
  "title": "人人動物醫院",
  "totalScore": null,
  "categoryName": "Veterinarijos klinika",
  "address": "No. 122號, Beilong Road, Longtan District, Taoyuan City, Taivanas 325             325桃園市龍潭區北龍路122號",
  "locatedIn": null,
  "plusCode": "V687+FJ Longtanas, Taoyuan City, Taivanas",
  "website": "facebook.com",
  "phone": "+886 3 489 5900",
  "temporarilyClosed": false,
  "permanentlyClosed": false,
  "rank": 57,
  "placeId": "ChIJVwkN_uI8aDQRsbBO_6P3Iks",
  "url": "https://www.google.com/maps/place/%E4%BA%BA%E4%BA%BA%E5%8B%95%E7%89%A9%E9%86%AB%E9%99%A2/@24.8661303,121.211875,17z/data=!3m1!4b1!4m5!3m4!1s0x34683ce2fe0d0957:0x4b22f7a3ff4eb0b1!8m2!3d24.8661303!4d121.2140637",
  "location": {
    "lat": 24.8661303,
    "lng": 121.2140637
  },
  "searchString": "新竹縣的動物醫院",
  "openingHours": [
    null,
    null,
    {
      "day": "ketvirtadienis",
      "hours": "(Rudens vidurio šventė),09–21,Darbo laikas gali skirtis"
    },
    null,
    null,
    null,
    {
      "day": "pirmadienis,09–21.",
      "hours": "Slėpti savaitės darbo laiką"
    }
  ],
  "reviewsCount": 284
},
{
  "title": "Cornell Animal Hospital",
  "totalScore": 4.5,
  "categoryName": "Animal hospital",
  "address": "1f, No. 16號, Wuling Road, North District, Hsinchu City, Taiwan 300             1f, No. 16號武陵路北區新竹市300",
  "locatedIn": null,
  "plusCode": "RX87+84 North District, Hsinchu City, Taiwan",
  "website": "facebook.com",
  "phone": "+886 3 534 6161",
  "temporarilyClosed": false,
  "permanentlyClosed": false,
  "rank": 50,
  "placeId": "ChIJa6spgcs1aDQROxirJhXi0cg",
  "url": "https://www.google.com/maps/place/Cornell+Animal+Hospital/@24.8157624,120.9606539,17z/data=!3m1!4b1!4m5!3m4!1s0x346835cb8129ab6b:0xc8d1e21526ab183b!8m2!3d24.8157624!4d120.9628426",
  "location": {
    "lat": 24.8157624,
    "lng": 120.9628426
  },
  "searchString": "新竹縣的動物醫院",
  "openingHours": [
    {
      "day": "Tuesday,",
      "hours": "10:30AM to 12:30PM, 2:30 to 4:30PM, 6 to 8:30PM"
    },
    {
      "day": "Wednesday,",
      "hours": "10:30AM to 12:30PM, 2:30 to 4:30PM, 6 to 8:30PM"
    },
    {
      "day": "Thursday",
      "hours": "(Mid-Autumn Festival), 10:30AM to 12:30PM, 2:30 to 4:30PM, 6 to 8:30PM, Hours might differ"
    },
    {
      "day": "Friday,",
      "hours": "10:30AM to 12:30PM, 2:30 to 4:30PM, 6 to 8:30PM"
    },
    {
      "day": "Saturday,",
      "hours": "10:30AM to 12:30PM, 2:30 to 4:30PM, 6 to 8:30PM"
    },
    {
      "day": "Sunday,",
      "hours": "10:30AM to 12:30PM"
    },
    {
      "day": "Monday,",
      "hours": "10:30AM to 12:30PM, 2:30 to 4:30PM, 6 to 8:30PM"
    }
  ],
  "reviewsCount": 237
},
{
  "title": "全美動物醫院",
  "totalScore": 4.5,
  "categoryName": "Animal hospital",
  "address": "No. 96, Siwei Road, North District, Hsinchu City, Taiwan 300             300新竹市北區四維路96號",
  "locatedIn": null,
  "plusCode": "QXX6+WP North District, Hsinchu City, Taiwan",
  "website": null,
  "phone": "+886 3 526 6284",
  "temporarilyClosed": false,
  "permanentlyClosed": false,
  "rank": 29,
  "placeId": "ChIJVVVVVZI1aDQRdWeChAD6BKw",
  "url": "https://www.google.com/maps/place/%E5%85%A8%E7%BE%8E%E5%8B%95%E7%89%A9%E9%86%AB%E9%99%A2/@24.7998648,120.9596504,17z/data=!3m1!4b1!4m5!3m4!1s0x3468359255555555:0xac04fa0084826775!8m2!3d24.7998648!4d120.9618391",
  "location": {
    "lat": 24.7998648,
    "lng": 120.9618391
  },
  "searchString": "新竹縣的動物醫院",
  "openingHours": [
    {
      "day": "Tuesday,",
      "hours": "9AM to 12PM, 2 to 9PM"
    },
    {
      "day": "Wednesday,",
      "hours": "9AM to 12PM, 2 to 9PM"
    },
    {
      "day": "Thursday",
      "hours": "(Mid-Autumn Festival), 9AM to 12PM, 2 to 9PM, Hours might differ"
    },
    {
      "day": "Friday,",
      "hours": "9AM to 12PM, 2 to 9PM"
    },
    {
      "day": "Saturday,",
      "hours": "9AM to 12PM, 2 to 9PM"
    },
    {
      "day": "Sunday,",
      "hours": "Closed"
    },
    {
      "day": "Monday,",
      "hours": "9AM to 12PM, 2 to 9PM"
    }
  ],
  "reviewsCount": 137
},
{
  "title": "楊梅動物醫院",
  "totalScore": 3.8,
  "categoryName": "Animal hospital",
  "address": "No. 10號, Zhongshan Road, Yangmei District, Taoyuan City, Taiwan 32641             32641桃園市楊梅區中山路10號",
  "locatedIn": null,
  "plusCode": "W44X+XC Yangmei District, Taoyuan City, Taiwan",
  "website": null,
  "phone": null,
  "temporarilyClosed": false,
  "permanentlyClosed": false,
  "rank": 55,
  "placeId": "ChIJp4vpd0o7aDQRH3_mhBUYfYU",
  "url": "https://www.google.com/maps/place/%E6%A5%8A%E6%A2%85%E5%8B%95%E7%89%A9%E9%86%AB%E9%99%A2/@24.907395,121.1463823,17z/data=!3m1!4b1!4m5!3m4!1s0x34683b4a77e98ba7:0x857d181584e67f1f!8m2!3d24.907395!4d121.148571",
  "location": {
    "lat": 24.907395,
    "lng": 121.148571
  },
  "searchString": "新竹縣的動物醫院",
  "openingHours": [
    {
      "day": "Tuesday,",
      "hours": "9AM to 9PM"
    },
    {
      "day": "Wednesday,",
      "hours": "9AM to 9PM"
    },
    {
      "day": "Thursday",
      "hours": "(Mid-Autumn Festival), 9AM to 9PM, Hours might differ"
    },
    {
      "day": "Friday,",
      "hours": "9AM to 9PM"
    },
    {
      "day": "Saturday,",
      "hours": "9AM to 5PM"
    },
    {
      "day": "Sunday,",
      "hours": "Closed"
    },
    {
      "day": "Monday,",
      "hours": "9AM to 9PM"
    }
  ],
  "reviewsCount": 98
},
{
  "title": "梁動物醫院",
  "totalScore": 4.3,
  "categoryName": "Animal hospital",
  "address": "No. 136, Donglong Road, Longtan District, Taoyuan City, Taiwan 325             325桃園市龍潭區東龍路136號",
  "locatedIn": null,
  "plusCode": "V678+22 Longtan District, Taoyuan City, Taiwan",
  "website": null,
  "phone": "+886 3 479 2945",
  "temporarilyClosed": false,
  "permanentlyClosed": false,
  "rank": 58,
  "placeId": "ChIJ6_tNOf08aDQRi8NrpB-Ee4g",
  "url": "https://www.google.com/maps/place/%E6%A2%81%E5%8B%95%E7%89%A9%E9%86%AB%E9%99%A2/@24.8625495,121.2129153,17z/data=!3m1!4b1!4m5!3m4!1s0x34683cfd394dfbeb:0x887b841fa46bc38b!8m2!3d24.8625495!4d121.215104",
  "location": {
    "lat": 24.8625495,
    "lng": 121.215104
  },
  "searchString": "新竹縣的動物醫院",
  "openingHours": [
    {
      "day": "Tuesday,",
      "hours": "9AM to 9PM"
    },
    {
      "day": "Wednesday,",
      "hours": "9AM to 9PM"
    },
    {
      "day": "Thursday",
      "hours": "(Mid-Autumn Festival), 9AM to 9PM, Hours might differ"
    },
    {
      "day": "Friday,",
      "hours": "9AM to 9PM"
    },
    {
      "day": "Saturday,",
      "hours": "9AM to 5PM"
    },
    {
      "day": "Sunday,",
      "hours": "Closed"
    },
    {
      "day": "Monday,",
      "hours": "9AM to 9PM"
    }
  ],
  "reviewsCount": 29
},
{
  "title": "築心動物醫院 急重症微創腫瘤中心",
  "totalScore": null,
  "categoryName": "Veterinarijos klinika",
  "address": "No. 654, Section 1, Jingguo Road, East District, Hsinchu City, Taivanas 300             300新竹市東區經國路一段654號",
  "locatedIn": null,
  "plusCode": "RX7F+RQ East District, Hsinchu City, Taivanas",
  "website": "zhuxin.com.tw",
  "phone": "+886 3 533 8055",
  "temporarilyClosed": false,
  "permanentlyClosed": false,
  "rank": 23,
  "placeId": "ChIJzzoZt881aDQRG7pOjUDFThA",
  "url": "https://www.google.com/maps/place/%E7%AF%89%E5%BF%83%E5%8B%95%E7%89%A9%E9%86%AB%E9%99%A2+%E6%80%A5%E9%87%8D%E7%97%87%E5%BE%AE%E5%89%B5%E8%85%AB%E7%98%A4%E4%B8%AD%E5%BF%83/@24.8145088,120.9722824,17z/data=!3m1!4b1!4m5!3m4!1s0x346835cfb7193acf:0x104ec5408d4eba1b!8m2!3d24.8145088!4d120.9744711",
  "location": {
    "lat": 24.8145088,
    "lng": 120.9744711
  },
  "searchString": "新竹縣的動物醫院",
  "openingHours": [
    null,
    null,
    {
      "day": "ketvirtadienis",
      "hours": "(Rudens vidurio šventė),09–02,Darbo laikas gali skirtis"
    },
    null,
    null,
    null,
    {
      "day": "pirmadienis,09–02.",
      "hours": "Slėpti savaitės darbo laiką"
    }
  ],
  "reviewsCount": 536
},
{
  "title": "信安動物醫院",
  "totalScore": 4.2,
  "categoryName": "Animal hospital",
  "address": "No. 242號, Minquan Road, East District, Hsinchu City, Taiwan 300             300新竹市東區民權路242號",
  "locatedIn": null,
  "plusCode": "RX7C+5G East District, Hsinchu City, Taiwan",
  "website": null,
  "phone": "+886 3 531 8126",
  "temporarilyClosed": false,
  "permanentlyClosed": false,
  "rank": 36,
  "placeId": "ChIJC8HW98U1aDQRi_Sypy9P37k",
  "url": "https://www.google.com/maps/place/%E4%BF%A1%E5%AE%89%E5%8B%95%E7%89%A9%E9%86%AB%E9%99%A2/@24.8129731,120.9691782,17z/data=!3m1!4b1!4m5!3m4!1s0x346835c5f7d6c10b:0xb9df4f2fa7b2f48b!8m2!3d24.8129731!4d120.9713669",
  "location": {
    "lat": 24.8129731,
    "lng": 120.9713669
  },
  "searchString": "新竹縣的動物醫院",
  "openingHours": [
    {
      "day": "Tuesday,",
      "hours": "8 to 11:30AM, 1:30 to 5PM"
    },
    {
      "day": "Wednesday,",
      "hours": "8 to 11:30AM, 1:30 to 5PM"
    },
    {
      "day": "Thursday",
      "hours": "(Mid-Autumn Festival), 8 to 11:30AM, 1:30 to 5PM, Hours might differ"
    },
    {
      "day": "Friday,",
      "hours": "8 to 11:30AM, 1:30 to 5PM"
    },
    {
      "day": "Saturday,",
      "hours": "8 to 11:30AM, 1:30 to 5PM"
    },
    {
      "day": "Sunday,",
      "hours": "Closed"
    },
    {
      "day": "Monday,",
      "hours": "8 to 11:30AM, 1:30 to 5PM"
    }
  ],
  "reviewsCount": 450
},
{
  "title": "全育動物醫院",
  "totalScore": 4.5,
  "categoryName": "Animal hospital",
  "address": "No. 436號, Nanda Road, East District, Hsinchu City, Taiwan 300             300新竹市東區南大路436號",
  "locatedIn": null,
  "plusCode": "QXW9+Q9 East District, Hsinchu City, Taiwan",
  "website": null,
  "phone": "+886 3 561 4316",
  "temporarilyClosed": false,
  "permanentlyClosed": false,
  "rank": 39,
  "placeId": "ChIJWe6enu01aDQR5dBwz6xrR-g",
  "url": "https://www.google.com/maps/place/%E5%85%A8%E8%82%B2%E5%8B%95%E7%89%A9%E9%86%AB%E9%99%A2/@24.7968889,120.9662619,17z/data=!3m1!4b1!4m5!3m4!1s0x346835ed9e9eee59:0xe8476baccf70d0e5!8m2!3d24.7968889!4d120.9684506",
  "location": {
    "lat": 24.7968889,
    "lng": 120.9684506
  },
  "searchString": "新竹縣的動物醫院",
  "openingHours": [
    {
      "day": "Tuesday,",
      "hours": "9:30AM to 12PM, 2:30 to 5PM, 6 to 8:30PM"
    },
    {
      "day": "Wednesday,",
      "hours": "9:30AM to 12PM, 2:30 to 5PM, 6 to 8:30PM"
    },
    {
      "day": "Thursday",
      "hours": "(Mid-Autumn Festival), 9:30AM to 12PM, 2:30 to 5PM, 6 to 8:30PM, Hours might differ"
    },
    {
      "day": "Friday,",
      "hours": "9:30AM to 12PM, 2:30 to 5PM, 6 to 8:30PM"
    },
    {
      "day": "Saturday,",
      "hours": "9:30AM to 12PM, 2:30 to 5PM"
    },
    {
      "day": "Sunday,",
      "hours": "Closed"
    },
    {
      "day": "Monday,",
      "hours": "9:30AM to 12PM, 2:30 to 5PM, 6 to 8:30PM"
    }
  ],
  "reviewsCount": 175
},
{
  "title": "全美動物醫院-經國店",
  "totalScore": 4.4,
  "categoryName": "Animal hospital",
  "address": "No. 6, Section 3, Jingguo Road, Xiangshan District, Hsinchu City, Taiwan 300             300新竹市香山區經國路三段6號",
  "locatedIn": null,
  "plusCode": "RX23+5F Xiangshan District, Hsinchu City, Taiwan",
  "website": null,
  "phone": "+886 3 538 9869",
  "temporarilyClosed": false,
  "permanentlyClosed": false,
  "rank": 34,
  "placeId": "ChIJE38Wr5A1aDQRm-ThCG_9SKE",
  "url": "https://www.google.com/maps/place/%E5%85%A8%E7%BE%8E%E5%8B%95%E7%89%A9%E9%86%AB%E9%99%A2-%E7%B6%93%E5%9C%8B%E5%BA%97/@24.8004431,120.9514665,17z/data=!3m1!4b1!4m5!3m4!1s0x34683590af167f13:0xa148fd6f08e1e49b!8m2!3d24.8004431!4d120.9536552",
  "location": {
    "lat": 24.8004431,
    "lng": 120.9536552
  },
  "searchString": "新竹縣的動物醫院",
  "openingHours": [
    {
      "day": "Tuesday,",
      "hours": "10AM to 12PM, 2 to 9PM"
    },
    {
      "day": "Wednesday,",
      "hours": "10AM to 12PM, 2 to 9PM"
    },
    {
      "day": "Thursday",
      "hours": "(Mid-Autumn Festival), 10AM to 12PM, 2 to 9PM, Hours might differ"
    },
    {
      "day": "Friday,",
      "hours": "10AM to 12PM, 2 to 9PM"
    },
    {
      "day": "Saturday,",
      "hours": "10AM to 12PM, 2 to 9PM"
    },
    {
      "day": "Sunday,",
      "hours": "10AM to 12PM, 2 to 9PM"
    },
    {
      "day": "Monday,",
      "hours": "10AM to 12PM, 2 to 9PM"
    }
  ],
  "reviewsCount": 65
},
{
  "title": "中日動物醫院",
  "totalScore": 3.2,
  "categoryName": "Animal hospital",
  "address": "No. 656號, Xida Road, North District, Hsinchu City, Taiwan 300             300新竹市北區西大路656號",
  "locatedIn": null,
  "plusCode": "RX56+89 North District, Hsinchu City, Taiwan",
  "website": "unitevet.com",
  "phone": "+886 3 523 1015",
  "temporarilyClosed": false,
  "permanentlyClosed": false,
  "rank": 40,
  "placeId": "ChIJobuB5b41aDQR1YcrY8nj2b4",
  "url": "https://www.google.com/maps/place/%E4%B8%AD%E6%97%A5%E5%8B%95%E7%89%A9%E9%86%AB%E9%99%A2/@24.8082691,120.9587337,17z/data=!3m1!4b1!4m5!3m4!1s0x346835bee581bba1:0xbed9e3c9632b87d5!8m2!3d24.8082691!4d120.9609224",
  "location": {
    "lat": 24.8082691,
    "lng": 120.9609224
  },
  "searchString": "新竹縣的動物醫院",
  "openingHours": [
    {
      "day": "Tuesday,",
      "hours": "9:30AM to 12PM, 2:30 to 8PM"
    },
    {
      "day": "Wednesday,",
      "hours": "9:30AM to 12PM, 2:30 to 8PM"
    },
    {
      "day": "Thursday",
      "hours": "(Mid-Autumn Festival), 9:30AM to 12PM, 2:30 to 8PM, Hours might differ"
    },
    {
      "day": "Friday,",
      "hours": "9:30AM to 12PM, 2:30 to 8PM"
    },
    {
      "day": "Saturday,",
      "hours": "9:30AM to 12PM, 2:30 to 8PM"
    },
    {
      "day": "Sunday,",
      "hours": "Closed"
    },
    {
      "day": "Monday,",
      "hours": "9:30AM to 12PM, 2:30 to 8PM"
    }
  ],
  "reviewsCount": 34
},
{
  "title": "台大安欣動物醫院",
  "totalScore": 4.3,
  "categoryName": "Animal hospital",
  "address": "No. 25, Dongguang Road, East District, Hsinchu City, Taiwan 300             300新竹市東區東光路25號",
  "locatedIn": null,
  "plusCode": "RX2P+QP East District, Hsinchu City, Taiwan",
  "website": null,
  "phone": "+886 3 575 1317",
  "temporarilyClosed": false,
  "permanentlyClosed": false,
  "rank": 27,
  "placeId": "ChIJAQAAAN81aDQRh6H1M_OUQ2s",
  "url": "https://www.google.com/maps/place/%E5%8F%B0%E5%A4%A7%E5%AE%89%E6%AC%A3%E5%8B%95%E7%89%A9%E9%86%AB%E9%99%A2/@24.8019133,120.9846721,17z/data=!3m1!4b1!4m5!3m4!1s0x346835df00000001:0x6b4394f333f5a187!8m2!3d24.8019133!4d120.9868608",
  "location": {
    "lat": 24.8019133,
    "lng": 120.9868608
  },
  "searchString": "新竹縣的動物醫院",
  "openingHours": [
    {
      "day": "Tuesday,",
      "hours": "9AM to 12PM, 1 to 5PM, 6 to 9PM"
    },
    {
      "day": "Wednesday,",
      "hours": "9AM to 12PM, 1 to 5PM, 6 to 9PM"
    },
    {
      "day": "Thursday",
      "hours": "(Mid-Autumn Festival), 9AM to 12PM, 1 to 5PM, 6 to 9PM, Hours might differ"
    },
    {
      "day": "Friday,",
      "hours": "9AM to 12PM, 1 to 5PM, 6 to 9PM"
    },
    {
      "day": "Saturday,",
      "hours": "9AM to 12PM, 1 to 5PM, 6 to 9PM"
    },
    {
      "day": "Sunday,",
      "hours": "9AM to 12PM, 1 to 5PM"
    },
    {
      "day": "Monday,",
      "hours": "9AM to 12PM, 1 to 5PM, 6 to 9PM"
    }
  ],
  "reviewsCount": 141
},
{
  "title": "仁心寵物醫院",
  "totalScore": null,
  "categoryName": "Veterinarijos klinika",
  "address": "No. 105, Beida Road, North District, Hsinchu City, Taivanas 300             300新竹市北區北大路105號",
  "locatedIn": null,
  "plusCode": "RX69+4J North District, Hsinchu City, Taivanas",
  "website": null,
  "phone": "+886 3 542 9958",
  "temporarilyClosed": false,
  "permanentlyClosed": false,
  "rank": 28,
  "placeId": "ChIJ_2ee7cY1aDQRudXo99B439s",
  "url": "https://www.google.com/maps/place/%E4%BB%81%E5%BF%83%E5%AF%B5%E7%89%A9%E9%86%AB%E9%99%A2/@24.8103282,120.9669268,17z/data=!3m1!4b1!4m5!3m4!1s0x346835c6ed9e67ff:0xdbdf78d0f7e8d5b9!8m2!3d24.8103282!4d120.9691155",
  "location": {
    "lat": 24.8103282,
    "lng": 120.9691155
  },
  "searchString": "新竹縣的動物醫院",
  "openingHours": [
    null,
    null,
    {
      "day": "ketvirtadienis",
      "hours": "(Rudens vidurio šventė),09–12,15–18,19–21,Darbo laikas gali skirtis"
    },
    null,
    null,
    null,
    {
      "day": "pirmadienis,09–12,15–18,19–21.",
      "hours": "Slėpti savaitės darbo laiką"
    }
  ],
  "reviewsCount": 145
},
{
  "title": "朵栗動物醫院",
  "totalScore": null,
  "categoryName": "Veterinarijos klinika",
  "address": "No. 225號, Section 2, Zhongfeng Road, Zhudong Township, Hsinchu County, Taivanas 31052             31052新竹縣竹東鎮中豐路二段225號",
  "locatedIn": null,
  "plusCode": "P3FR+6Q Zhudong Township, Hsinchu County, Taivanas",
  "website": "facebook.com",
  "phone": "+886 3 510 3210",
  "temporarilyClosed": false,
  "permanentlyClosed": false,
  "rank": 21,
  "placeId": "ChIJq38dmz5HaDQRGN4KTMuk5fU",
  "url": "https://www.google.com/maps/place/%E6%9C%B5%E6%A0%97%E5%8B%95%E7%89%A9%E9%86%AB%E9%99%A2/@24.7231184,121.0898045,17z/data=!3m1!4b1!4m5!3m4!1s0x3468473e9b1d7fab:0xf5e5a4cb4c0ade18!8m2!3d24.7231184!4d121.0919932",
  "location": {
    "lat": 24.7231184,
    "lng": 121.0919932
  },
  "searchString": "新竹縣的動物醫院",
  "openingHours": [
    null,
    null,
    {
      "day": "ketvirtadienis",
      "hours": "(Rudens vidurio šventė),09:30–05,Darbo laikas šventinę dieną"
    },
    null,
    null,
    null,
    {
      "day": "pirmadienis,09:30–12,14–17,18–20:30.",
      "hours": "Slėpti savaitės darbo laiką"
    }
  ],
  "reviewsCount": 25
},
{
  "title": "仁德動物醫院",
  "totalScore": 4.7,
  "categoryName": "Animal hospital",
  "address": "No. 220, Beida Road, North District, Hsinchu City, Taiwan 300             300新竹市北區北大路220號",
  "locatedIn": null,
  "plusCode": "RX57+5X North District, Hsinchu City, Taiwan",
  "website": null,
  "phone": "+886 3 525 0313",
  "temporarilyClosed": false,
  "permanentlyClosed": false,
  "rank": 33,
  "placeId": "ChIJpzB2oL81aDQR3hmTJLsVrcA",
  "url": "https://www.google.com/maps/place/%E4%BB%81%E5%BE%B7%E5%8B%95%E7%89%A9%E9%86%AB%E9%99%A2/@24.8079462,120.962703,17z/data=!3m1!4b1!4m5!3m4!1s0x346835bfa07630a7:0xc0ad15bb249319de!8m2!3d24.8079462!4d120.9648917",
  "location": {
    "lat": 24.8079462,
    "lng": 120.9648917
  },
  "searchString": "新竹縣的動物醫院",
  "openingHours": [
    {
      "day": "Tuesday,",
      "hours": "9AM to 9:30PM"
    },
    {
      "day": "Wednesday,",
      "hours": "9AM to 9:30PM"
    },
    {
      "day": "Thursday",
      "hours": "(Mid-Autumn Festival), 9AM to 9:30PM, Hours might differ"
    },
    {
      "day": "Friday,",
      "hours": "9AM to 9:30PM"
    },
    {
      "day": "Saturday,",
      "hours": "9AM to 9:30PM"
    },
    {
      "day": "Sunday,",
      "hours": "Closed"
    },
    {
      "day": "Monday,",
      "hours": "9AM to 9:30PM"
    }
  ],
  "reviewsCount": 19
},
{
  "title": "旺鑫動物醫院",
  "totalScore": 4.5,
  "categoryName": "Animal hospital",
  "address": "1樓, No. 23號, Lane 23, Guandong Road, East District, Hsinchu City, Taiwan 300             1樓, No. 23號關東路23巷東區新竹市300",
  "locatedIn": null,
  "plusCode": "Q2MC+3F East District, Hsinchu City, Taiwan",
  "website": "wang.kong.com.tw",
  "phone": "+886 3 577 8558",
  "temporarilyClosed": false,
  "permanentlyClosed": false,
  "rank": 32,
  "placeId": "ChIJn8Yi9To2aDQRKXM5tszbfjY",
  "url": "https://www.google.com/maps/place/%E6%97%BA%E9%91%AB%E5%8B%95%E7%89%A9%E9%86%AB%E9%99%A2/@24.7827081,121.0189621,17z/data=!3m1!4b1!4m5!3m4!1s0x3468363af522c69f:0x367edbccb6397329!8m2!3d24.7827081!4d121.0211508",
  "location": {
    "lat": 24.7827081,
    "lng": 121.0211508
  },
  "searchString": "新竹縣的動物醫院",
  "openingHours": [
    {
      "day": "Tuesday,",
      "hours": "9AM to 12PM, 2:30 to 8:30PM"
    },
    {
      "day": "Wednesday,",
      "hours": "9AM to 12PM, 2:30 to 8:30PM"
    },
    {
      "day": "Thursday",
      "hours": "(Mid-Autumn Festival), 9AM to 12PM, 2:30 to 5PM, Holiday hours"
    },
    {
      "day": "Friday,",
      "hours": "9AM to 12PM, 2:30 to 8:30PM"
    },
    {
      "day": "Saturday,",
      "hours": "9AM to 12PM, 2:30 to 5PM"
    },
    {
      "day": "Sunday,",
      "hours": "Closed"
    },
    {
      "day": "Monday,",
      "hours": "Closed"
    }
  ],
  "reviewsCount": 166
},
{
  "title": "Guanghua Animal Hospital",
  "totalScore": null,
  "categoryName": "Veterinarijos klinika",
  "address": "No. 177, Shuitian Street, North District, Hsinchu City, Taivanas 300             300新竹市北區水田街177號",
  "locatedIn": null,
  "plusCode": "RX89+QP North District, Hsinchu City, Taivanas",
  "website": "kwanhwa.econet.com.tw",
  "phone": "+886 3 543 9840",
  "temporarilyClosed": false,
  "permanentlyClosed": false,
  "rank": 37,
  "placeId": "ChIJ6-s8Ick1aDQR7ZbczKsiZ5Y",
  "url": "https://www.google.com/maps/place/Guanghua+Animal+Hospital/@24.8169263,120.9671404,17z/data=!3m1!4b1!4m5!3m4!1s0x346835c9213cebeb:0x966722abccdc96ed!8m2!3d24.8169263!4d120.9693291",
  "location": {
    "lat": 24.8169263,
    "lng": 120.9693291
  },
  "searchString": "新竹縣的動物醫院",
  "openingHours": [
    null,
    null,
    {
      "day": "ketvirtadienis",
      "hours": "(Rudens vidurio šventė),09–12,13–21,Darbo laikas gali skirtis"
    },
    null,
    null,
    null,
    {
      "day": "pirmadienis,09–12,13–21.",
      "hours": "Slėpti savaitės darbo laiką"
    }
  ],
  "reviewsCount": 155
},
{
  "title": "Jayne Animal Hospital",
  "totalScore": 4.8,
  "categoryName": "Animal hospital",
  "address": "No. 667號, Section 2, Zhonghua Rd, East District, Hsinchu City, Taiwan 300             300新竹市東區中華路二段667號",
  "locatedIn": null,
  "plusCode": "QXX8+9C East District, Hsinchu City, Taiwan",
  "website": "business.site",
  "phone": "+886 3 522 3579",
  "temporarilyClosed": false,
  "permanentlyClosed": false,
  "rank": 26,
  "placeId": "ChIJVVVVVeo1aDQRD_CVuDugVoE",
  "url": "https://www.google.com/maps/place/Jayne+Animal+Hospital/@24.7983785,120.9638847,17z/data=!3m1!4b1!4m5!3m4!1s0x346835ea55555555:0x8156a03bb895f00f!8m2!3d24.7983785!4d120.9660734",
  "location": {
    "lat": 24.7983785,
    "lng": 120.9660734
  },
  "searchString": "新竹縣的動物醫院",
  "openingHours": [
    {
      "day": "Tuesday,",
      "hours": "10AM to 9PM"
    },
    {
      "day": "Wednesday,",
      "hours": "10AM to 9PM"
    },
    {
      "day": "Thursday",
      "hours": "(Mid-Autumn Festival), 10AM to 9PM, Hours might differ"
    },
    {
      "day": "Friday,",
      "hours": "10AM to 9PM"
    },
    {
      "day": "Saturday,",
      "hours": "10AM to 9PM"
    },
    {
      "day": "Sunday,",
      "hours": "Closed"
    },
    {
      "day": "Monday,",
      "hours": "10AM to 9PM"
    }
  ],
  "reviewsCount": 224
},
{
  "title": "新竺動物醫院",
  "totalScore": 4.1,
  "categoryName": "Animal hospital",
  "address": "No. 98, Zhuguang Road, North District, Hsinchu City, Taiwan 300             300新竹市北區竹光路98號",
  "locatedIn": null,
  "plusCode": "RX75+9R North District, Hsinchu City, Taiwan",
  "website": "zh-tw.facebook.com",
  "phone": "+886 3 542 9961",
  "temporarilyClosed": false,
  "permanentlyClosed": false,
  "rank": 24,
  "placeId": "ChIJaVMUhLk1aDQRdDoweG_KqZ8",
  "url": "https://www.google.com/maps/place/%E6%96%B0%E7%AB%BA%E5%8B%95%E7%89%A9%E9%86%AB%E9%99%A2/@24.8134993,120.9573336,17z/data=!3m1!4b1!4m5!3m4!1s0x346835b984145369:0x9fa9ca6f78303a74!8m2!3d24.8134993!4d120.9595223",
  "location": {
    "lat": 24.8134993,
    "lng": 120.9595223
  },
  "searchString": "新竹縣的動物醫院",
  "openingHours": [
    {
      "day": "Tuesday,",
      "hours": "10AM to 3PM, 5 to 9:30PM"
    },
    {
      "day": "Wednesday,",
      "hours": "10AM to 3PM, 5 to 9:30PM"
    },
    {
      "day": "Thursday",
      "hours": "(Mid-Autumn Festival), 10AM to 3PM, 5 to 9:30PM, Hours might differ"
    },
    {
      "day": "Friday,",
      "hours": "10AM to 3PM, 5 to 9:30PM"
    },
    {
      "day": "Saturday,",
      "hours": "10AM to 3PM, 5 to 9:30PM"
    },
    {
      "day": "Sunday,",
      "hours": "5 to 9:30PM"
    },
    {
      "day": "Monday,",
      "hours": "10AM to 3PM, 5 to 9:30PM"
    }
  ],
  "reviewsCount": 204
},
{
  "title": "宏仁動物醫院",
  "totalScore": 4.4,
  "categoryName": "Animal hospital",
  "address": "No. 57, Minfu Street, North District, Hsinchu City, Taiwan 300             300新竹市北區民富街57號",
  "locatedIn": null,
  "plusCode": "RX57+RG North District, Hsinchu City, Taiwan",
  "website": null,
  "phone": "+886 3 525 9308",
  "temporarilyClosed": false,
  "permanentlyClosed": false,
  "rank": 38,
  "placeId": "ChIJqaPlNr81aDQRtIX9mWJhZOg",
  "url": "https://www.google.com/maps/place/%E5%AE%8F%E4%BB%81%E5%8B%95%E7%89%A9%E9%86%AB%E9%99%A2/@24.8095043,120.9616083,17z/data=!3m1!4b1!4m5!3m4!1s0x346835bf36e5a3a9:0xe864616299fd85b4!8m2!3d24.8095043!4d120.963797",
  "location": {
    "lat": 24.8095043,
    "lng": 120.963797
  },
  "searchString": "新竹縣的動物醫院",
  "openingHours": [
    {
      "day": "Tuesday,",
      "hours": "9AM to 9PM"
    },
    {
      "day": "Wednesday,",
      "hours": "9AM to 9PM"
    },
    {
      "day": "Thursday",
      "hours": "(Mid-Autumn Festival), 9AM to 9PM, Hours might differ"
    },
    {
      "day": "Friday,",
      "hours": "9AM to 9PM"
    },
    {
      "day": "Saturday,",
      "hours": "9AM to 9PM"
    },
    {
      "day": "Sunday,",
      "hours": "9AM to 9PM"
    },
    {
      "day": "Monday,",
      "hours": "9AM to 9PM"
    }
  ],
  "reviewsCount": 13
},
{
  "title": "來地喵喵",
  "totalScore": null,
  "categoryName": "Veterinarijos klinika",
  "address": "No. 420號, Section 1, Dongxing Road, Zhubei City, Hsinchu County, Taivanas 30261             30261新竹縣竹北市東興路一段420號",
  "locatedIn": null,
  "plusCode": "R27P+PC Džubėjus, Hsinchu County, Taivanas",
  "website": "ladyicats.tw",
  "phone": "+886 3 550 3206",
  "temporarilyClosed": false,
  "permanentlyClosed": false,
  "rank": 31,
  "placeId": "ChIJs1YUzuk3aDQRYjRExCqhVHo",
  "url": "https://www.google.com/maps/place/%E4%BE%86%E5%9C%B0%E5%96%B5%E5%96%B5/@24.8143462,121.0339287,17z/data=!3m1!4b1!4m5!3m4!1s0x346837e9ce1456b3:0x7a54a12ac4443462!8m2!3d24.8143462!4d121.0361174",
  "location": {
    "lat": 24.8143462,
    "lng": 121.0361174
  },
  "searchString": "新竹縣的動物醫院",
  "openingHours": [
    null,
    null,
    {
      "day": "ketvirtadienis",
      "hours": "(Rudens vidurio šventė),10–20,Darbo laikas gali skirtis"
    },
    null,
    null,
    null,
    {
      "day": "pirmadienis,Uždaryta.",
      "hours": "Slėpti savaitės darbo laiką"
    }
  ],
  "reviewsCount": 31
},
{
  "title": "大福小幸動物醫院",
  "totalScore": 4.6,
  "categoryName": "Animal hospital",
  "address": "No. 6號, Lane 92, Section 3, Jingguo Road, Xiangshan District, Hsinchu City, Taiwan 300             300新竹市香山區經國路三段92巷6號",
  "locatedIn": null,
  "plusCode": "QXX3+42 Xiangshan District, Hsinchu City, Taiwan",
  "website": "facebook.com",
  "phone": "+886 3 530 0175",
  "temporarilyClosed": false,
  "permanentlyClosed": false,
  "rank": 35,
  "placeId": "ChIJz2tAhZo1aDQRNBsZRmQj8Rk",
  "url": "https://www.google.com/maps/place/%E5%A4%A7%E7%A6%8F%E5%B0%8F%E5%B9%B8%E5%8B%95%E7%89%A9%E9%86%AB%E9%99%A2/@24.7978551,120.9503347,17z/data=!3m1!4b1!4m5!3m4!1s0x3468359a85406bcf:0x19f1236446191b34!8m2!3d24.7978551!4d120.9525234",
  "location": {
    "lat": 24.7978551,
    "lng": 120.9525234
  },
  "searchString": "新竹縣的動物醫院",
  "openingHours": [
    {
      "day": "Tuesday,",
      "hours": "10AM to 1PM, 3 to 10PM"
    },
    {
      "day": "Wednesday,",
      "hours": "10AM to 1PM, 3 to 10PM"
    },
    {
      "day": "Thursday",
      "hours": "(Mid-Autumn Festival), 10AM to 1PM, 3 to 10PM, Hours might differ"
    },
    {
      "day": "Friday,",
      "hours": "10AM to 1PM, 3 to 5:30PM"
    },
    {
      "day": "Saturday,",
      "hours": "10AM to 1PM, 3 to 10PM"
    },
    {
      "day": "Sunday,",
      "hours": "10AM to 1PM, 3 to 10PM"
    },
    {
      "day": "Monday,",
      "hours": "10AM to 1PM, 3 to 10PM"
    }
  ],
  "reviewsCount": 144
},
{
  "title": "艾諾動物醫院",
  "totalScore": 4.7,
  "categoryName": "Animal hospital",
  "address": "300, Taiwan, Hsinchu City, East District, 科學園路106號1樓             300新竹市東區科學園路106號1樓",
  "locatedIn": null,
  "plusCode": "Q2M6+M8 East District, Hsinchu City, Taiwan",
  "website": "facebook.com",
  "phone": "+886 3 577 5899",
  "temporarilyClosed": false,
  "permanentlyClosed": false,
  "rank": 30,
  "placeId": "ChIJba1gNlc3aDQRNIs7sGx1pkA",
  "url": "https://www.google.com/maps/place/%E8%89%BE%E8%AB%BE%E5%8B%95%E7%89%A9%E9%86%AB%E9%99%A2/@24.7841455,121.008685,17z/data=!3m1!4b1!4m5!3m4!1s0x346837573660ad6d:0x40a6756cb03b8b34!8m2!3d24.7841455!4d121.0108737",
  "location": {
    "lat": 24.7841455,
    "lng": 121.0108737
  },
  "searchString": "新竹縣的動物醫院",
  "openingHours": [
    {
      "day": "Tuesday,",
      "hours": "9AM to 12PM, 2 to 5PM, 6 to 8PM"
    },
    {
      "day": "Wednesday,",
      "hours": "9AM to 12PM, 2 to 5PM, 6 to 8PM"
    },
    {
      "day": "Thursday",
      "hours": "(Mid-Autumn Festival), 9AM to 12PM, 2 to 5PM, 6 to 8PM, Hours might differ"
    },
    {
      "day": "Friday,",
      "hours": "9AM to 12PM, 2 to 5PM, 6 to 8PM"
    },
    {
      "day": "Saturday,",
      "hours": "9AM to 12PM, 2 to 5PM, 6 to 8PM"
    },
    {
      "day": "Sunday,",
      "hours": "Closed"
    },
    {
      "day": "Monday,",
      "hours": "9AM to 12PM, 2 to 5PM, 6 to 8PM"
    }
  ],
  "reviewsCount": 116
},
{
  "title": "新方伴侶動物醫院",
  "totalScore": 4.7,
  "categoryName": "Animal hospital",
  "address": "No. 84號, Section 1, Guangfu Road, East District, Hsinchu City, Taiwan 300             300新竹市東區光復路一段84號",
  "locatedIn": null,
  "plusCode": "Q2JF+HQ East District, Hsinchu City, Taiwan",
  "website": "facebook.com",
  "phone": "+886 3 666 7657",
  "temporarilyClosed": false,
  "permanentlyClosed": false,
  "rank": 25,
  "placeId": "ChIJ52WMTjA2aDQRSggCALn_GUI",
  "url": "https://www.google.com/maps/place/%E6%96%B0%E6%96%B9%E4%BC%B4%E4%BE%B6%E5%8B%95%E7%89%A9%E9%86%AB%E9%99%A2/@24.7814226,121.0222863,17z/data=!3m1!4b1!4m5!3m4!1s0x346836304e8c65e7:0x4219ffb90002084a!8m2!3d24.7814226!4d121.024475",
  "location": {
    "lat": 24.7814226,
    "lng": 121.024475
  },
  "searchString": "新竹縣的動物醫院",
  "openingHours": [
    {
      "day": "Tuesday,",
      "hours": "8AM to 12PM, 3 to 8PM"
    },
    {
      "day": "Wednesday,",
      "hours": "8AM to 12PM"
    },
    {
      "day": "Thursday",
      "hours": "(Mid-Autumn Festival), 8AM to 12PM, 3 to 8PM, Hours might differ"
    },
    {
      "day": "Friday,",
      "hours": "8AM to 12PM, 3 to 8PM"
    },
    {
      "day": "Saturday,",
      "hours": "8AM to 12PM, 3 to 8PM"
    },
    {
      "day": "Sunday,",
      "hours": "Closed"
    },
    {
      "day": "Monday,",
      "hours": "8AM to 12PM, 3 to 8PM"
    }
  ],
  "reviewsCount": 122
},
{
  "title": "新埔獸醫院",
  "totalScore": null,
  "categoryName": "Veterinarijos klinika",
  "address": "No. 400, Zhongzheng Road, Xinpu Township, Hsinchu County, Taivanas 305             305新竹縣新埔鎮中正路400號",
  "locatedIn": null,
  "plusCode": "R3HH+59 Xinpu Township, Hsinchu County, Taivanas",
  "website": null,
  "phone": "+886 933 980 097",
  "temporarilyClosed": false,
  "permanentlyClosed": false,
  "rank": 20,
  "placeId": "ChIJfTM2jlg3aDQRoZA3Aa7_6kg",
  "url": "https://www.google.com/maps/place/%E6%96%B0%E5%9F%94%E7%8D%B8%E9%86%AB%E9%99%A2/@24.8279379,121.0762309,17z/data=!3m1!4b1!4m5!3m4!1s0x346837588e36337d:0x48eaffae013790a1!8m2!3d24.8279379!4d121.0784196",
  "location": {
    "lat": 24.8279379,
    "lng": 121.0784196
  },
  "searchString": "新竹縣的動物醫院",
  "openingHours": [
    null,
    null,
    {
      "day": "ketvirtadienis",
      "hours": "(Rudens vidurio šventė),08:30–11:30,14–17:30,Darbo laikas gali skirtis"
    },
    null,
    null,
    null,
    {
      "day": "pirmadienis,08:30–11:30,14–17:30.",
      "hours": "Slėpti savaitės darbo laiką"
    }
  ],
  "reviewsCount": 10
},
{
  "title": "昇典動物醫院",
  "totalScore": 3.2,
  "categoryName": "Animal hospital",
  "address": "No. 350, Zhongzheng East Road, Zhubei City, Hsinchu County, Taiwan 302             302新竹縣竹北市中正東路350號",
  "locatedIn": null,
  "plusCode": "R2P6+C6 Zhubei City, Hsinchu County, Taiwan",
  "website": null,
  "phone": "+886 3 551 6477",
  "temporarilyClosed": false,
  "permanentlyClosed": false,
  "rank": 7,
  "placeId": "ChIJjRj4_782aDQRLkqXSUkgBS4",
  "url": "https://www.google.com/maps/place/%E6%98%87%E5%85%B8%E5%8B%95%E7%89%A9%E9%86%AB%E9%99%A2/@24.836115,121.0083793,17z/data=!3m1!4b1!4m5!3m4!1s0x346836bffff8188d:0x2e05204949974a2e!8m2!3d24.836115!4d121.010568",
  "location": {
    "lat": 24.836115,
    "lng": 121.010568
  },
  "searchString": "新竹縣的動物醫院",
  "reviewsCount": 13
},
{
  "title": "Liren Animal Hospital",
  "totalScore": null,
  "categoryName": "Veterinarijos klinika",
  "address": "No. 71號, Section 1, Wenxing Road, Zhubei City, Hsinchu County, Taivanas 302             302新竹縣竹北市文興路一段71號",
  "locatedIn": null,
  "plusCode": "R26G+V8 Džubėjus, Hsinchu County, Taivanas",
  "website": "lirenah.pixnet.net",
  "phone": "+886 3 658 5530",
  "temporarilyClosed": false,
  "permanentlyClosed": false,
  "rank": 1,
  "placeId": "ChIJ9XWpkfg2aDQRIIfUDSra6jg",
  "url": "https://www.google.com/maps/place/Liren+Animal+Hospital/@24.812149,121.0236425,17z/data=!3m1!4b1!4m5!3m4!1s0x346836f891a975f5:0x38eada2a0dd48720!8m2!3d24.812149!4d121.0258312",
  "location": {
    "lat": 24.812149,
    "lng": 121.0258312
  },
  "searchString": "新竹縣的動物醫院",
  "openingHours": [
    null,
    null,
    {
      "day": "ketvirtadienis",
      "hours": "(Rudens vidurio šventė),08–11:30,14–20:30,Darbo laikas gali skirtis"
    },
    null,
    null,
    null,
    {
      "day": "pirmadienis,08–11:30.",
      "hours": "Slėpti savaitės darbo laiką"
    }
  ],
  "reviewsCount": 202
},
{
  "title": "Animal Hospital",
  "totalScore": "",
  "categoryName": "Veterinarian",
  "address": "306, Taiwan, Hsinchu County, Guanxi Township             306新竹縣關西鎮",
  "locatedIn": null,
  "plusCode": "R5FH+6W Guanxi Township, Hsinchu County, Taiwan",
  "website": null,
  "phone": null,
  "temporarilyClosed": false,
  "permanentlyClosed": false,
  "rank": 17,
  "placeId": "ChIJBeSWdwM8aDQRoe4ppT3iGZw",
  "url": "https://www.google.com/maps/place/Animal+Hospital/@24.8230747,121.177562,17z/data=!3m1!4b1!4m5!3m4!1s0x34683c037796e405:0x9c19e23da529eea1!8m2!3d24.8230747!4d121.1797507",
  "location": {
    "lat": 24.8230747,
    "lng": 121.1797507
  },
  "searchString": "新竹縣的動物醫院"
},
{
  "title": "Daqian Animal Hospital",
  "totalScore": 4.6,
  "categoryName": "Animal hospital",
  "address": "No. 128, Chenggong 8th Road, Zhubei City, Hsinchu County, Taiwan 302             302新竹縣竹北市成功八路128號",
  "locatedIn": null,
  "plusCode": "R298+6W Zhubei City, Hsinchu County, Taiwan",
  "website": "facebook.com",
  "phone": "+886 3 668 2529",
  "temporarilyClosed": false,
  "permanentlyClosed": false,
  "rank": 11,
  "placeId": "ChIJoSb9rfY2aDQRmq3ZZ6roxKg",
  "url": "https://www.google.com/maps/place/Daqian+Animal+Hospital/@24.8180467,121.0151697,17z/data=!3m1!4b1!4m5!3m4!1s0x346836f6adfd26a1:0xa8c4e8aa67d9ad9a!8m2!3d24.8180467!4d121.0173584",
  "location": {
    "lat": 24.8180467,
    "lng": 121.0173584
  },
  "searchString": "新竹縣的動物醫院",
  "openingHours": [
    {
      "day": "Tuesday,",
      "hours": "9AM to 12PM, 3 to 6PM, 7 to 9PM"
    },
    {
      "day": "Wednesday,",
      "hours": "9AM to 12PM, 3 to 6PM"
    },
    {
      "day": "Thursday",
      "hours": "(Mid-Autumn Festival), 9AM to 12PM, 3 to 6PM, 7 to 9PM, Hours might differ"
    },
    {
      "day": "Friday,",
      "hours": "9AM to 12PM, 3 to 6PM, 7 to 9PM"
    },
    {
      "day": "Saturday,",
      "hours": "9AM to 12PM, 3 to 6PM"
    },
    {
      "day": "Sunday,",
      "hours": "Closed"
    },
    {
      "day": "Monday,",
      "hours": "9AM to 12PM, 3 to 6PM, 7 to 9PM"
    }
  ],
  "reviewsCount": 63
},
{
  "title": "東沅動物醫院",
  "totalScore": null,
  "categoryName": "Veterinarijos klinika",
  "address": "No. 212號, Zhongshan East Road, Guanxi Township, Hsinchu County, Taivanas 306             306新竹縣關西鎮中山東路212號",
  "locatedIn": null,
  "plusCode": "Q5RH+GH Guanxi Township, Hsinchu County, Taivanas",
  "website": null,
  "phone": "+886 3 587 8878",
  "temporarilyClosed": false,
  "permanentlyClosed": false,
  "rank": 12,
  "placeId": "ChIJqb7n2M4-aDQRCo63w9J9QkA",
  "url": "https://www.google.com/maps/place/%E6%9D%B1%E6%B2%85%E5%8B%95%E7%89%A9%E9%86%AB%E9%99%A2/@24.7912544,121.1767781,17z/data=!3m1!4b1!4m5!3m4!1s0x34683eced8e7bea9:0x40427dd2c3b78e0a!8m2!3d24.7912544!4d121.1789668",
  "location": {
    "lat": 24.7912544,
    "lng": 121.1789668
  },
  "searchString": "新竹縣的動物醫院",
  "openingHours": [
    null,
    null,
    {
      "day": "ketvirtadienis",
      "hours": "(Rudens vidurio šventė),09–20,Darbo laikas gali skirtis"
    },
    null,
    null,
    null,
    {
      "day": "pirmadienis,09–20.",
      "hours": "Slėpti savaitės darbo laiką"
    }
  ],
  "reviewsCount": 37
},
{
  "title": "濟聖犬貓醫院",
  "totalScore": 3.7,
  "categoryName": "Animal hospital",
  "address": "No. 328號, Section 2, Dongning Road, Zhudong Township, Hsinchu County, Taiwan 310             310新竹縣竹東鎮東寧路二段328號",
  "locatedIn": null,
  "plusCode": "P3PQ+GF Zhudong Township, Hsinchu County, Taiwan",
  "website": null,
  "phone": "+886 3 595 7888",
  "temporarilyClosed": false,
  "permanentlyClosed": false,
  "rank": 16,
  "placeId": "ChIJR-L7T-ZHaDQR71_X3ZfLObw",
  "url": "https://www.google.com/maps/place/%E6%BF%9F%E8%81%96%E7%8A%AC%E8%B2%93%E9%86%AB%E9%99%A2/@24.736309,121.0864484,17z/data=!3m1!4b1!4m5!3m4!1s0x346847e64ffbe247:0xbc39cb97ddd75fef!8m2!3d24.736309!4d121.0886371",
  "location": {
    "lat": 24.736309,
    "lng": 121.0886371
  },
  "searchString": "新竹縣的動物醫院",
  "openingHours": [
    {
      "day": "Tuesday,",
      "hours": "9AM to 8:30PM"
    },
    {
      "day": "Wednesday,",
      "hours": "9AM to 8:30PM"
    },
    {
      "day": "Thursday",
      "hours": "(Mid-Autumn Festival), 9AM to 8:30PM, Holiday hours"
    },
    {
      "day": "Friday,",
      "hours": "9AM to 8:30PM"
    },
    {
      "day": "Saturday,",
      "hours": "9AM to 8:30PM"
    },
    {
      "day": "Sunday,",
      "hours": "Closed"
    },
    {
      "day": "Monday,",
      "hours": "9AM to 8:30PM"
    }
  ],
  "reviewsCount": 30
},
{
  "title": "傑昇動物醫院",
  "totalScore": null,
  "categoryName": "Veterinarijos klinika",
  "address": "號, No. 189, Section 1, Zhongxing Road, Zhudong Township, Hsinchu County, Taivanas 310             號, No. 189中興路一段竹東鎮新竹縣310",
  "locatedIn": null,
  "plusCode": "Q34C+39 Zhudong Township, Hsinchu County, Taivanas",
  "website": null,
  "phone": "+886 3 582 8643",
  "temporarilyClosed": false,
  "permanentlyClosed": false,
  "rank": 18,
  "placeId": "ChIJy7y5qQNIaDQRqtogE7fwWeE",
  "url": "https://www.google.com/maps/place/%E5%82%91%E6%98%87%E5%8B%95%E7%89%A9%E9%86%AB%E9%99%A2/@24.7552227,121.0686897,17z/data=!3m1!4b1!4m5!3m4!1s0x34684803a9b9bccb:0xe159f0b71320daaa!8m2!3d24.7552227!4d121.0708784",
  "location": {
    "lat": 24.7552227,
    "lng": 121.0708784
  },
  "searchString": "新竹縣的動物醫院",
  "openingHours": [
    null,
    null,
    {
      "day": "ketvirtadienis",
      "hours": "(Rudens vidurio šventė),10–13,16–21,Darbo laikas gali skirtis"
    },
    null,
    null,
    null,
    {
      "day": "pirmadienis,10–13,16–21.",
      "hours": "Slėpti savaitės darbo laiką"
    }
  ],
  "reviewsCount": 139
},
{
  "title": "升元動物診所",
  "totalScore": 4.6,
  "categoryName": "Animal hospital",
  "address": "No. 318, Zhongzheng East Road, Zhubei City, Hsinchu County, Taiwan 302             302新竹縣竹北市中正東路318號",
  "locatedIn": null,
  "plusCode": "R2P6+6H Zhubei City, Hsinchu County, Taiwan",
  "website": null,
  "phone": "+886 3 555 5570",
  "temporarilyClosed": false,
  "permanentlyClosed": false,
  "rank": 4,
  "placeId": "ChIJEznCpeo2aDQRndxWDBVR34U",
  "url": "https://www.google.com/maps/place/%E5%8D%87%E5%85%83%E5%8B%95%E7%89%A9%E8%A8%BA%E6%89%80/@24.835556,121.0092409,17z/data=!3m1!4b1!4m5!3m4!1s0x346836eaa5c23913:0x85df51150c56dc9d!8m2!3d24.835556!4d121.0114296",
  "location": {
    "lat": 24.835556,
    "lng": 121.0114296
  },
  "searchString": "新竹縣的動物醫院",
  "openingHours": [
    {
      "day": "Tuesday,",
      "hours": "9AM to 12PM, 2 to 9PM"
    },
    {
      "day": "Wednesday,",
      "hours": "9AM to 12PM, 2 to 9PM"
    },
    {
      "day": "Thursday",
      "hours": "(Mid-Autumn Festival), 9AM to 12PM, 2 to 9PM, Hours might differ"
    },
    {
      "day": "Friday,",
      "hours": "9AM to 12PM, 2 to 9PM"
    },
    {
      "day": "Saturday,",
      "hours": "9AM to 12PM, 2 to 9PM"
    },
    {
      "day": "Sunday,",
      "hours": "Closed"
    },
    {
      "day": "Monday,",
      "hours": "9AM to 12PM, 2 to 9PM"
    }
  ],
  "reviewsCount": 286
},
{
  "title": "超群動物醫院",
  "totalScore": null,
  "categoryName": "Veterinarijos klinika",
  "address": "No. 105, Zhongzheng East Road, Zhubei City, Hsinchu County, Taivanas 302             302新竹縣竹北市中正東路105號",
  "locatedIn": null,
  "plusCode": "R2P8+2X Džubėjus, Hsinchu County, Taivanas",
  "website": null,
  "phone": "+886 3 552 9277",
  "temporarilyClosed": false,
  "permanentlyClosed": false,
  "rank": 10,
  "placeId": "ChIJe7YuDMI2aDQRDpeEme9xmaI",
  "url": "https://www.google.com/maps/place/%E8%B6%85%E7%BE%A4%E5%8B%95%E7%89%A9%E9%86%AB%E9%99%A2/@24.8350355,121.0152171,17z/data=!3m1!4b1!4m5!3m4!1s0x346836c20c2eb67b:0xa29971ef9984970e!8m2!3d24.8350355!4d121.0174058",
  "location": {
    "lat": 24.8350355,
    "lng": 121.0174058
  },
  "searchString": "新竹縣的動物醫院",
  "openingHours": [
    null,
    null,
    {
      "day": "ketvirtadienis",
      "hours": "(Rudens vidurio šventė),09:30–12,14–18,19–20:30,Darbo laikas gali skirtis"
    },
    null,
    null,
    null,
    {
      "day": "pirmadienis,09:30–12,14–18,19–20:30.",
      "hours": "Slėpti savaitės darbo laiką"
    }
  ],
  "reviewsCount": 102
},
{
  "title": "Le Bao Animal Hospital",
  "totalScore": null,
  "categoryName": "Veterinarijos klinika",
  "address": "No. 50號, Ziqiang North Road, Zhubei City, Hsinchu County, Taivanas 302             302新竹縣竹北市自強北路50號",
  "locatedIn": null,
  "plusCode": "R2CH+8Q Džubėjus, Hsinchu County, Taivanas",
  "website": "lepaoah.blogspot.tw",
  "phone": "+886 3 550 5050",
  "temporarilyClosed": false,
  "permanentlyClosed": false,
  "rank": 3,
  "placeId": "ChIJCci-y_w2aDQR9DKCzAycICA",
  "url": "https://www.google.com/maps/place/Le+Bao+Animal+Hospital/@24.8208575,121.0272702,17z/data=!3m1!4b1!4m5!3m4!1s0x346836fccbbec809:0x20209c0ccc8232f4!8m2!3d24.8208575!4d121.0294589",
  "location": {
    "lat": 24.8208575,
    "lng": 121.0294589
  },
  "searchString": "新竹縣的動物醫院",
  "openingHours": [
    null,
    null,
    {
      "day": "ketvirtadienis",
      "hours": "(Rudens vidurio šventė),09–11:30,14:30–17,Darbo laikas gali skirtis"
    },
    null,
    null,
    null,
    {
      "day": "pirmadienis,09–11:30,14:30–17:30,18–20.",
      "hours": "Slėpti savaitės darbo laiką"
    }
  ],
  "reviewsCount": 82
},
{
  "title": "Yuan Yuan Animal Clinic",
  "totalScore": 4.7,
  "categoryName": "Animal hospital",
  "address": "No. 295, Xinzhuang Road, Xinfeng Township, Hsinchu County, Taiwan 304             304新竹縣新豐鄉新庄路295號",
  "locatedIn": null,
  "plusCode": "WX3P+F2 Xinfeng Township, Hsinchu County, Taiwan",
  "website": "facebook.com",
  "phone": "+886 3 559 6070",
  "temporarilyClosed": false,
  "permanentlyClosed": false,
  "rank": 2,
  "placeId": "ChIJM6QOA9UzaDQR3uSZLbWlUoc",
  "url": "https://www.google.com/maps/place/Yuan+Yuan+Animal+Clinic/@24.903725,120.9828203,17z/data=!3m1!4b1!4m5!3m4!1s0x346833d5030ea433:0x8752a5b52d99e4de!8m2!3d24.903725!4d120.985009",
  "location": {
    "lat": 24.903725,
    "lng": 120.985009
  },
  "searchString": "新竹縣的動物醫院",
  "openingHours": [
    {
      "day": "Tuesday,",
      "hours": "9AM to 12PM, 2 to 9PM"
    },
    {
      "day": "Wednesday,",
      "hours": "9AM to 12PM, 2 to 9PM"
    },
    {
      "day": "Thursday",
      "hours": "(Mid-Autumn Festival), 9AM to 12PM, 2 to 9PM, Hours might differ"
    },
    {
      "day": "Friday,",
      "hours": "9AM to 12PM, 2 to 9PM"
    },
    {
      "day": "Saturday,",
      "hours": "9AM to 5PM"
    },
    {
      "day": "Sunday,",
      "hours": "Closed"
    },
    {
      "day": "Monday,",
      "hours": "9AM to 12PM, 2 to 9PM"
    }
  ],
  "reviewsCount": 222
},
{
  "title": "懷恩動物醫院",
  "totalScore": 4.4,
  "categoryName": "Animal hospital",
  "address": "No. 59號, Zhongshan 5th Road, Hukou Township, Hsinchu County, Taiwan 303             303新竹縣湖口鄉中山五路59號",
  "locatedIn": null,
  "plusCode": "V2WQ+CP Hukou Township, Hsinchu County, Taiwan",
  "website": "facebook.com",
  "phone": "+886 3 599 0422",
  "temporarilyClosed": false,
  "permanentlyClosed": false,
  "rank": 14,
  "placeId": "ChIJm1fuw3kxaDQRa_b1oGEfYiY",
  "url": "https://www.google.com/maps/place/%E6%87%B7%E6%81%A9%E5%8B%95%E7%89%A9%E9%86%AB%E9%99%A2/@24.8960009,121.0371188,17z/data=!3m1!4b1!4m5!3m4!1s0x34683179c3ee579b:0x26621f61a0f5f66b!8m2!3d24.8960009!4d121.0393075",
  "location": {
    "lat": 24.8960009,
    "lng": 121.0393075
  },
  "searchString": "新竹縣的動物醫院",
  "openingHours": [
    {
      "day": "Tuesday,",
      "hours": "9 to 11:30AM, 3 to 6PM, 7 to 8:30PM"
    },
    {
      "day": "Wednesday,",
      "hours": "9 to 11:30AM, 3 to 6PM, 7 to 8:30PM"
    },
    {
      "day": "Thursday",
      "hours": "(Mid-Autumn Festival), 9 to 11:30AM, 3 to 6PM, 7 to 8:30PM, Hours might differ"
    },
    {
      "day": "Friday,",
      "hours": "9 to 11:30AM, 3 to 6PM, 7 to 8:30PM"
    },
    {
      "day": "Saturday,",
      "hours": "9 to 11:30AM, 3 to 6PM, 7 to 8:30PM"
    },
    {
      "day": "Sunday,",
      "hours": "9 to 11:30AM, 2 to 4:30PM"
    },
    {
      "day": "Monday,",
      "hours": "9 to 11:30AM, 3 to 6PM, 7 to 8:30PM"
    }
  ],
  "reviewsCount": 25
},
{
  "title": "安和動物醫院",
  "totalScore": null,
  "categoryName": "Veterinarijos klinika",
  "address": "No. 186, Chenggong Road, Hukou Township, Hsinchu County, Taivanas 303             303新竹縣湖口鄉成功路186號",
  "locatedIn": null,
  "plusCode": "W23R+9V Hukou Township, Hsinchu County, Taivanas",
  "website": null,
  "phone": "+886 3 590 8239",
  "temporarilyClosed": false,
  "permanentlyClosed": false,
  "rank": 9,
  "placeId": "ChIJUQSmKlAwaDQR7ziWMYzMGcE",
  "url": "https://www.google.com/maps/place/%E5%AE%89%E5%92%8C%E5%8B%95%E7%89%A9%E9%86%AB%E9%99%A2/@24.903377,121.0399683,17z/data=!3m1!4b1!4m5!3m4!1s0x346830502aa60451:0xc119cc8c319638ef!8m2!3d24.903377!4d121.042157",
  "location": {
    "lat": 24.903377,
    "lng": 121.042157
  },
  "searchString": "新竹縣的動物醫院",
  "openingHours": [
    null,
    null,
    {
      "day": "ketvirtadienis",
      "hours": "(Rudens vidurio šventė),10–20,Darbo laikas gali skirtis"
    },
    null,
    null,
    null,
    {
      "day": "pirmadienis,10–20.",
      "hours": "Slėpti savaitės darbo laiką"
    }
  ],
  "reviewsCount": 82
},
{
  "title": "佳恩動物醫院",
  "totalScore": null,
  "categoryName": "Veterinarijos klinika",
  "address": "No. 168號, Section 1, Jiafengwu Road, Zhubei City, Hsinchu County, Taivanas 302             302新竹縣竹北市嘉豐五路一段168號",
  "locatedIn": null,
  "plusCode": "R27H+7H Džubėjus, Hsinchu County, Taivanas",
  "website": "prestige168.tw",
  "phone": "+886 3 667 3995",
  "temporarilyClosed": false,
  "permanentlyClosed": false,
  "rank": 8,
  "placeId": "ChIJ62qRIP82aDQRTdJHgZhAys0",
  "url": "https://www.google.com/maps/place/%E4%BD%B3%E6%81%A9%E5%8B%95%E7%89%A9%E9%86%AB%E9%99%A2/@24.813156,121.0267806,17z/data=!3m1!4b1!4m5!3m4!1s0x346836ff20916aeb:0xcdca40988147d24d!8m2!3d24.813156!4d121.0289693",
  "location": {
    "lat": 24.813156,
    "lng": 121.0289693
  },
  "searchString": "新竹縣的動物醫院",
  "openingHours": [
    null,
    null,
    {
      "day": "ketvirtadienis",
      "hours": "(Rudens vidurio šventė),09–20,Darbo laikas gali skirtis"
    },
    null,
    null,
    null,
    {
      "day": "pirmadienis,09–20.",
      "hours": "Slėpti savaitės darbo laiką"
    }
  ],
  "reviewsCount": 91
},
{
  "title": "台大慈仁動物醫院",
  "totalScore": null,
  "categoryName": "Veterinarijos klinika",
  "address": "No. 2-1號, Wuling Road, North District, Hsinchu City, Taivanas 300             300新竹市北區武陵路2-1號",
  "locatedIn": null,
  "plusCode": "RX86+3W North District, Hsinchu City, Taivanas",
  "website": "ntucihren.com.tw",
  "phone": "+886 3 533 3931",
  "temporarilyClosed": false,
  "permanentlyClosed": false,
  "rank": 45,
  "placeId": "ChIJ20puh7c1aDQRPPWZBKm_QkM",
  "url": "https://www.google.com/maps/place/%E5%8F%B0%E5%A4%A7%E6%85%88%E4%BB%81%E5%8B%95%E7%89%A9%E9%86%AB%E9%99%A2/@24.8152011,120.9601163,17z/data=!3m1!4b1!4m5!3m4!1s0x346835b7876e4adb:0x4342bfa90499f53c!8m2!3d24.8152011!4d120.962305",
  "location": {
    "lat": 24.8152011,
    "lng": 120.962305
  },
  "searchString": "新竹縣的動物醫院",
  "openingHours": [
    null,
    null,
    {
      "day": "ketvirtadienis",
      "hours": "(Rudens vidurio šventė),10:30–12,14–17:30,18–20:30,Darbo laikas gali skirtis"
    },
    null,
    null,
    null,
    {
      "day": "pirmadienis,10:30–12,14–17:30,18–20:30.",
      "hours": "Slėpti savaitės darbo laiką"
    }
  ],
  "reviewsCount": 339
},
{
  "title": "永康動物醫院",
  "totalScore": null,
  "categoryName": "Veterinarijos klinika",
  "address": "No. 76, Minquan Street, Hukou Township, Hsinchu County, Taivanas 303             303新竹縣湖口鄉民權街76號",
  "locatedIn": null,
  "plusCode": "W23W+FV Hukou Township, Hsinchu County, Taivanas",
  "website": null,
  "phone": "+886 3 590 2239",
  "temporarilyClosed": false,
  "permanentlyClosed": false,
  "rank": 19,
  "placeId": "ChIJxd8dGEUwaDQR9EYKOUew9dM",
  "url": "https://www.google.com/maps/place/%E6%B0%B8%E5%BA%B7%E5%8B%95%E7%89%A9%E9%86%AB%E9%99%A2/@24.9036455,121.0449438,17z/data=!3m1!4b1!4m5!3m4!1s0x34683045181ddfc5:0xd3f5b047390a46f4!8m2!3d24.9036455!4d121.0471325",
  "location": {
    "lat": 24.9036455,
    "lng": 121.0471325
  },
  "searchString": "新竹縣的動物醫院",
  "openingHours": [
    null,
    null,
    {
      "day": "ketvirtadienis",
      "hours": "(Rudens vidurio šventė),09–12,14–21,Darbo laikas gali skirtis"
    },
    null,
    null,
    null,
    {
      "day": "pirmadienis,09–12,14–21.",
      "hours": "Slėpti savaitės darbo laiką"
    }
  ],
  "reviewsCount": 35
},
{
  "title": "大雄動物醫院",
  "totalScore": 4.2,
  "categoryName": "Animal hospital",
  "address": "No. 257, Huaxing Street, Zhubei City, Hsinchu County, Taiwan 302             302新竹縣竹北市華興街257號",
  "locatedIn": null,
  "plusCode": "R2Q2+66 Zhubei City, Hsinchu County, Taiwan",
  "website": "blog.xuite.net",
  "phone": "+886 3 555 1290",
  "temporarilyClosed": false,
  "permanentlyClosed": false,
  "rank": 15,
  "placeId": "ChIJp_n_3Zc2aDQRxk5PcqfTw2A",
  "url": "https://www.google.com/maps/place/%E5%A4%A7%E9%9B%84%E5%8B%95%E7%89%A9%E9%86%AB%E9%99%A2/@24.838038,120.9983493,17z/data=!3m1!4b1!4m5!3m4!1s0x34683697ddfff9a7:0x60c3d3a7724f4ec6!8m2!3d24.838038!4d121.000538",
  "location": {
    "lat": 24.838038,
    "lng": 121.000538
  },
  "searchString": "新竹縣的動物醫院",
  "openingHours": [
    {
      "day": "Tuesday,",
      "hours": "10AM to 9PM"
    },
    {
      "day": "Wednesday,",
      "hours": "10AM to 9PM"
    },
    {
      "day": "Thursday",
      "hours": "(Mid-Autumn Festival), 10AM to 9PM, Hours might differ"
    },
    {
      "day": "Friday,",
      "hours": "10AM to 9PM"
    },
    {
      "day": "Saturday,",
      "hours": "10AM to 9PM"
    },
    {
      "day": "Sunday,",
      "hours": "Closed"
    },
    {
      "day": "Monday,",
      "hours": "10AM to 9PM"
    }
  ],
  "reviewsCount": 36
},
{
  "title": "謙華動物醫院",
  "totalScore": null,
  "categoryName": "Veterinarijos klinika",
  "address": "No. 226號, Gongyuan Road, East District, Hsinchu City, Taivanas 300             300新竹市東區公園路226號",
  "locatedIn": null,
  "plusCode": "RX3J+J8 East District, Hsinchu City, Taivanas",
  "website": "facebook.com",
  "phone": "+886 3 561 9595",
  "temporarilyClosed": false,
  "permanentlyClosed": false,
  "rank": 44,
  "placeId": "ChIJ12fgBRI1aDQRK8DQARY8MQE",
  "url": "https://www.google.com/maps/place/%E8%AC%99%E8%8F%AF%E5%8B%95%E7%89%A9%E9%86%AB%E9%99%A2/@24.80409,120.9785922,17z/data=!3m1!4b1!4m5!3m4!1s0x3468351205e067d7:0x1313c1601d0c02b!8m2!3d24.80409!4d120.9807809",
  "location": {
    "lat": 24.80409,
    "lng": 120.9807809
  },
  "searchString": "新竹縣的動物醫院",
  "openingHours": [
    null,
    null,
    {
      "day": "ketvirtadienis",
      "hours": "(Rudens vidurio šventė),09–11:30,14–16:30,Darbo laikas šventinę dieną"
    },
    null,
    null,
    null,
    {
      "day": "pirmadienis,09–11:30,14–20:30.",
      "hours": "Slėpti savaitės darbo laiką"
    }
  ],
  "reviewsCount": 238
},
{
  "title": "全美動物醫院-忠孝店",
  "totalScore": null,
  "categoryName": "Veterinarijos klinika",
  "address": "No. 177號, Dongguang Road, East District, Hsinchu City, Taivanas 300             300新竹市東區東光路177號",
  "locatedIn": null,
  "plusCode": "RX4P+8G East District, Hsinchu City, Taivanas",
  "website": "facebook.com",
  "phone": "+886 3 562 0869",
  "temporarilyClosed": false,
  "permanentlyClosed": false,
  "rank": 22,
  "placeId": "ChIJw-seldg1aDQRheaKpkah--o",
  "url": "https://www.google.com/maps/place/%E5%85%A8%E7%BE%8E%E5%8B%95%E7%89%A9%E9%86%AB%E9%99%A2-%E5%BF%A0%E5%AD%9D%E5%BA%97/@24.8058172,120.9841147,17z/data=!3m1!4b1!4m5!3m4!1s0x346835d8951eebc3:0xeafba146a68ae685!8m2!3d24.8058172!4d120.9863034",
  "location": {
    "lat": 24.8058172,
    "lng": 120.9863034
  },
  "searchString": "新竹縣的動物醫院",
  "openingHours": [
    null,
    null,
    {
      "day": "ketvirtadienis",
      "hours": "(Rudens vidurio šventė),10–12,14–21,Darbo laikas gali skirtis"
    },
    null,
    null,
    null,
    {
      "day": "pirmadienis,10–12,14–21.",
      "hours": "Slėpti savaitės darbo laiką"
    }
  ],
  "reviewsCount": 135
},
{
  "title": "紐約動物醫院",
  "totalScore": null,
  "categoryName": "Veterinarijos klinika",
  "address": "1F No. 247號, Minzu Road, East District, Hsinchu City, Taivanas 300             1F No. 247號, 民族路東區新竹市300",
  "locatedIn": null,
  "plusCode": "RX6J+7H East District, Hsinchu City, Taivanas",
  "website": "facebook.com",
  "phone": "+886 3 515 2125",
  "temporarilyClosed": false,
  "permanentlyClosed": false,
  "rank": 41,
  "placeId": "ChIJCxNpB9o1aDQRqwuwgGcNSMw",
  "url": "https://www.google.com/maps/place/%E7%B4%90%E7%B4%84%E5%8B%95%E7%89%A9%E9%86%AB%E9%99%A2/@24.8107336,120.9792372,17z/data=!3m1!4b1!4m5!3m4!1s0x346835da0769130b:0xcc480d6780b00bab!8m2!3d24.8107336!4d120.9814259",
  "location": {
    "lat": 24.8107336,
    "lng": 120.9814259
  },
  "searchString": "新竹縣的動物醫院",
  "openingHours": [
    null,
    null,
    {
      "day": "ketvirtadienis",
      "hours": "(Rudens vidurio šventė),Uždaryta,Darbo laikas šventinę dieną"
    },
    null,
    null,
    null,
    {
      "day": "pirmadienis,09:30–12,14–20:30.",
      "hours": "Slėpti savaitės darbo laiką"
    }
  ],
  "reviewsCount": 99
}]