[{
  "title": "築心動物醫院 急重症微創腫瘤中心",
  "totalScore": 4.3,
  "categoryName": "Animal hospital",
  "address": "No. 654, Section 1, Jingguo Road, East District, Hsinchu City, Taiwan 300             300新竹市東區經國路一段654號",
  "locatedIn": null,
  "plusCode": "RX7F+RQ East District, Hsinchu City, Taiwan",
  "website": "zhuxin.com.tw",
  "phone": "+886 3 533 8055",
  "temporarilyClosed": false,
  "permanentlyClosed": false,
  "rank": 5,
  "placeId": "ChIJzzoZt881aDQRG7pOjUDFThA",
  "url": "https://www.google.com/maps/place/%E7%AF%89%E5%BF%83%E5%8B%95%E7%89%A9%E9%86%AB%E9%99%A2+%E6%80%A5%E9%87%8D%E7%97%87%E5%BE%AE%E5%89%B5%E8%85%AB%E7%98%A4%E4%B8%AD%E5%BF%83/@24.8145088,120.9722824,17z/data=!3m1!4b1!4m5!3m4!1s0x346835cfb7193acf:0x104ec5408d4eba1b!8m2!3d24.8145088!4d120.9744711",
  "location": {
    "lat": 24.8145088,
    "lng": 120.9744711
  },
  "searchString": "新竹市的動物醫院",
  "openingHours": [
    {
      "day": "Tuesday,",
      "hours": "9AM to 12:30PM, 3PM to 2AM"
    },
    {
      "day": "Wednesday,",
      "hours": "9AM to 2AM"
    },
    {
      "day": "Thursday",
      "hours": "(Mid-Autumn Festival), 9AM to 2AM, Hours might differ"
    },
    {
      "day": "Friday,",
      "hours": "9AM to 2AM"
    },
    {
      "day": "Saturday,",
      "hours": "9AM to 2AM"
    },
    {
      "day": "Sunday,",
      "hours": "9AM to 2AM"
    },
    {
      "day": "Monday,",
      "hours": "9AM to 2AM"
    }
  ],
  "reviewsCount": 536
},
{
  "title": "全美動物醫院-忠孝店",
  "totalScore": 4.3,
  "categoryName": "Animal hospital",
  "address": "No. 177號, Dongguang Road, East District, Hsinchu City, Taiwan 300             300新竹市東區東光路177號",
  "locatedIn": null,
  "plusCode": "RX4P+8G East District, Hsinchu City, Taiwan",
  "website": "facebook.com",
  "phone": "+886 3 562 0869      phone6",
  "temporarilyClosed": false,
  "permanentlyClosed": false,
  "rank": 11,
  "placeId": "ChIJw-seldg1aDQRheaKpkah--o",
  "url": "https://www.google.com/maps/place/%E5%85%A8%E7%BE%8E%E5%8B%95%E7%89%A9%E9%86%AB%E9%99%A2-%E5%BF%A0%E5%AD%9D%E5%BA%97/@24.8058172,120.9841147,17z/data=!3m1!4b1!4m5!3m4!1s0x346835d8951eebc3:0xeafba146a68ae685!8m2!3d24.8058172!4d120.9863034",
  "location": {
    "lat": 24.8058172,
    "lng": 120.9863034
  },
  "searchString": "新竹市的動物醫院",
  "openingHours": [
    {
      "day": "Tuesday,",
      "hours": "10AM to 12PM, 2 to 9PM"
    },
    {
      "day": "Wednesday,",
      "hours": "10AM to 12PM, 2 to 9PM"
    },
    {
      "day": "Thursday",
      "hours": "(Mid-Autumn Festival), 10AM to 12PM, 2 to 9PM, Hours might differ"
    },
    {
      "day": "Friday,",
      "hours": "10AM to 12PM, 2 to 9PM"
    },
    {
      "day": "Saturday,",
      "hours": "10AM to 12PM, 2 to 9PM"
    },
    {
      "day": "Sunday,",
      "hours": "10AM to 12PM, 2 to 9PM"
    },
    {
      "day": "Monday,",
      "hours": "10AM to 12PM, 2 to 9PM"
    }
  ],
  "reviewsCount": 135
},
{
  "title": "大福小幸動物醫院",
  "totalScore": 4.6,
  "categoryName": "Animal hospital",
  "address": "No. 6號, Lane 92, Section 3, Jingguo Road, Xiangshan District, Hsinchu City, Taiwan 300             300新竹市香山區經國路三段92巷6號",
  "locatedIn": null,
  "plusCode": "QXX3+42 Xiangshan District, Hsinchu City, Taiwan",
  "website": "facebook.com",
  "phone": "+886 3 530 0175",
  "temporarilyClosed": false,
  "permanentlyClosed": false,
  "rank": 17,
  "placeId": "ChIJz2tAhZo1aDQRNBsZRmQj8Rk",
  "url": "https://www.google.com/maps/place/%E5%A4%A7%E7%A6%8F%E5%B0%8F%E5%B9%B8%E5%8B%95%E7%89%A9%E9%86%AB%E9%99%A2/@24.7978551,120.9503347,17z/data=!3m1!4b1!4m5!3m4!1s0x3468359a85406bcf:0x19f1236446191b34!8m2!3d24.7978551!4d120.9525234",
  "location": {
    "lat": 24.7978551,
    "lng": 120.9525234
  },
  "searchString": "新竹市的動物醫院",
  "openingHours": [
    {
      "day": "Tuesday,",
      "hours": "10AM to 1PM, 3 to 10PM"
    },
    {
      "day": "Wednesday,",
      "hours": "10AM to 1PM, 3 to 10PM"
    },
    {
      "day": "Thursday",
      "hours": "(Mid-Autumn Festival), 10AM to 1PM, 3 to 10PM, Hours might differ"
    },
    {
      "day": "Friday,",
      "hours": "10AM to 1PM, 3 to 5:30PM"
    },
    {
      "day": "Saturday,",
      "hours": "10AM to 1PM, 3 to 10PM"
    },
    {
      "day": "Sunday,",
      "hours": "10AM to 1PM, 3 to 10PM"
    },
    {
      "day": "Monday,",
      "hours": "10AM to 1PM, 3 to 10PM"
    }
  ],
  "reviewsCount": 144
},
{
  "title": "仁心寵物醫院",
  "totalScore": 4.5,
  "categoryName": "Animal hospital",
  "address": "No. 105, Beida Road, North District, Hsinchu City, Taiwan 300             300新竹市北區北大路105號",
  "locatedIn": null,
  "plusCode": "RX69+4J North District, Hsinchu City, Taiwan",
  "website": null,
  "phone": "+886 3 542 9958",
  "temporarilyClosed": false,
  "permanentlyClosed": false,
  "rank": 1,
  "placeId": "ChIJ_2ee7cY1aDQRudXo99B439s",
  "url": "https://www.google.com/maps/place/%E4%BB%81%E5%BF%83%E5%AF%B5%E7%89%A9%E9%86%AB%E9%99%A2/@24.8103282,120.9669268,17z/data=!3m1!4b1!4m5!3m4!1s0x346835c6ed9e67ff:0xdbdf78d0f7e8d5b9!8m2!3d24.8103282!4d120.9691155",
  "location": {
    "lat": 24.8103282,
    "lng": 120.9691155
  },
  "searchString": "新竹市的動物醫院",
  "openingHours": [
    {
      "day": "Tuesday,",
      "hours": "9AM to 12PM, 3 to 6PM, 7 to 9PM"
    },
    {
      "day": "Wednesday,",
      "hours": "9AM to 12PM, 3 to 6PM, 7 to 9PM"
    },
    {
      "day": "Thursday",
      "hours": "(Mid-Autumn Festival), 9AM to 12PM, 3 to 6PM, 7 to 9PM, Hours might differ"
    },
    {
      "day": "Friday,",
      "hours": "9AM to 12PM, 3 to 6PM, 7 to 9PM"
    },
    {
      "day": "Saturday,",
      "hours": "9AM to 12PM, 2 to 6PM"
    },
    {
      "day": "Sunday,",
      "hours": "9AM to 12PM"
    },
    {
      "day": "Monday,",
      "hours": "9AM to 12PM, 3 to 6PM, 7 to 9PM"
    }
  ],
  "reviewsCount": 145
},
{
  "title": "新方伴侶動物醫院",
  "totalScore": 4.7,
  "categoryName": "Animal hospital",
  "address": "No. 84號, Section 1, Guangfu Road, East District, Hsinchu City, Taiwan 300             300新竹市東區光復路一段84號",
  "locatedIn": null,
  "plusCode": "Q2JF+HQ East District, Hsinchu City, Taiwan",
  "website": "facebook.com",
  "phone": "+886 3 666 7657",
  "temporarilyClosed": false,
  "permanentlyClosed": false,
  "rank": 7,
  "placeId": "ChIJ52WMTjA2aDQRSggCALn_GUI",
  "url": "https://www.google.com/maps/place/%E6%96%B0%E6%96%B9%E4%BC%B4%E4%BE%B6%E5%8B%95%E7%89%A9%E9%86%AB%E9%99%A2/@24.7814226,121.0222863,17z/data=!3m1!4b1!4m5!3m4!1s0x346836304e8c65e7:0x4219ffb90002084a!8m2!3d24.7814226!4d121.024475",
  "location": {
    "lat": 24.7814226,
    "lng": 121.024475
  },
  "searchString": "新竹市的動物醫院",
  "openingHours": [
    {
      "day": "Tuesday,",
      "hours": "8AM to 12PM, 3 to 8PM"
    },
    {
      "day": "Wednesday,",
      "hours": "8AM to 12PM"
    },
    {
      "day": "Thursday",
      "hours": "(Mid-Autumn Festival), 8AM to 12PM, 3 to 8PM, Hours might differ"
    },
    {
      "day": "Friday,",
      "hours": "8AM to 12PM, 3 to 8PM"
    },
    {
      "day": "Saturday,",
      "hours": "8AM to 12PM, 3 to 8PM"
    },
    {
      "day": "Sunday,",
      "hours": "Closed"
    },
    {
      "day": "Monday,",
      "hours": "8AM to 12PM, 3 to 8PM"
    }
  ],
  "reviewsCount": 122
},
{
  "title": "新竺動物醫院",
  "totalScore": 4.1,
  "categoryName": "Animal hospital",
  "address": "No. 98, Zhuguang Road, North District, Hsinchu City, Taiwan 300             300新竹市北區竹光路98號",
  "locatedIn": null,
  "plusCode": "RX75+9R North District, Hsinchu City, Taiwan",
  "website": "zh-tw.facebook.com",
  "phone": "+886 3 542 9961",
  "temporarilyClosed": false,
  "permanentlyClosed": false,
  "rank": 3,
  "placeId": "ChIJaVMUhLk1aDQRdDoweG_KqZ8",
  "url": "https://www.google.com/maps/place/%E6%96%B0%E7%AB%BA%E5%8B%95%E7%89%A9%E9%86%AB%E9%99%A2/@24.8134993,120.9573336,17z/data=!3m1!4b1!4m5!3m4!1s0x346835b984145369:0x9fa9ca6f78303a74!8m2!3d24.8134993!4d120.9595223",
  "location": {
    "lat": 24.8134993,
    "lng": 120.9595223
  },
  "searchString": "新竹市的動物醫院",
  "openingHours": [
    {
      "day": "Tuesday,",
      "hours": "10AM to 3PM, 5 to 9:30PM"
    },
    {
      "day": "Wednesday,",
      "hours": "10AM to 3PM, 5 to 9:30PM"
    },
    {
      "day": "Thursday",
      "hours": "(Mid-Autumn Festival), 10AM to 3PM, 5 to 9:30PM, Hours might differ"
    },
    {
      "day": "Friday,",
      "hours": "10AM to 3PM, 5 to 9:30PM"
    },
    {
      "day": "Saturday,",
      "hours": "10AM to 3PM, 5 to 9:30PM"
    },
    {
      "day": "Sunday,",
      "hours": "5 to 9:30PM"
    },
    {
      "day": "Monday,",
      "hours": "10AM to 3PM, 5 to 9:30PM"
    }
  ],
  "reviewsCount": 204
},
{
  "title": "謙華動物醫院",
  "totalScore": 4.5,
  "categoryName": "Animal hospital",
  "address": "No. 226號, Gongyuan Road, East District, Hsinchu City, Taiwan 300             300新竹市東區公園路226號",
  "locatedIn": null,
  "plusCode": "RX3J+J8 East District, Hsinchu City, Taiwan",
  "website": "facebook.com",
  "phone": "+886 3 561 9595      phone7",
  "temporarilyClosed": false,
  "permanentlyClosed": false,
  "rank": 15,
  "placeId": "ChIJ12fgBRI1aDQRK8DQARY8MQE",
  "url": "https://www.google.com/maps/place/%E8%AC%99%E8%8F%AF%E5%8B%95%E7%89%A9%E9%86%AB%E9%99%A2/@24.80409,120.9785922,17z/data=!3m1!4b1!4m5!3m4!1s0x3468351205e067d7:0x1313c1601d0c02b!8m2!3d24.80409!4d120.9807809",
  "location": {
    "lat": 24.80409,
    "lng": 120.9807809
  },
  "searchString": "新竹市的動物醫院",
  "openingHours": [
    {
      "day": "Tuesday,",
      "hours": "9 to 11:30AM, 2 to 8:30PM"
    },
    {
      "day": "Wednesday,",
      "hours": "9 to 11:30AM, 2 to 8:30PM"
    },
    {
      "day": "Thursday",
      "hours": "(Mid-Autumn Festival), 9 to 11:30AM, 2 to 4:30PM, Holiday hours"
    },
    {
      "day": "Friday,",
      "hours": "9 to 11:30AM"
    },
    {
      "day": "Saturday,",
      "hours": "Closed"
    },
    {
      "day": "Sunday,",
      "hours": "9 to 11:30AM, 2 to 4:30PM"
    },
    {
      "day": "Monday,",
      "hours": "9 to 11:30AM, 2 to 8:30PM"
    }
  ],
  "reviewsCount": 238
},
{
  "title": "全育動物醫院",
  "totalScore": 4.5,
  "categoryName": "Animal hospital",
  "address": "No. 436號, Nanda Road, East District, Hsinchu City, Taiwan 300             300新竹市東區南大路436號",
  "locatedIn": null,
  "plusCode": "QXW9+Q9 East District, Hsinchu City, Taiwan",
  "website": null,
  "phone": "+886 3 561 4316",
  "temporarilyClosed": false,
  "permanentlyClosed": false,
  "rank": 2,
  "placeId": "ChIJWe6enu01aDQR5dBwz6xrR-g",
  "url": "https://www.google.com/maps/place/%E5%85%A8%E8%82%B2%E5%8B%95%E7%89%A9%E9%86%AB%E9%99%A2/@24.7968889,120.9662619,17z/data=!3m1!4b1!4m5!3m4!1s0x346835ed9e9eee59:0xe8476baccf70d0e5!8m2!3d24.7968889!4d120.9684506",
  "location": {
    "lat": 24.7968889,
    "lng": 120.9684506
  },
  "searchString": "新竹市的動物醫院",
  "openingHours": [
    {
      "day": "Tuesday,",
      "hours": "9:30AM to 12PM, 2:30 to 5PM, 6 to 8:30PM"
    },
    {
      "day": "Wednesday,",
      "hours": "9:30AM to 12PM, 2:30 to 5PM, 6 to 8:30PM"
    },
    {
      "day": "Thursday",
      "hours": "(Mid-Autumn Festival), 9:30AM to 12PM, 2:30 to 5PM, 6 to 8:30PM, Hours might differ"
    },
    {
      "day": "Friday,",
      "hours": "9:30AM to 12PM, 2:30 to 5PM, 6 to 8:30PM"
    },
    {
      "day": "Saturday,",
      "hours": "9:30AM to 12PM, 2:30 to 5PM"
    },
    {
      "day": "Sunday,",
      "hours": "Closed"
    },
    {
      "day": "Monday,",
      "hours": "9:30AM to 12PM, 2:30 to 5PM, 6 to 8:30PM"
    }
  ],
  "reviewsCount": 175
},
{
  "title": "旺鑫動物醫院",
  "totalScore": 4.5,
  "categoryName": "Animal hospital",
  "address": "1樓, No. 23號, Lane 23, Guandong Road, East District, Hsinchu City, Taiwan 300             1樓, No. 23號關東路23巷東區新竹市300",
  "locatedIn": null,
  "plusCode": "Q2MC+3F East District, Hsinchu City, Taiwan",
  "website": "wang.kong.com.tw",
  "phone": "+886 3 577 8558",
  "temporarilyClosed": false,
  "permanentlyClosed": false,
  "rank": 16,
  "placeId": "ChIJn8Yi9To2aDQRKXM5tszbfjY",
  "url": "https://www.google.com/maps/place/%E6%97%BA%E9%91%AB%E5%8B%95%E7%89%A9%E9%86%AB%E9%99%A2/@24.7827081,121.0189621,17z/data=!3m1!4b1!4m5!3m4!1s0x3468363af522c69f:0x367edbccb6397329!8m2!3d24.7827081!4d121.0211508",
  "location": {
    "lat": 24.7827081,
    "lng": 121.0211508
  },
  "searchString": "新竹市的動物醫院",
  "openingHours": [
    {
      "day": "Tuesday,",
      "hours": "9AM to 12PM, 2:30 to 8:30PM"
    },
    {
      "day": "Wednesday,",
      "hours": "9AM to 12PM, 2:30 to 8:30PM"
    },
    {
      "day": "Thursday",
      "hours": "(Mid-Autumn Festival), 9AM to 12PM, 2:30 to 5PM, Holiday hours"
    },
    {
      "day": "Friday,",
      "hours": "9AM to 12PM, 2:30 to 8:30PM"
    },
    {
      "day": "Saturday,",
      "hours": "9AM to 12PM, 2:30 to 5PM"
    },
    {
      "day": "Sunday,",
      "hours": "Closed"
    },
    {
      "day": "Monday,",
      "hours": "Closed"
    }
  ],
  "reviewsCount": 166
},
{
  "title": "宏仁動物醫院",
  "totalScore": 4.4,
  "categoryName": "Animal hospital",
  "address": "No. 57, Minfu Street, North District, Hsinchu City, Taiwan 300             300新竹市北區民富街57號",
  "locatedIn": null,
  "plusCode": "RX57+RG North District, Hsinchu City, Taiwan",
  "website": null,
  "phone": "+886 3 525 9308",
  "temporarilyClosed": false,
  "permanentlyClosed": false,
  "rank": 19,
  "placeId": "ChIJqaPlNr81aDQRtIX9mWJhZOg",
  "url": "https://www.google.com/maps/place/%E5%AE%8F%E4%BB%81%E5%8B%95%E7%89%A9%E9%86%AB%E9%99%A2/@24.8095043,120.9616083,17z/data=!3m1!4b1!4m5!3m4!1s0x346835bf36e5a3a9:0xe864616299fd85b4!8m2!3d24.8095043!4d120.963797",
  "location": {
    "lat": 24.8095043,
    "lng": 120.963797
  },
  "searchString": "新竹市的動物醫院",
  "openingHours": [
    {
      "day": "Tuesday,",
      "hours": "9AM to 9PM"
    },
    {
      "day": "Wednesday,",
      "hours": "9AM to 9PM"
    },
    {
      "day": "Thursday",
      "hours": "(Mid-Autumn Festival), 9AM to 9PM, Hours might differ"
    },
    {
      "day": "Friday,",
      "hours": "9AM to 9PM"
    },
    {
      "day": "Saturday,",
      "hours": "9AM to 9PM"
    },
    {
      "day": "Sunday,",
      "hours": "9AM to 9PM"
    },
    {
      "day": "Monday,",
      "hours": "9AM to 9PM"
    }
  ],
  "reviewsCount": 13
},
{
  "title": "台大安欣動物醫院",
  "totalScore": 4.3,
  "categoryName": "Animal hospital",
  "address": "No. 25, Dongguang Road, East District, Hsinchu City, Taiwan 300             300新竹市東區東光路25號",
  "locatedIn": null,
  "plusCode": "RX2P+QP East District, Hsinchu City, Taiwan",
  "website": null,
  "phone": "+886 3 575 1317",
  "temporarilyClosed": false,
  "permanentlyClosed": false,
  "rank": 10,
  "placeId": "ChIJAQAAAN81aDQRh6H1M_OUQ2s",
  "url": "https://www.google.com/maps/place/%E5%8F%B0%E5%A4%A7%E5%AE%89%E6%AC%A3%E5%8B%95%E7%89%A9%E9%86%AB%E9%99%A2/@24.8019133,120.9846721,17z/data=!3m1!4b1!4m5!3m4!1s0x346835df00000001:0x6b4394f333f5a187!8m2!3d24.8019133!4d120.9868608",
  "location": {
    "lat": 24.8019133,
    "lng": 120.9868608
  },
  "searchString": "新竹市的動物醫院",
  "openingHours": [
    {
      "day": "Tuesday,",
      "hours": "9AM to 12PM, 1 to 5PM, 6 to 9PM"
    },
    {
      "day": "Wednesday,",
      "hours": "9AM to 12PM, 1 to 5PM, 6 to 9PM"
    },
    {
      "day": "Thursday",
      "hours": "(Mid-Autumn Festival), 9AM to 12PM, 1 to 5PM, 6 to 9PM, Hours might differ"
    },
    {
      "day": "Friday,",
      "hours": "9AM to 12PM, 1 to 5PM, 6 to 9PM"
    },
    {
      "day": "Saturday,",
      "hours": "9AM to 12PM, 1 to 5PM, 6 to 9PM"
    },
    {
      "day": "Sunday,",
      "hours": "9AM to 12PM, 1 to 5PM"
    },
    {
      "day": "Monday,",
      "hours": "9AM to 12PM, 1 to 5PM, 6 to 9PM"
    }
  ],
  "reviewsCount": 141
},
{
  "title": "全美動物醫院",
  "totalScore": 4.5,
  "categoryName": "Animal hospital",
  "address": "No. 96, Siwei Road, North District, Hsinchu City, Taiwan 300             300新竹市北區四維路96號",
  "locatedIn": null,
  "plusCode": "QXX6+WP North District, Hsinchu City, Taiwan",
  "website": null,
  "phone": "+886 3 526 6284",
  "temporarilyClosed": false,
  "permanentlyClosed": false,
  "rank": 8,
  "placeId": "ChIJVVVVVZI1aDQRdWeChAD6BKw",
  "url": "https://www.google.com/maps/place/%E5%85%A8%E7%BE%8E%E5%8B%95%E7%89%A9%E9%86%AB%E9%99%A2/@24.7998648,120.9596504,17z/data=!3m1!4b1!4m5!3m4!1s0x3468359255555555:0xac04fa0084826775!8m2!3d24.7998648!4d120.9618391",
  "location": {
    "lat": 24.7998648,
    "lng": 120.9618391
  },
  "searchString": "新竹市的動物醫院",
  "openingHours": [
    {
      "day": "Tuesday,",
      "hours": "9AM to 12PM, 2 to 9PM"
    },
    {
      "day": "Wednesday,",
      "hours": "9AM to 12PM, 2 to 9PM"
    },
    {
      "day": "Thursday",
      "hours": "(Mid-Autumn Festival), 9AM to 12PM, 2 to 9PM, Hours might differ"
    },
    {
      "day": "Friday,",
      "hours": "9AM to 12PM, 2 to 9PM"
    },
    {
      "day": "Saturday,",
      "hours": "9AM to 12PM, 2 to 9PM"
    },
    {
      "day": "Sunday,",
      "hours": "Closed"
    },
    {
      "day": "Monday,",
      "hours": "9AM to 12PM, 2 to 9PM"
    }
  ],
  "reviewsCount": 137
},
{
  "title": "台大慈仁動物醫院",
  "totalScore": 4.4,
  "categoryName": "Animal hospital",
  "address": "No. 2-1號, Wuling Road, North District, Hsinchu City, Taiwan 300             300新竹市北區武陵路2-1號",
  "locatedIn": null,
  "plusCode": "RX86+3W North District, Hsinchu City, Taiwan",
  "website": "ntucihren.com.tw",
  "phone": "+886 3 533 3931",
  "temporarilyClosed": false,
  "permanentlyClosed": false,
  "rank": 18,
  "placeId": "ChIJ20puh7c1aDQRPPWZBKm_QkM",
  "url": "https://www.google.com/maps/place/%E5%8F%B0%E5%A4%A7%E6%85%88%E4%BB%81%E5%8B%95%E7%89%A9%E9%86%AB%E9%99%A2/@24.8152011,120.9601163,17z/data=!3m1!4b1!4m5!3m4!1s0x346835b7876e4adb:0x4342bfa90499f53c!8m2!3d24.8152011!4d120.962305",
  "location": {
    "lat": 24.8152011,
    "lng": 120.962305
  },
  "searchString": "新竹市的動物醫院",
  "openingHours": [
    {
      "day": "Tuesday,",
      "hours": "10:30AM to 12PM, 2 to 5:30PM, 6 to 8:30PM"
    },
    {
      "day": "Wednesday,",
      "hours": "10:30AM to 12PM, 2 to 5:30PM, 6 to 8:30PM"
    },
    {
      "day": "Thursday",
      "hours": "(Mid-Autumn Festival), 10:30AM to 12PM, 2 to 5:30PM, 6 to 8:30PM, Hours might differ"
    },
    {
      "day": "Friday,",
      "hours": "10:30AM to 12PM, 2 to 5:30PM, 6 to 8:30PM"
    },
    {
      "day": "Saturday,",
      "hours": "10:30AM to 12PM, 2 to 5:30PM, 6 to 8:30PM"
    },
    {
      "day": "Sunday,",
      "hours": "Closed"
    },
    {
      "day": "Monday,",
      "hours": "10:30AM to 12PM, 2 to 5:30PM, 6 to 8:30PM"
    }
  ],
  "reviewsCount": 339
},
{
  "title": "加賀寵物醫院",
  "totalScore": 4.6,
  "categoryName": "Animal hospital",
  "address": "No. 613號, Section 2, Zhonghua Rd, East District, Hsinchu City, Taiwan 300             300新竹市東區中華路二段613號",
  "locatedIn": null,
  "plusCode": "QXX8+JR East District, Hsinchu City, Taiwan",
  "website": null,
  "phone": "+886 3 525 4171",
  "temporarilyClosed": false,
  "permanentlyClosed": false,
  "rank": 6,
  "placeId": "ChIJ3_rgc-s1aDQRgsgEJr4PRKk",
  "url": "https://www.google.com/maps/place/%E5%8A%A0%E8%B3%80%E5%AF%B5%E7%89%A9%E9%86%AB%E9%99%A2/@24.799073,120.9649272,17z/data=!3m1!4b1!4m5!3m4!1s0x346835eb73e0fadf:0xa9440fbe2604c882!8m2!3d24.799073!4d120.9671159",
  "location": {
    "lat": 24.799073,
    "lng": 120.9671159
  },
  "searchString": "新竹市的動物醫院",
  "openingHours": [
    {
      "day": "Tuesday,",
      "hours": "9AM to 9PM"
    },
    {
      "day": "Wednesday,",
      "hours": "9AM to 9PM"
    },
    {
      "day": "Thursday",
      "hours": "(Mid-Autumn Festival), 9AM to 9PM, Hours might differ"
    },
    {
      "day": "Friday,",
      "hours": "9AM to 9PM"
    },
    {
      "day": "Saturday,",
      "hours": "9AM to 9PM"
    },
    {
      "day": "Sunday,",
      "hours": "Closed"
    },
    {
      "day": "Monday,",
      "hours": "9AM to 9PM"
    }
  ],
  "reviewsCount": 24
},
{
  "title": "信安動物醫院",
  "totalScore": 4.2,
  "categoryName": "Animal hospital",
  "address": "No. 242號, Minquan Road, East District, Hsinchu City, Taiwan 300             300新竹市東區民權路242號",
  "locatedIn": null,
  "plusCode": "RX7C+5G East District, Hsinchu City, Taiwan",
  "website": null,
  "phone": "+886 3 531 8126",
  "temporarilyClosed": false,
  "permanentlyClosed": false,
  "rank": 4,
  "placeId": "ChIJC8HW98U1aDQRi_Sypy9P37k",
  "url": "https://www.google.com/maps/place/%E4%BF%A1%E5%AE%89%E5%8B%95%E7%89%A9%E9%86%AB%E9%99%A2/@24.8129731,120.9691782,17z/data=!3m1!4b1!4m5!3m4!1s0x346835c5f7d6c10b:0xb9df4f2fa7b2f48b!8m2!3d24.8129731!4d120.9713669",
  "location": {
    "lat": 24.8129731,
    "lng": 120.9713669
  },
  "searchString": "新竹市的動物醫院",
  "openingHours": [
    {
      "day": "Tuesday,",
      "hours": "8 to 11:30AM, 1:30 to 5PM"
    },
    {
      "day": "Wednesday,",
      "hours": "8 to 11:30AM, 1:30 to 5PM"
    },
    {
      "day": "Thursday",
      "hours": "(Mid-Autumn Festival), 8 to 11:30AM, 1:30 to 5PM, Hours might differ"
    },
    {
      "day": "Friday,",
      "hours": "8 to 11:30AM, 1:30 to 5PM"
    },
    {
      "day": "Saturday,",
      "hours": "8 to 11:30AM, 1:30 to 5PM"
    },
    {
      "day": "Sunday,",
      "hours": "Closed"
    },
    {
      "day": "Monday,",
      "hours": "8 to 11:30AM, 1:30 to 5PM"
    }
  ],
  "reviewsCount": 450
},
{
  "title": "Guanghua Animal Hospital",
  "totalScore": 3.1,
  "categoryName": "Animal hospital",
  "address": "No. 177, Shuitian Street, North District, Hsinchu City, Taiwan 300             300新竹市北區水田街177號",
  "locatedIn": null,
  "plusCode": "RX89+QP North District, Hsinchu City, Taiwan",
  "website": "kwanhwa.econet.com.tw",
  "phone": "+886 3 543 9840",
  "temporarilyClosed": false,
  "permanentlyClosed": false,
  "rank": 12,
  "placeId": "ChIJ6-s8Ick1aDQR7ZbczKsiZ5Y",
  "url": "https://www.google.com/maps/place/Guanghua+Animal+Hospital/@24.8169263,120.9671404,17z/data=!3m1!4b1!4m5!3m4!1s0x346835c9213cebeb:0x966722abccdc96ed!8m2!3d24.8169263!4d120.9693291",
  "location": {
    "lat": 24.8169263,
    "lng": 120.9693291
  },
  "searchString": "新竹市的動物醫院",
  "openingHours": [
    {
      "day": "Tuesday,",
      "hours": "9AM to 12PM, 1 to 9PM"
    },
    {
      "day": "Wednesday,",
      "hours": "9AM to 12PM, 1 to 9PM"
    },
    {
      "day": "Thursday",
      "hours": "(Mid-Autumn Festival), 9AM to 12PM, 1 to 9PM, Hours might differ"
    },
    {
      "day": "Friday,",
      "hours": "9AM to 12PM, 1 to 9PM"
    },
    {
      "day": "Saturday,",
      "hours": "9AM to 12PM, 1 to 9PM"
    },
    {
      "day": "Sunday,",
      "hours": "Closed"
    },
    {
      "day": "Monday,",
      "hours": "9AM to 12PM, 1 to 9PM"
    }
  ],
  "reviewsCount": 155
},
{
  "title": "全美動物醫院-經國店",
  "totalScore": 4.4,
  "categoryName": "Animal hospital",
  "address": "No. 6, Section 3, Jingguo Road, Xiangshan District, Hsinchu City, Taiwan 300             300新竹市香山區經國路三段6號",
  "locatedIn": null,
  "plusCode": "RX23+5F Xiangshan District, Hsinchu City, Taiwan",
  "website": null,
  "phone": "+886 3 538 9869",
  "temporarilyClosed": false,
  "permanentlyClosed": false,
  "rank": 13,
  "placeId": "ChIJE38Wr5A1aDQRm-ThCG_9SKE",
  "url": "https://www.google.com/maps/place/%E5%85%A8%E7%BE%8E%E5%8B%95%E7%89%A9%E9%86%AB%E9%99%A2-%E7%B6%93%E5%9C%8B%E5%BA%97/@24.8004431,120.9514665,17z/data=!3m1!4b1!4m5!3m4!1s0x34683590af167f13:0xa148fd6f08e1e49b!8m2!3d24.8004431!4d120.9536552",
  "location": {
    "lat": 24.8004431,
    "lng": 120.9536552
  },
  "searchString": "新竹市的動物醫院",
  "openingHours": [
    {
      "day": "Tuesday,",
      "hours": "10AM to 12PM, 2 to 9PM"
    },
    {
      "day": "Wednesday,",
      "hours": "10AM to 12PM, 2 to 9PM"
    },
    {
      "day": "Thursday",
      "hours": "(Mid-Autumn Festival), 10AM to 12PM, 2 to 9PM, Hours might differ"
    },
    {
      "day": "Friday,",
      "hours": "10AM to 12PM, 2 to 9PM"
    },
    {
      "day": "Saturday,",
      "hours": "10AM to 12PM, 2 to 9PM"
    },
    {
      "day": "Sunday,",
      "hours": "10AM to 12PM, 2 to 9PM"
    },
    {
      "day": "Monday,",
      "hours": "10AM to 12PM, 2 to 9PM"
    }
  ],
  "reviewsCount": 65
},
{
  "title": "Jayne Animal Hospital",
  "totalScore": 4.8,
  "categoryName": "Animal hospital",
  "address": "No. 667號, Section 2, Zhonghua Rd, East District, Hsinchu City, Taiwan 300             300新竹市東區中華路二段667號",
  "locatedIn": null,
  "plusCode": "QXX8+9C East District, Hsinchu City, Taiwan",
  "website": "business.site",
  "phone": "+886 3 522 3579",
  "temporarilyClosed": false,
  "permanentlyClosed": false,
  "rank": 9,
  "placeId": "ChIJVVVVVeo1aDQRD_CVuDugVoE",
  "url": "https://www.google.com/maps/place/Jayne+Animal+Hospital/@24.7983785,120.9638847,17z/data=!3m1!4b1!4m5!3m4!1s0x346835ea55555555:0x8156a03bb895f00f!8m2!3d24.7983785!4d120.9660734",
  "location": {
    "lat": 24.7983785,
    "lng": 120.9660734
  },
  "searchString": "新竹市的動物醫院",
  "openingHours": [
    {
      "day": "Tuesday,",
      "hours": "10AM to 9PM"
    },
    {
      "day": "Wednesday,",
      "hours": "10AM to 9PM"
    },
    {
      "day": "Thursday",
      "hours": "(Mid-Autumn Festival), 10AM to 9PM, Hours might differ"
    },
    {
      "day": "Friday,",
      "hours": "10AM to 9PM"
    },
    {
      "day": "Saturday,",
      "hours": "10AM to 9PM"
    },
    {
      "day": "Sunday,",
      "hours": "Closed"
    },
    {
      "day": "Monday,",
      "hours": "10AM to 9PM"
    }
  ],
  "reviewsCount": 224
},
{
  "title": "協和動物醫院",
  "totalScore": 4.5,
  "categoryName": "Animal hospital",
  "address": "No. 48號, Nanda Road, East District, Hsinchu City, Taiwan 300             300新竹市東區南大路48號",
  "locatedIn": null,
  "plusCode": "RX3H+44 East District, Hsinchu City, Taiwan",
  "website": null,
  "phone": "+886 3 521 5380",
  "temporarilyClosed": false,
  "permanentlyClosed": false,
  "rank": 14,
  "placeId": "ChIJhbQZF901aDQRCV9dGOYwBuA",
  "url": "https://www.google.com/maps/place/%E5%8D%94%E5%92%8C%E5%8B%95%E7%89%A9%E9%86%AB%E9%99%A2/@24.802804,120.9756622,17z/data=!3m1!4b1!4m5!3m4!1s0x346835dd1719b485:0xe00630e6185d5f09!8m2!3d24.802804!4d120.9778509",
  "location": {
    "lat": 24.802804,
    "lng": 120.9778509
  },
  "searchString": "新竹市的動物醫院",
  "openingHours": [
    {
      "day": "Tuesday,",
      "hours": "9AM to 9PM"
    },
    {
      "day": "Wednesday,",
      "hours": "9AM to 9PM"
    },
    {
      "day": "Thursday",
      "hours": "(Mid-Autumn Festival), 9AM to 9PM, Hours might differ"
    },
    {
      "day": "Friday,",
      "hours": "9AM to 9PM"
    },
    {
      "day": "Saturday,",
      "hours": "9AM to 9PM"
    },
    {
      "day": "Sunday,",
      "hours": "Closed"
    },
    {
      "day": "Monday,",
      "hours": "9AM to 9PM"
    }
  ],
  "reviewsCount": 94
},
{
  "title": "中日動物醫院",
  "totalScore": 3.2,
  "categoryName": "Animal hospital",
  "address": "No. 656號, Xida Road, North District, Hsinchu City, Taiwan 300             300新竹市北區西大路656號",
  "locatedIn": null,
  "plusCode": "RX56+89 North District, Hsinchu City, Taiwan",
  "website": "unitevet.com",
  "phone": "+886 3 523 1015",
  "temporarilyClosed": false,
  "permanentlyClosed": false,
  "rank": 20,
  "placeId": "ChIJobuB5b41aDQR1YcrY8nj2b4",
  "url": "https://www.google.com/maps/place/%E4%B8%AD%E6%97%A5%E5%8B%95%E7%89%A9%E9%86%AB%E9%99%A2/@24.8082691,120.9587337,17z/data=!3m1!4b1!4m5!3m4!1s0x346835bee581bba1:0xbed9e3c9632b87d5!8m2!3d24.8082691!4d120.9609224",
  "location": {
    "lat": 24.8082691,
    "lng": 120.9609224
  },
  "searchString": "新竹市的動物醫院",
  "openingHours": [
    {
      "day": "Tuesday,",
      "hours": "9:30AM to 12PM, 2:30 to 8PM"
    },
    {
      "day": "Wednesday,",
      "hours": "9:30AM to 12PM, 2:30 to 8PM"
    },
    {
      "day": "Thursday",
      "hours": "(Mid-Autumn Festival), 9:30AM to 12PM, 2:30 to 8PM, Hours might differ"
    },
    {
      "day": "Friday,",
      "hours": "9:30AM to 12PM, 2:30 to 8PM"
    },
    {
      "day": "Saturday,",
      "hours": "9:30AM to 12PM, 2:30 to 8PM"
    },
    {
      "day": "Sunday,",
      "hours": "Closed"
    },
    {
      "day": "Monday,",
      "hours": "9:30AM to 12PM, 2:30 to 8PM"
    }
  ],
  "reviewsCount": 34
}]