[{
  "title": "普羅動物醫院",
  "totalScore": 4.3,
  "categoryName": "Animal hospital",
  "address": "No. 15號, Taicheng Road, Taoyuan District, Taoyuan City, Taiwan 330038             330038桃園市桃園區泰成路15號",
  "locatedIn": null,
  "plusCode": "X7RX+FH Taoyuan District, Taoyuan City, Taiwan",
  "website": "facebook.com",
  "phone": "+886 3 378 9900",
  "temporarilyClosed": false,
  "permanentlyClosed": false,
  "rank": 7,
  "placeId": "ChIJ6RHMhBQfaDQRDLeyR2RPGhk",
  "url": "https://www.google.com/maps/place/%E6%99%AE%E7%BE%85%E5%8B%95%E7%89%A9%E9%86%AB%E9%99%A2/@24.99123,121.2967483,17z/data=!3m1!4b1!4m5!3m4!1s0x34681f1484cc11e9:0x191a4f6447b2b70c!8m2!3d24.99123!4d121.298937",
  "location": {
    "lat": 24.99123,
    "lng": 121.298937
  },
  "searchString": "桃園市的動物醫院",
  "openingHours": [
    {
      "day": "Tuesday,",
      "hours": "9:30AM to 12:30PM, 3 to 8:30PM"
    },
    {
      "day": "Wednesday,",
      "hours": "9:30AM to 12:30PM, 3 to 8:30PM"
    },
    {
      "day": "Thursday",
      "hours": "(Mid-Autumn Festival), Closed, Holiday hours"
    },
    {
      "day": "Friday,",
      "hours": "9:30AM to 12:30PM, 3 to 8:30PM"
    },
    {
      "day": "Saturday,",
      "hours": "9:30AM to 12:30PM, 3 to 8:30PM"
    },
    {
      "day": "Sunday,",
      "hours": "Closed"
    },
    {
      "day": "Monday,",
      "hours": "9:30AM to 12:30PM, 3 to 8:30PM"
    }
  ],
  "reviewsCount": 456
},
{
  "title": "元氣動物醫院藝文分院24hr急診重症中心",
  "totalScore": 3.8,
  "categoryName": "Animal hospital",
  "address": "No. 156, Section 1, Zhuangjing Road, Taoyuan District, Taoyuan City, Taiwan 33044             33044桃園市桃園區莊敬路一段156號",
  "locatedIn": null,
  "plusCode": "28G2+63 Taoyuan District, Taoyuan City, Taiwan",
  "website": "genkivet.com.tw",
  "phone": "+886 3 355 3911      phone6",
  "temporarilyClosed": false,
  "permanentlyClosed": false,
  "rank": 9,
  "placeId": "ChIJNbRNyckfaDQRaVGm2PGVVT4",
  "url": "https://www.google.com/maps/place/%E5%85%83%E6%B0%A3%E5%8B%95%E7%89%A9%E9%86%AB%E9%99%A2%E8%97%9D%E6%96%87%E5%88%86%E9%99%A224hr%E6%80%A5%E8%A8%BA%E9%87%8D%E7%97%87%E4%B8%AD%E5%BF%83/@25.0255451,121.2980515,17z/data=!3m1!4b1!4m5!3m4!1s0x34681fc9c94db435:0x3e5595f1d8a65169!8m2!3d25.0255451!4d121.3002402",
  "location": {
    "lat": 25.0255451,
    "lng": 121.3002402
  },
  "searchString": "桃園市的動物醫院",
  "openingHours": [
    {
      "day": "Tuesday,",
      "hours": "Open 24 hours"
    },
    {
      "day": "Wednesday,",
      "hours": "Open 24 hours"
    },
    {
      "day": "Thursday",
      "hours": "(Mid-Autumn Festival), Open 24 hours, Hours might differ"
    },
    {
      "day": "Friday,",
      "hours": "Open 24 hours"
    },
    {
      "day": "Saturday,",
      "hours": "Open 24 hours"
    },
    {
      "day": "Sunday,",
      "hours": "Open 24 hours"
    },
    {
      "day": "Monday,",
      "hours": "Open 24 hours"
    }
  ],
  "reviewsCount": 177
},
{
  "title": "人人動物醫院",
  "totalScore": 4.2,
  "categoryName": "Animal hospital",
  "address": "No. 122號, Beilong Road, Longtan District, Taoyuan City, Taiwan 325             325桃園市龍潭區北龍路122號",
  "locatedIn": null,
  "plusCode": "V687+FJ Longtan District, Taoyuan City, Taiwan",
  "website": "facebook.com",
  "phone": "+886 3 489 5900",
  "temporarilyClosed": false,
  "permanentlyClosed": false,
  "rank": 64,
  "placeId": "ChIJVwkN_uI8aDQRsbBO_6P3Iks",
  "url": "https://www.google.com/maps/place/%E4%BA%BA%E4%BA%BA%E5%8B%95%E7%89%A9%E9%86%AB%E9%99%A2/@24.8661303,121.211875,17z/data=!3m1!4b1!4m5!3m4!1s0x34683ce2fe0d0957:0x4b22f7a3ff4eb0b1!8m2!3d24.8661303!4d121.2140637",
  "location": {
    "lat": 24.8661303,
    "lng": 121.2140637
  },
  "searchString": "桃園市的動物醫院",
  "openingHours": [
    {
      "day": "Tuesday,",
      "hours": "9AM to 9PM"
    },
    {
      "day": "Wednesday,",
      "hours": "9AM to 9PM"
    },
    {
      "day": "Thursday",
      "hours": "(Mid-Autumn Festival), 9AM to 9PM, Hours might differ"
    },
    {
      "day": "Friday,",
      "hours": "9AM to 9PM"
    },
    {
      "day": "Saturday,",
      "hours": "9AM to 9PM"
    },
    {
      "day": "Sunday,",
      "hours": "9AM to 9PM"
    },
    {
      "day": "Monday,",
      "hours": "9AM to 9PM"
    }
  ],
  "reviewsCount": 284
},
{
  "title": "旭安動物醫院",
  "totalScore": 4.8,
  "categoryName": "Animal hospital",
  "address": "No. 125, Zhongshan Road, Yingge District, New Taipei City, Taiwan 239             239新北市鶯歌區中山路125號",
  "locatedIn": null,
  "plusCode": "X84X+QX Yingge District, New Taipei City, Taiwan",
  "website": null,
  "phone": "+886 2 2679 5662",
  "temporarilyClosed": false,
  "permanentlyClosed": false,
  "rank": 126,
  "placeId": "ChIJ9blcH6keaDQRPoEPHf04XTY",
  "url": "https://www.google.com/maps/place/%E6%97%AD%E5%AE%89%E5%8B%95%E7%89%A9%E9%86%AB%E9%99%A2/@24.9568989,121.3477273,17z/data=!3m1!4b1!4m5!3m4!1s0x34681ea91f5cb9f5:0x365d38fd1d0f813e!8m2!3d24.9568989!4d121.349916",
  "location": {
    "lat": 24.9568989,
    "lng": 121.349916
  },
  "searchString": "桃園市的動物醫院",
  "openingHours": [
    {
      "day": "Tuesday,",
      "hours": "9AM to 8PM"
    },
    {
      "day": "Wednesday,",
      "hours": "9AM to 8PM"
    },
    {
      "day": "Thursday",
      "hours": "(Mid-Autumn Festival), 9AM to 8PM, Hours might differ"
    },
    {
      "day": "Friday,",
      "hours": "9AM to 8PM"
    },
    {
      "day": "Saturday,",
      "hours": "9AM to 7PM"
    },
    {
      "day": "Sunday,",
      "hours": "Closed"
    },
    {
      "day": "Monday,",
      "hours": "9AM to 8PM"
    }
  ],
  "reviewsCount": 177
},
{
  "title": "中日動物醫院",
  "totalScore": 3.7,
  "categoryName": "Veterinarian",
  "address": "No. 2號, Section 3, Zhongshan Road, Zhonghe District, New Taipei City, Taiwan 235             235新北市中和區中山路三段2號",
  "locatedIn": null,
  "plusCode": "2F4H+FW Zhonghe District, New Taipei City, Taiwan",
  "website": null,
  "phone": "+886 2 2226 3639",
  "temporarilyClosed": false,
  "permanentlyClosed": false,
  "rank": 147,
  "placeId": "ChIJDVNPYkKpQjQREYuwRWzYaJI",
  "url": "https://www.google.com/maps/place/%E4%B8%AD%E6%97%A5%E5%8B%95%E7%89%A9%E9%86%AB%E9%99%A2/@25.0062213,121.4776039,17z/data=!3m1!4b1!4m5!3m4!1s0x3442a942624f530d:0x9268d86c45b08b11!8m2!3d25.0062213!4d121.4797926",
  "location": {
    "lat": 25.0062213,
    "lng": 121.4797926
  },
  "searchString": "桃園市的動物醫院",
  "openingHours": [
    {
      "day": "Tuesday,",
      "hours": "Open 24 hours"
    },
    {
      "day": "Wednesday,",
      "hours": "Open 24 hours"
    },
    {
      "day": "Thursday",
      "hours": "(Mid-Autumn Festival), Open 24 hours, Hours might differ"
    },
    {
      "day": "Friday,",
      "hours": "Open 24 hours"
    },
    {
      "day": "Saturday,",
      "hours": "Open 24 hours"
    },
    {
      "day": "Sunday,",
      "hours": "Open 24 hours"
    },
    {
      "day": "Monday,",
      "hours": "Open 24 hours"
    }
  ],
  "reviewsCount": 44
},
{
  "title": "愛貓園動物醫院 | 2F小動物二館",
  "totalScore": 4.1,
  "categoryName": "Animal hospital",
  "address": "106, Taiwan, Taipei City, Da’an District, Section 2, Keelung Rd, 124號二館2F(02)27351595             106台北市大安區基隆路二段124號二館2F(02)27351595",
  "locatedIn": null,
  "plusCode": "2HH4+HP Da’an District, Taipei City, Taiwan",
  "website": "lovecatvet.com",
  "phone": "+886 2 2739 2966",
  "temporarilyClosed": false,
  "permanentlyClosed": false,
  "rank": 144,
  "placeId": "ChIJccHNJ8urQjQRi5qqyXT2FHg",
  "url": "https://www.google.com/maps/place/%E6%84%9B%E8%B2%93%E5%9C%92%E5%8B%95%E7%89%A9%E9%86%AB%E9%99%A2+%7C+2F%E5%B0%8F%E5%8B%95%E7%89%A9%E4%BA%8C%E9%A4%A8/@25.028914,121.5546442,17z/data=!3m1!4b1!4m5!3m4!1s0x3442abcb27cdc171:0x7814f674c9aa9a8b!8m2!3d25.028914!4d121.5568329",
  "location": {
    "lat": 25.028914,
    "lng": 121.5568329
  },
  "searchString": "桃園市的動物醫院",
  "openingHours": [
    {
      "day": "Tuesday,",
      "hours": "10:30AM to 1AM"
    },
    {
      "day": "Wednesday,",
      "hours": "10:30AM to 1AM"
    },
    {
      "day": "Thursday",
      "hours": "(Mid-Autumn Festival), 10:30AM to 1AM, Hours might differ"
    },
    {
      "day": "Friday,",
      "hours": "10:30AM to 1AM"
    },
    {
      "day": "Saturday,",
      "hours": "10:30AM to 1AM"
    },
    {
      "day": "Sunday,",
      "hours": "10:30AM to 1AM"
    },
    {
      "day": "Monday,",
      "hours": "10:30AM to 1AM"
    }
  ],
  "reviewsCount": 317
},
{
  "title": "Lake Animal Hospital",
  "totalScore": 4.7,
  "categoryName": "Animal hospital",
  "address": "No. 631號, Daye Road, Beitou District, Taipei City, Taiwan 112             112台北市北投區大業路631號",
  "locatedIn": null,
  "plusCode": "4FPX+V9 Beitou District, Taipei City, Taiwan",
  "website": "zh-tw.facebook.com",
  "phone": "+886 2 2896 6079",
  "temporarilyClosed": false,
  "permanentlyClosed": false,
  "rank": 141,
  "placeId": "ChIJ6ejGfDipQjQR_BcGd8IowGI",
  "url": "https://www.google.com/maps/place/Lake+Animal+Hospital/@25.1371364,121.4962979,17z/data=!3m1!4b1!4m5!3m4!1s0x3442a9387cc6e8e9:0x62c028c2770617fc!8m2!3d25.1371364!4d121.4984866",
  "location": {
    "lat": 25.1371364,
    "lng": 121.4984866
  },
  "searchString": "桃園市的動物醫院",
  "openingHours": [
    {
      "day": "Tuesday,",
      "hours": "10:30AM to 12:30PM, 1:30 to 5PM, 6 to 9PM"
    },
    {
      "day": "Wednesday,",
      "hours": "Closed"
    },
    {
      "day": "Thursday",
      "hours": "(Mid-Autumn Festival), Closed, Holiday hours"
    },
    {
      "day": "Friday,",
      "hours": "10:30AM to 12:30PM, 1:30 to 5PM, 6 to 9PM"
    },
    {
      "day": "Saturday,",
      "hours": "10:30AM to 12:30PM, 1:30 to 5PM, 6 to 9PM"
    },
    {
      "day": "Sunday,",
      "hours": "Closed"
    },
    {
      "day": "Monday,",
      "hours": "10:30AM to 12:30PM, 1:30 to 5PM, 6 to 9PM"
    }
  ],
  "reviewsCount": 186
},
{
  "title": "桃園動物醫院",
  "totalScore": "",
  "categoryName": "",
  "address": "No. 558號, Minsheng Road, Taoyuan District, Taoyuan City, Taiwan 330             330桃園市桃園區民生路558號",
  "locatedIn": null,
  "plusCode": "2826+94 Taoyuan District, Taoyuan City, Taiwan",
  "website": "icreatepet.com.tw",
  "phone": "+886 3 336 7775",
  "temporarilyClosed": false,
  "permanentlyClosed": false,
  "rank": 151,
  "placeId": "ChIJIcrWif8eaDQRF-2hcxYWjNQ",
  "url": "https://www.google.com/maps/place/%E6%A1%83%E5%9C%92%E5%8B%95%E7%89%A9%E9%86%AB%E9%99%A2/@25.000903,121.3081582,17z/data=!3m1!4b1!4m5!3m4!1s0x34681eff89d6ca21:0xd48c161673a1ed17!8m2!3d25.000903!4d121.3103469",
  "location": {
    "lat": 25.000903,
    "lng": 121.3103469
  },
  "searchString": "桃園市的動物醫院"
},
{
  "title": "心傳動物醫院",
  "totalScore": 4.3,
  "categoryName": "Animal hospital",
  "address": "106, Taiwan, Taipei City, Da’an District, Section 2, Heping East Road, 339號1樓             106台北市大安區和平東路二段339號1樓",
  "locatedIn": null,
  "plusCode": "2GFW+X7 Da’an District, Taipei City, Taiwan",
  "website": "chuanvet.com",
  "phone": "+886 2 2755 5568      phone6",
  "temporarilyClosed": false,
  "permanentlyClosed": false,
  "rank": 143,
  "placeId": "ChIJw0QOw9urQjQRPOx3Tybrfdg",
  "url": "https://www.google.com/maps/place/%E5%BF%83%E5%82%B3%E5%8B%95%E7%89%A9%E9%86%AB%E9%99%A2/@25.0249875,121.5435544,17z/data=!3m1!4b1!4m5!3m4!1s0x3442abdbc30e44c3:0xd87deb264f77ec3c!8m2!3d25.0249875!4d121.5457431",
  "location": {
    "lat": 25.0249875,
    "lng": 121.5457431
  },
  "searchString": "桃園市的動物醫院",
  "openingHours": [
    {
      "day": "Tuesday,",
      "hours": "1 to 11PM"
    },
    {
      "day": "Wednesday,",
      "hours": "7AM to 11PM"
    },
    {
      "day": "Thursday",
      "hours": "(Mid-Autumn Festival), 7AM to 11PM, Hours might differ"
    },
    {
      "day": "Friday,",
      "hours": "7AM to 11PM"
    },
    {
      "day": "Saturday,",
      "hours": "7AM to 11PM"
    },
    {
      "day": "Sunday,",
      "hours": "7AM to 11PM"
    },
    {
      "day": "Monday,",
      "hours": "7AM to 11PM"
    }
  ],
  "reviewsCount": 79
},
{
  "title": "大台北動物醫院 中和院區",
  "totalScore": 5,
  "categoryName": "Animal hospital",
  "address": "No. 89號, Section 2, Zhongshan Road, Zhonghe District, New Taipei City, Taiwan 235             235新北市中和區中山路二段89號",
  "locatedIn": null,
  "plusCode": "2G33+JF Zhonghe District, New Taipei City, Taiwan",
  "website": null,
  "phone": "+886 2 2243 4689",
  "temporarilyClosed": false,
  "permanentlyClosed": false,
  "rank": 146,
  "placeId": "ChIJPbTdPdupQjQRNiipCNmYErc",
  "url": "https://www.google.com/maps/place/%E5%A4%A7%E5%8F%B0%E5%8C%97%E5%8B%95%E7%89%A9%E9%86%AB%E9%99%A2+%E4%B8%AD%E5%92%8C%E9%99%A2%E5%8D%80/@25.0041219,121.5014583,17z/data=!3m1!4b1!4m5!3m4!1s0x3442a9db3dddb43d:0xb71298d908a92836!8m2!3d25.0041219!4d121.503647",
  "location": {
    "lat": 25.0041219,
    "lng": 121.503647
  },
  "searchString": "桃園市的動物醫院",
  "reviewsCount": 6
},
{
  "title": "Liren Animal Hospital",
  "totalScore": 4.5,
  "categoryName": "Animal hospital",
  "address": "No. 71號, Section 1, Wenxing Road, Zhubei City, Hsinchu County, Taiwan 302             302新竹縣竹北市文興路一段71號",
  "locatedIn": null,
  "plusCode": "R26G+V8 Zhubei City, Hsinchu County, Taiwan",
  "website": "lirenah.pixnet.net",
  "phone": "+886 3 658 5530      phone3",
  "temporarilyClosed": false,
  "permanentlyClosed": false,
  "rank": 145,
  "placeId": "ChIJ9XWpkfg2aDQRIIfUDSra6jg",
  "url": "https://www.google.com/maps/place/Liren+Animal+Hospital/@24.812149,121.0236425,17z/data=!3m1!4b1!4m5!3m4!1s0x346836f891a975f5:0x38eada2a0dd48720!8m2!3d24.812149!4d121.0258312",
  "location": {
    "lat": 24.812149,
    "lng": 121.0258312
  },
  "searchString": "桃園市的動物醫院",
  "openingHours": [
    {
      "day": "Tuesday,",
      "hours": "8 to 11:30AM, 2 to 8:30PM"
    },
    {
      "day": "Wednesday,",
      "hours": "8 to 11:30AM, 2 to 8:30PM"
    },
    {
      "day": "Thursday",
      "hours": "(Mid-Autumn Festival), 8 to 11:30AM, 2 to 8:30PM, Hours might differ"
    },
    {
      "day": "Friday,",
      "hours": "8 to 11:30AM, 2 to 8:30PM"
    },
    {
      "day": "Saturday,",
      "hours": "8 to 11:30AM, 2 to 5:30PM"
    },
    {
      "day": "Sunday,",
      "hours": "8 to 11:30AM, 2 to 5:30PM"
    },
    {
      "day": "Monday,",
      "hours": "8 to 11:30AM"
    }
  ],
  "reviewsCount": 202
},
{
  "title": "康禾動物醫院",
  "totalScore": 3.9,
  "categoryName": "Animal hospital",
  "address": "No. 159, Section 4, Xinglong Road, Wenshan District, Taiwan 116             116文山區興隆路四段159號",
  "locatedIn": null,
  "plusCode": "XHM6+PQ Wenshan District, Taipei City, Taiwan",
  "website": null,
  "phone": "+886 2 2937 4998",
  "temporarilyClosed": false,
  "permanentlyClosed": false,
  "rank": 150,
  "placeId": "ChIJ8aV5iN8BaDQRviTwLK71ePo",
  "url": "https://www.google.com/maps/place/%E5%BA%B7%E7%A6%BE%E5%8B%95%E7%89%A9%E9%86%AB%E9%99%A2/@24.9843693,121.5597673,17z/data=!3m1!4b1!4m5!3m4!1s0x346801df8879a5f1:0xfa78f5ae2cf024be!8m2!3d24.9843693!4d121.561956",
  "location": {
    "lat": 24.9843693,
    "lng": 121.561956
  },
  "searchString": "桃園市的動物醫院",
  "reviewsCount": 62
},
{
  "title": "Duma Animal Hospital",
  "totalScore": 4.5,
  "categoryName": "Animal hospital",
  "address": "No. 541, Daye Road, Beitou District, Taipei City, Taiwan 112             112台北市北投區大業路541號",
  "locatedIn": null,
  "plusCode": "4FPW+5J Beitou District, Taipei City, Taiwan",
  "website": "dumaah.com.tw",
  "phone": "+886 2 2897 7779",
  "temporarilyClosed": false,
  "permanentlyClosed": false,
  "rank": 135,
  "placeId": "ChIJ0UK1LVKuQjQR993JBnkB_Kg",
  "url": "https://www.google.com/maps/place/Duma+Animal+Hospital/@25.1354176,121.4943221,17z/data=!3m1!4b1!4m5!3m4!1s0x3442ae522db542d1:0xa8fc017906c9ddf7!8m2!3d25.1354176!4d121.4965108",
  "location": {
    "lat": 25.1354176,
    "lng": 121.4965108
  },
  "searchString": "桃園市的動物醫院",
  "openingHours": [
    {
      "day": "Tuesday,",
      "hours": "10AM to 1PM, 2 to 5PM, 6 to 9PM"
    },
    {
      "day": "Wednesday,",
      "hours": "10AM to 1PM, 2 to 5PM, 6 to 9PM"
    },
    {
      "day": "Thursday",
      "hours": "(Mid-Autumn Festival), 10AM to 1PM, 2 to 5PM, 6 to 9PM, Hours might differ"
    },
    {
      "day": "Friday,",
      "hours": "10AM to 1PM, 2 to 5PM, 6 to 9PM"
    },
    {
      "day": "Saturday,",
      "hours": "10AM to 1PM, 2 to 5PM, 6 to 9PM"
    },
    {
      "day": "Sunday,",
      "hours": "10AM to 1PM, 2 to 5PM"
    },
    {
      "day": "Monday,",
      "hours": "10AM to 1PM, 2 to 5PM, 6 to 9PM"
    }
  ],
  "reviewsCount": 127
},
{
  "title": "德心動物醫院",
  "totalScore": 4.7,
  "categoryName": "Animal hospital",
  "address": "No. 229, Changchun Rd, Zhongshan District, Taipei City, Taiwan 10491             10491台北市中山區長春路229號",
  "locatedIn": null,
  "plusCode": "3G3Q+WG Zhongshan District, Taipei City, Taiwan",
  "website": "virtue.com.tw",
  "phone": "+886 2 2504 5355",
  "temporarilyClosed": false,
  "permanentlyClosed": false,
  "rank": 149,
  "placeId": "ChIJ1xTraeCrQjQRJCNzVCP5Zsg",
  "url": "https://www.google.com/maps/place/%E5%BE%B7%E5%BF%83%E5%8B%95%E7%89%A9%E9%86%AB%E9%99%A2/@25.054837,121.5366683,17z/data=!3m1!4b1!4m5!3m4!1s0x3442abe069eb14d7:0xc866f92354732324!8m2!3d25.054837!4d121.538857",
  "location": {
    "lat": 25.054837,
    "lng": 121.538857
  },
  "searchString": "桃園市的動物醫院",
  "openingHours": [
    {
      "day": "Tuesday,",
      "hours": "10AM to 1PM, 2 to 9PM"
    },
    {
      "day": "Wednesday,",
      "hours": "10AM to 1PM, 2 to 9PM"
    },
    {
      "day": "Thursday",
      "hours": "(Mid-Autumn Festival), 10AM to 1PM, 2 to 9PM, Hours might differ"
    },
    {
      "day": "Friday,",
      "hours": "10AM to 1PM, 2 to 9PM"
    },
    {
      "day": "Saturday,",
      "hours": "10AM to 1PM, 2 to 9PM"
    },
    {
      "day": "Sunday,",
      "hours": "10AM to 1PM, 2 to 9PM"
    },
    {
      "day": "Monday,",
      "hours": "10AM to 1PM, 2 to 9PM"
    }
  ],
  "reviewsCount": 229
},
{
  "title": "禾原動物醫院",
  "totalScore": "",
  "categoryName": "",
  "address": "330, Taiwan, Taoyuan City, Taoyuan District, 330台灣桃園市桃園區大有路946巷大有路945巷             330桃園市桃園區330台灣桃園市桃園區大有路946巷大有路945巷",
  "locatedIn": null,
  "plusCode": "284C+Q6 Taoyuan District, Taoyuan City, Taiwan",
  "website": null,
  "phone": null,
  "temporarilyClosed": false,
  "permanentlyClosed": false,
  "rank": 122,
  "placeId": "ChIJ4Xxej1oeaDQRsbwXDX0Z5iY",
  "url": "https://www.google.com/maps/place/%E7%A6%BE%E5%8E%9F%E5%8B%95%E7%89%A9%E9%86%AB%E9%99%A2/@25.0069129,121.3183953,17z/data=!3m1!4b1!4m5!3m4!1s0x34681e5a8f5e7ce1:0x26e6197d0d17bcb1!8m2!3d25.0069129!4d121.320584",
  "location": {
    "lat": 25.0069129,
    "lng": 121.320584
  },
  "searchString": "桃園市的動物醫院"
},
{
  "title": "芝山動物醫院",
  "totalScore": 4.3,
  "categoryName": "Animal hospital",
  "address": "No. 762-2號, Wenlin Road, Shilin District, Taipei City, Taiwan 111             111台北市士林區文林路762-2號",
  "locatedIn": null,
  "plusCode": "4G39+CX Shilin District, Taipei City, Taiwan",
  "website": "z3vet.com.tw",
  "phone": "+886 2 2832 8385",
  "temporarilyClosed": false,
  "permanentlyClosed": false,
  "rank": 129,
  "placeId": "ChIJj47anZeuQjQRFROg5hK5RMw",
  "url": "https://www.google.com/maps/place/%E8%8A%9D%E5%B1%B1%E5%8B%95%E7%89%A9%E9%86%AB%E9%99%A2/@25.103596,121.5177703,17z/data=!3m1!4b1!4m5!3m4!1s0x3442ae979dda8e8f:0xcc44b912e6a01315!8m2!3d25.103596!4d121.519959",
  "location": {
    "lat": 25.103596,
    "lng": 121.519959
  },
  "searchString": "桃園市的動物醫院",
  "openingHours": [
    {
      "day": "Tuesday,",
      "hours": "10AM to 12:20PM, 2 to 5:50PM, 7 to 9PM"
    },
    {
      "day": "Wednesday,",
      "hours": "10AM to 12:20PM, 2 to 5:50PM, 7 to 9PM"
    },
    {
      "day": "Thursday",
      "hours": "(Mid-Autumn Festival), 10AM to 12:20PM, 2 to 5:50PM, 7 to 9PM, Hours might differ"
    },
    {
      "day": "Friday,",
      "hours": "10AM to 12:20PM, 2 to 5:50PM, 7 to 9PM"
    },
    {
      "day": "Saturday,",
      "hours": "10AM to 12:20PM, 2 to 5:50PM, 7 to 9PM"
    },
    {
      "day": "Sunday,",
      "hours": "10AM to 12:20PM, 2 to 5:50PM, 7 to 9PM"
    },
    {
      "day": "Monday,",
      "hours": "10AM to 12:20PM, 2 to 5:50PM, 7 to 9PM"
    }
  ],
  "reviewsCount": 306
},
{
  "title": "凱揚動物醫院 台北市中山區 雷射 高壓氧 健康檢查 洗牙結紮 外科",
  "totalScore": 5,
  "categoryName": "Animal hospital",
  "address": "No. 331號, Section 2, Bade Rd, Zhongshan District, Taipei City, Taiwan 104             104台北市中山區八德路二段331號",
  "locatedIn": null,
  "plusCode": "2GXV+28 Zhongshan District, Taipei City, Taiwan",
  "website": "facebook.com",
  "phone": "+886 2 2751 2218",
  "temporarilyClosed": false,
  "permanentlyClosed": false,
  "rank": 140,
  "placeId": "ChIJSQDLjtirQjQRXfmER8-JadY",
  "url": "https://www.google.com/maps/place/%E5%87%B1%E6%8F%9A%E5%8B%95%E7%89%A9%E9%86%AB%E9%99%A2+%E5%8F%B0%E5%8C%97%E5%B8%82%E4%B8%AD%E5%B1%B1%E5%8D%80+%E9%9B%B7%E5%B0%84+%E9%AB%98%E5%A3%93%E6%B0%A7+%E5%81%A5%E5%BA%B7%E6%AA%A2%E6%9F%A5+%E6%B4%97%E7%89%99%E7%B5%90%E7%B4%AE+%E5%A4%96%E7%A7%91/@25.0475222,121.5410638,17z/data=!3m1!4b1!4m5!3m4!1s0x3442abd88ecb0049:0xd66989cf4784f95d!8m2!3d25.0475222!4d121.5432525",
  "location": {
    "lat": 25.0475222,
    "lng": 121.5432525
  },
  "searchString": "桃園市的動物醫院",
  "openingHours": [
    {
      "day": "Tuesday,",
      "hours": "10AM to 1PM, 3 to 8:30PM"
    },
    {
      "day": "Wednesday,",
      "hours": "10AM to 1PM, 3 to 8:30PM"
    },
    {
      "day": "Thursday",
      "hours": "(Mid-Autumn Festival), 10AM to 1PM, 3 to 8:30PM, Hours might differ"
    },
    {
      "day": "Friday,",
      "hours": "10AM to 1PM, 3 to 8:30PM"
    },
    {
      "day": "Saturday,",
      "hours": "10AM to 1PM, 3 to 8:30PM"
    },
    {
      "day": "Sunday,",
      "hours": "Closed"
    },
    {
      "day": "Monday,",
      "hours": "10AM to 1PM, 3 to 8:30PM"
    }
  ],
  "reviewsCount": 31
},
{
  "title": "新竺動物醫院",
  "totalScore": 4.1,
  "categoryName": "Animal hospital",
  "address": "No. 98, Zhuguang Road, North District, Hsinchu City, Taiwan 300             300新竹市北區竹光路98號",
  "locatedIn": null,
  "plusCode": "RX75+9R North District, Hsinchu City, Taiwan",
  "website": "zh-tw.facebook.com",
  "phone": "+886 3 542 9961",
  "temporarilyClosed": false,
  "permanentlyClosed": false,
  "rank": 127,
  "placeId": "ChIJaVMUhLk1aDQRdDoweG_KqZ8",
  "url": "https://www.google.com/maps/place/%E6%96%B0%E7%AB%BA%E5%8B%95%E7%89%A9%E9%86%AB%E9%99%A2/@24.8134993,120.9573336,17z/data=!3m1!4b1!4m5!3m4!1s0x346835b984145369:0x9fa9ca6f78303a74!8m2!3d24.8134993!4d120.9595223",
  "location": {
    "lat": 24.8134993,
    "lng": 120.9595223
  },
  "searchString": "桃園市的動物醫院",
  "openingHours": [
    {
      "day": "Tuesday,",
      "hours": "10AM to 3PM, 5 to 9:30PM"
    },
    {
      "day": "Wednesday,",
      "hours": "10AM to 3PM, 5 to 9:30PM"
    },
    {
      "day": "Thursday",
      "hours": "(Mid-Autumn Festival), 10AM to 3PM, 5 to 9:30PM, Hours might differ"
    },
    {
      "day": "Friday,",
      "hours": "10AM to 3PM, 5 to 9:30PM"
    },
    {
      "day": "Saturday,",
      "hours": "10AM to 3PM, 5 to 9:30PM"
    },
    {
      "day": "Sunday,",
      "hours": "5 to 9:30PM"
    },
    {
      "day": "Monday,",
      "hours": "10AM to 3PM, 5 to 9:30PM"
    }
  ],
  "reviewsCount": 204
},
{
  "title": "全陽動物醫院",
  "totalScore": null,
  "categoryName": "Veterinarijos klinika",
  "address": "No. 305號, Section 4, Bade Road, Songshan District, Taipei City, Taivanas 105             105台北市松山區八德路四段305號",
  "locatedIn": null,
  "plusCode": "2HX8+MM Songšanas, Taipei City, Taivanas",
  "website": null,
  "phone": "+886 2 2762 7945",
  "temporarilyClosed": false,
  "permanentlyClosed": false,
  "rank": 133,
  "placeId": "ChIJWR8tZJarQjQRFXD9VOy7zKw",
  "url": "https://www.google.com/maps/place/%E5%85%A8%E9%99%BD%E5%8B%95%E7%89%A9%E9%86%AB%E9%99%A2/@25.0492335,121.5644436,17z/data=!3m1!4b1!4m5!3m4!1s0x3442ab96642d1f59:0xacccbbec54fd7015!8m2!3d25.0492335!4d121.5666323",
  "location": {
    "lat": 25.0492335,
    "lng": 121.5666323
  },
  "searchString": "桃園市的動物醫院",
  "openingHours": [
    null,
    null,
    {
      "day": "ketvirtadienis",
      "hours": "(Rudens vidurio šventė),09:30–12,14–20:30,Darbo laikas gali skirtis"
    },
    null,
    null,
    null,
    {
      "day": "pirmadienis,09:30–12,14–20:30.",
      "hours": "Slėpti savaitės darbo laiką"
    }
  ],
  "reviewsCount": 208
},
{
  "title": "全國動物醫院 台北分院",
  "totalScore": 4.3,
  "categoryName": "Animal hospital",
  "address": "No. 13號, Lane 30, Section 1, Jiuzong Road, Neihu District, Taipei City, Taiwan 11494             11494台北市內湖區舊宗路一段30巷13號",
  "locatedIn": null,
  "plusCode": "3H5J+34 Neihu District, Taipei City, Taiwan",
  "website": "vet.com.tw",
  "phone": "+886 2 8791 8706      phone7",
  "temporarilyClosed": false,
  "permanentlyClosed": false,
  "rank": 139,
  "placeId": "ChIJ94eQWgerQjQRFwTtE2i1bis",
  "url": "https://www.google.com/maps/place/%E5%85%A8%E5%9C%8B%E5%8B%95%E7%89%A9%E9%86%AB%E9%99%A2+%E5%8F%B0%E5%8C%97%E5%88%86%E9%99%A2/@25.0577448,121.5781276,17z/data=!3m1!4b1!4m5!3m4!1s0x3442ab075a9087f7:0x2b6eb56813ed0417!8m2!3d25.0577448!4d121.5803163",
  "location": {
    "lat": 25.0577448,
    "lng": 121.5803163
  },
  "searchString": "桃園市的動物醫院",
  "openingHours": [
    {
      "day": "Tuesday,",
      "hours": "Open 24 hours"
    },
    {
      "day": "Wednesday,",
      "hours": "Open 24 hours"
    },
    {
      "day": "Thursday",
      "hours": "(Mid-Autumn Festival), Open 24 hours, Hours might differ"
    },
    {
      "day": "Friday,",
      "hours": "Open 24 hours"
    },
    {
      "day": "Saturday,",
      "hours": "Open 24 hours"
    },
    {
      "day": "Sunday,",
      "hours": "Open 24 hours"
    },
    {
      "day": "Monday,",
      "hours": "Open 24 hours"
    }
  ],
  "reviewsCount": 163
},
{
  "title": "全育動物醫院",
  "totalScore": 4.5,
  "categoryName": "Animal hospital",
  "address": "No. 436號, Nanda Road, East District, Hsinchu City, Taiwan 300             300新竹市東區南大路436號",
  "locatedIn": null,
  "plusCode": "QXW9+Q9 East District, Hsinchu City, Taiwan",
  "website": null,
  "phone": "+886 3 561 4316",
  "temporarilyClosed": false,
  "permanentlyClosed": false,
  "rank": 123,
  "placeId": "ChIJWe6enu01aDQR5dBwz6xrR-g",
  "url": "https://www.google.com/maps/place/%E5%85%A8%E8%82%B2%E5%8B%95%E7%89%A9%E9%86%AB%E9%99%A2/@24.7968889,120.9662619,17z/data=!3m1!4b1!4m5!3m4!1s0x346835ed9e9eee59:0xe8476baccf70d0e5!8m2!3d24.7968889!4d120.9684506",
  "location": {
    "lat": 24.7968889,
    "lng": 120.9684506
  },
  "searchString": "桃園市的動物醫院",
  "openingHours": [
    {
      "day": "Tuesday,",
      "hours": "9:30AM to 12PM, 2:30 to 5PM, 6 to 8:30PM"
    },
    {
      "day": "Wednesday,",
      "hours": "9:30AM to 12PM, 2:30 to 5PM, 6 to 8:30PM"
    },
    {
      "day": "Thursday",
      "hours": "(Mid-Autumn Festival), 9:30AM to 12PM, 2:30 to 5PM, 6 to 8:30PM, Hours might differ"
    },
    {
      "day": "Friday,",
      "hours": "9:30AM to 12PM, 2:30 to 5PM, 6 to 8:30PM"
    },
    {
      "day": "Saturday,",
      "hours": "9:30AM to 12PM, 2:30 to 5PM"
    },
    {
      "day": "Sunday,",
      "hours": "Closed"
    },
    {
      "day": "Monday,",
      "hours": "9:30AM to 12PM, 2:30 to 5PM, 6 to 8:30PM"
    }
  ],
  "reviewsCount": 175
},
{
  "title": "Asia-Pacific Animal Hospital",
  "totalScore": 4.7,
  "categoryName": "Animal hospital",
  "address": "No. 244, Jingfu Street, Wenshan District, Taipei City, Taiwan 116             116台北市文山區景福街244號",
  "locatedIn": null,
  "plusCode": "XGVQ+9W Wenshan District, Taipei City, Taiwan",
  "website": "asia-pacific.com.tw",
  "phone": "+886 2 2930 0005",
  "temporarilyClosed": false,
  "permanentlyClosed": false,
  "rank": 138,
  "placeId": "ChIJhdeEoAGqQjQRGwuixAY9n5Q",
  "url": "https://www.google.com/maps/place/Asia-Pacific+Animal+Hospital/@24.9934881,121.537626,17z/data=!3m1!4b1!4m5!3m4!1s0x3442aa01a084d785:0x949f3d06c4a20b1b!8m2!3d24.9934881!4d121.5398147",
  "location": {
    "lat": 24.9934881,
    "lng": 121.5398147
  },
  "searchString": "桃園市的動物醫院",
  "openingHours": [
    {
      "day": "Tuesday,",
      "hours": "10:30AM to 8PM"
    },
    {
      "day": "Wednesday,",
      "hours": "Closed"
    },
    {
      "day": "Thursday",
      "hours": "(Mid-Autumn Festival), Closed, Hours might differ"
    },
    {
      "day": "Friday,",
      "hours": "10:30AM to 8PM"
    },
    {
      "day": "Saturday,",
      "hours": "12 to 6PM"
    },
    {
      "day": "Sunday,",
      "hours": "Closed"
    },
    {
      "day": "Monday,",
      "hours": "12:30 to 9PM"
    }
  ],
  "reviewsCount": 112
},
{
  "title": "環南動物醫院",
  "totalScore": 4.4,
  "categoryName": "Animal hospital",
  "address": "No. 205, Section 3, Heping West Road, Wanhua District, Taiwan 108             108萬華區和平西路三段205號",
  "locatedIn": null,
  "plusCode": "2FPW+6R Wanhua District, Taipei City, Taiwan",
  "website": null,
  "phone": "+886 2 2302 0109",
  "temporarilyClosed": false,
  "permanentlyClosed": false,
  "rank": 136,
  "placeId": "ChIJzYfhn66pQjQROZRbUSjUTXA",
  "url": "https://www.google.com/maps/place/%E7%92%B0%E5%8D%97%E5%8B%95%E7%89%A9%E9%86%AB%E9%99%A2/@25.035507,121.4948493,17z/data=!3m1!4b1!4m5!3m4!1s0x3442a9ae9fe187cd:0x704dd428515b9439!8m2!3d25.035507!4d121.497038",
  "location": {
    "lat": 25.035507,
    "lng": 121.497038
  },
  "searchString": "桃園市的動物醫院",
  "openingHours": [
    {
      "day": "Tuesday,",
      "hours": "10:30AM to 12PM, 2 to 9PM"
    },
    {
      "day": "Wednesday,",
      "hours": "10:30AM to 12PM, 2 to 9PM"
    },
    {
      "day": "Thursday",
      "hours": "(Mid-Autumn Festival), 10:30AM to 12PM, 2 to 9PM, Hours might differ"
    },
    {
      "day": "Friday,",
      "hours": "10:30AM to 12PM, 2 to 9PM"
    },
    {
      "day": "Saturday,",
      "hours": "10:30AM to 12PM, 2 to 9PM"
    },
    {
      "day": "Sunday,",
      "hours": "Closed"
    },
    {
      "day": "Monday,",
      "hours": "10:30AM to 12PM, 2 to 9PM"
    }
  ],
  "reviewsCount": 29
},
{
  "title": "中圓寵物家族-中正店",
  "totalScore": 4.2,
  "categoryName": "Pet supply store",
  "address": "No. 836號, Zhongzheng Rd, Taoyuan District, Taoyuan City, Taiwan 330             330桃園市桃園區中正路836號",
  "locatedIn": null,
  "plusCode": "2862+3M Taoyuan District, Taoyuan City, Taiwan",
  "website": "facebook.com",
  "phone": "+886 3 317 7608",
  "temporarilyClosed": false,
  "permanentlyClosed": false,
  "rank": 110,
  "placeId": "ChIJvVArjK4faDQRLNleQo2lZsI",
  "url": "https://www.google.com/maps/place/%E4%B8%AD%E5%9C%93%E5%AF%B5%E7%89%A9%E5%AE%B6%E6%97%8F-%E4%B8%AD%E6%AD%A3%E5%BA%97/@25.0101268,121.2994969,17z/data=!3m1!4b1!4m5!3m4!1s0x34681fae8c2b50bd:0xc266a58d425ed92c!8m2!3d25.0101268!4d121.3016856",
  "location": {
    "lat": 25.0101268,
    "lng": 121.3016856
  },
  "searchString": "桃園市的動物醫院",
  "openingHours": [
    {
      "day": "Tuesday,",
      "hours": "9AM to 2AM"
    },
    {
      "day": "Wednesday,",
      "hours": "9AM to 2AM"
    },
    {
      "day": "Thursday",
      "hours": "(Mid-Autumn Festival), 9AM to 2AM, Hours might differ"
    },
    {
      "day": "Friday,",
      "hours": "9AM to 2AM"
    },
    {
      "day": "Saturday,",
      "hours": "9AM to 2AM"
    },
    {
      "day": "Sunday,",
      "hours": "9AM to 2AM"
    },
    {
      "day": "Monday,",
      "hours": "9AM to 2AM"
    }
  ],
  "reviewsCount": 400
},
{
  "title": "伊甸動物醫院",
  "totalScore": 3.8,
  "categoryName": "Animal hospital",
  "address": "10465, Taiwan, Taipei City, Zhongshan District, Lane 554, Beian Road, 33號1樓             10465台北市中山區北安路554巷33號1樓",
  "locatedIn": null,
  "plusCode": "3GJX+3R Zhongshan District, Taipei City, Taiwan",
  "website": "eden-vet.com",
  "phone": "+886 2 8509 2579",
  "temporarilyClosed": false,
  "permanentlyClosed": false,
  "rank": 124,
  "placeId": "ChIJFwTtdQ-sQjQRDdUv6eFR9Zo",
  "url": "https://www.google.com/maps/place/%E4%BC%8A%E7%94%B8%E5%8B%95%E7%89%A9%E9%86%AB%E9%99%A2/@25.080187,121.5473793,17z/data=!3m1!4b1!4m5!3m4!1s0x3442ac0f75ed0417:0x9af551e1e92fd50d!8m2!3d25.080187!4d121.549568",
  "location": {
    "lat": 25.080187,
    "lng": 121.549568
  },
  "searchString": "桃園市的動物醫院",
  "openingHours": [
    {
      "day": "Tuesday,",
      "hours": "Open 24 hours"
    },
    {
      "day": "Wednesday,",
      "hours": "Open 24 hours"
    },
    {
      "day": "Thursday",
      "hours": "(Mid-Autumn Festival), Open 24 hours, Hours might differ"
    },
    {
      "day": "Friday,",
      "hours": "Open 24 hours"
    },
    {
      "day": "Saturday,",
      "hours": "Open 24 hours"
    },
    {
      "day": "Sunday,",
      "hours": "Open 24 hours"
    },
    {
      "day": "Monday,",
      "hours": "Open 24 hours"
    }
  ],
  "reviewsCount": 466
},
{
  "title": "中信動物醫院",
  "totalScore": 4.6,
  "categoryName": "Animal hospital",
  "address": "No. 188, Xinyi Road, Banqiao District, New Taipei City, Taiwan 220             220新北市板橋區信義路188號",
  "locatedIn": null,
  "plusCode": "XFR5+FR Banqiao District, New Taipei City, Taiwan",
  "website": "dvmlin.business.site",
  "phone": "+886 2 2957 3534",
  "temporarilyClosed": false,
  "permanentlyClosed": false,
  "rank": 131,
  "placeId": "ChIJkdgPorkCaDQR_xxgSUJLQqQ",
  "url": "https://www.google.com/maps/place/%E4%B8%AD%E4%BF%A1%E5%8B%95%E7%89%A9%E9%86%AB%E9%99%A2/@24.9911472,121.4574324,17z/data=!3m1!4b1!4m5!3m4!1s0x346802b9a20fd891:0xa4424b4249601cff!8m2!3d24.9911472!4d121.4596211",
  "location": {
    "lat": 24.9911472,
    "lng": 121.4596211
  },
  "searchString": "桃園市的動物醫院",
  "openingHours": [
    {
      "day": "Tuesday,",
      "hours": "10AM to 12PM, 7 to 9PM"
    },
    {
      "day": "Wednesday,",
      "hours": "10AM to 12PM, 3 to 5:30PM"
    },
    {
      "day": "Thursday",
      "hours": "(Mid-Autumn Festival), Closed, Holiday hours"
    },
    {
      "day": "Friday,",
      "hours": "10AM to 12PM"
    },
    {
      "day": "Saturday,",
      "hours": "10AM to 12PM"
    },
    {
      "day": "Sunday,",
      "hours": "Closed"
    },
    {
      "day": "Monday,",
      "hours": "10AM to 12PM, 3 to 5:30PM, 7 to 9PM"
    }
  ],
  "reviewsCount": 341
},
{
  "title": "設想動物醫院",
  "totalScore": null,
  "categoryName": "Veterinaras",
  "address": "No. 22號, Nanshun 7th Street, Luzhu District, Taoyuan City, Taivanas 338             338桃園市蘆竹區南順七街22號",
  "locatedIn": null,
  "plusCode": "27QR+H8 Ludžu, Taoyuan City, Taivanas",
  "website": "hyperdvm.wixsite.com",
  "phone": "+886 3 222 5859",
  "temporarilyClosed": false,
  "permanentlyClosed": false,
  "rank": 108,
  "placeId": "ChIJrQW0o9wfaDQRsVvxcuc_110",
  "url": "https://www.google.com/maps/place/%E8%A8%AD%E6%83%B3%E5%8B%95%E7%89%A9%E9%86%AB%E9%99%A2/@25.0388794,121.2885756,17z/data=!3m1!4b1!4m5!3m4!1s0x34681fdca3b405ad:0x5dd73fe772f15bb1!8m2!3d25.0388794!4d121.2907643",
  "location": {
    "lat": 25.0388794,
    "lng": 121.2907643
  },
  "searchString": "桃園市的動物醫院",
  "openingHours": [
    null,
    null,
    {
      "day": "ketvirtadienis",
      "hours": "(Rudens vidurio šventė),Uždaryta,Darbo laikas šventinę dieną"
    },
    null,
    null,
    null,
    {
      "day": "pirmadienis,10–12:30,14–21.",
      "hours": "Slėpti savaitės darbo laiką"
    }
  ],
  "reviewsCount": 83
},
{
  "title": "Taipei Animal Hospital",
  "totalScore": 4.7,
  "categoryName": "Animal hospital",
  "address": "No. 164號, Guangfu North Road, Songshan District, Taipei City, Taiwan 105             105台北市松山區光復北路164號",
  "locatedIn": null,
  "plusCode": "3H34+6M Songshan District, Taipei City, Taiwan",
  "website": null,
  "phone": "+886 2 2717 6036",
  "temporarilyClosed": false,
  "permanentlyClosed": false,
  "rank": 118,
  "placeId": "ChIJMX2wpuurQjQR2m2wJSlV-LU",
  "url": "https://www.google.com/maps/place/Taipei+Animal+Hospital/@25.0530556,121.554478,17z/data=!3m1!4b1!4m5!3m4!1s0x3442abeba6b07d31:0xb5f8552925b06dda!8m2!3d25.0530556!4d121.5566667",
  "location": {
    "lat": 25.0530556,
    "lng": 121.5566667
  },
  "searchString": "桃園市的動物醫院",
  "openingHours": [
    {
      "day": "Tuesday,",
      "hours": "9:30AM to 12PM, 1:30 to 9PM"
    },
    {
      "day": "Wednesday,",
      "hours": "9:30AM to 12PM, 1:30 to 9PM"
    },
    {
      "day": "Thursday",
      "hours": "(Mid-Autumn Festival), 9:30AM to 12PM, 1:30 to 9PM, Hours might differ"
    },
    {
      "day": "Friday,",
      "hours": "9:30AM to 12PM, 1:30 to 9PM"
    },
    {
      "day": "Saturday,",
      "hours": "9:30AM to 12PM, 1:30 to 5PM"
    },
    {
      "day": "Sunday,",
      "hours": "Closed"
    },
    {
      "day": "Monday,",
      "hours": "9:30AM to 12PM, 1:30 to 9PM"
    }
  ],
  "reviewsCount": 170
},
{
  "title": "Sheng An Animal Clinic",
  "totalScore": 4.3,
  "categoryName": "Animal hospital",
  "address": "No. 256, Zhonggang Road, Xinzhuang District, New Taipei City, Taiwan 242             242新北市新莊區中港路256號",
  "locatedIn": null,
  "plusCode": "2FV3+CF Xinzhuang District, New Taipei City, Taiwan",
  "website": null,
  "phone": "+886 2 2277 6711",
  "temporarilyClosed": false,
  "permanentlyClosed": false,
  "rank": 115,
  "placeId": "ChIJEw87V3qoQjQR19WZZn9LONM",
  "url": "https://www.google.com/maps/place/Sheng+An+Animal+Clinic/@25.0435304,121.4515034,17z/data=!3m1!4b1!4m5!3m4!1s0x3442a87a573b0f13:0xd3384b7f6699d5d7!8m2!3d25.0435304!4d121.4536921",
  "location": {
    "lat": 25.0435304,
    "lng": 121.4536921
  },
  "searchString": "桃園市的動物醫院",
  "openingHours": [
    {
      "day": "Tuesday,",
      "hours": "9AM to 10PM"
    },
    {
      "day": "Wednesday,",
      "hours": "9AM to 10PM"
    },
    {
      "day": "Thursday",
      "hours": "(Mid-Autumn Festival), 9AM to 10PM, Hours might differ"
    },
    {
      "day": "Friday,",
      "hours": "9AM to 10PM"
    },
    {
      "day": "Saturday,",
      "hours": "9AM to 10PM"
    },
    {
      "day": "Sunday,",
      "hours": "Closed"
    },
    {
      "day": "Monday,",
      "hours": "9AM to 10PM"
    }
  ],
  "reviewsCount": 670
},
{
  "title": "欣欣動物醫院",
  "totalScore": 3.8,
  "categoryName": "Animal hospital",
  "address": "247, Taiwan, New Taipei City, Luzhou District, 中山一路160號             247新北市蘆洲區中山一路160號",
  "locatedIn": null,
  "plusCode": "3FJF+JV Luzhou District, New Taipei City, Taiwan",
  "website": "shinshin.com.tw",
  "phone": "+886 2 2282 5058",
  "temporarilyClosed": false,
  "permanentlyClosed": false,
  "rank": 119,
  "placeId": "ChIJWzveLs-oQjQRAp-BnlpHz5M",
  "url": "https://www.google.com/maps/place/%E6%AC%A3%E6%AC%A3%E5%8B%95%E7%89%A9%E9%86%AB%E9%99%A2/@25.0815074,121.4725141,17z/data=!3m1!4b1!4m5!3m4!1s0x3442a8cf2ede3b5b:0x93cf475a9e819f02!8m2!3d25.0815074!4d121.4747028",
  "location": {
    "lat": 25.0815074,
    "lng": 121.4747028
  },
  "searchString": "桃園市的動物醫院",
  "openingHours": [
    {
      "day": "Tuesday,",
      "hours": "9AM to 9PM"
    },
    {
      "day": "Wednesday,",
      "hours": "9AM to 9PM"
    },
    {
      "day": "Thursday",
      "hours": "(Mid-Autumn Festival), 9AM to 9PM, Hours might differ"
    },
    {
      "day": "Friday,",
      "hours": "9AM to 9PM"
    },
    {
      "day": "Saturday,",
      "hours": "9AM to 9PM"
    },
    {
      "day": "Sunday,",
      "hours": "9AM to 9PM"
    },
    {
      "day": "Monday,",
      "hours": "9AM to 9PM"
    }
  ],
  "reviewsCount": 284
},
{
  "title": "登華動物醫院 高壓氧中心 健康檢查 洗牙結紮 進階外科 重症諮詢 膽囊手術",
  "totalScore": 4.6,
  "categoryName": "Animal hospital",
  "address": "242, Taiwan, New Taipei City, Xinzhuang District, Longan Road, 256號2樓             242新北市新莊區龍安路256號2樓",
  "locatedIn": null,
  "plusCode": "2C9C+QH Xinzhuang District, New Taipei City, Taiwan",
  "website": "business.site",
  "phone": "+886 2 2206 0006",
  "temporarilyClosed": false,
  "permanentlyClosed": false,
  "rank": 114,
  "placeId": "ChIJN4pDSPCnQjQREk_o8J2KuzE",
  "url": "https://www.google.com/maps/place/%E7%99%BB%E8%8F%AF%E5%8B%95%E7%89%A9%E9%86%AB%E9%99%A2+%E9%AB%98%E5%A3%93%E6%B0%A7%E4%B8%AD%E5%BF%83+%E5%81%A5%E5%BA%B7%E6%AA%A2%E6%9F%A5+%E6%B4%97%E7%89%99%E7%B5%90%E7%B4%AE+%E9%80%B2%E9%9A%8E%E5%A4%96%E7%A7%91+%E9%87%8D%E7%97%87%E8%AB%AE%E8%A9%A2+%E8%86%BD%E5%9B%8A%E6%89%8B%E8%A1%93/@25.0194532,121.4192148,17z/data=!3m1!4b1!4m5!3m4!1s0x3442a7f048438a37:0x31bb8a9df0e84f12!8m2!3d25.0194532!4d121.4214035",
  "location": {
    "lat": 25.0194532,
    "lng": 121.4214035
  },
  "searchString": "桃園市的動物醫院",
  "openingHours": [
    {
      "day": "Tuesday,",
      "hours": "10AM to 12:30PM, 1:30 to 10PM"
    },
    {
      "day": "Wednesday,",
      "hours": "10AM to 12:30PM, 1:30 to 10PM"
    },
    {
      "day": "Thursday",
      "hours": "(Mid-Autumn Festival), 10AM to 12:30PM, 1:30 to 10PM, Holiday hours"
    },
    {
      "day": "Friday,",
      "hours": "10AM to 12:30PM, 1:30 to 10PM"
    },
    {
      "day": "Saturday,",
      "hours": "10AM to 12:30PM, 1:30 to 10PM"
    },
    {
      "day": "Sunday,",
      "hours": "10AM to 12:30PM, 1:30 to 7PM"
    },
    {
      "day": "Monday,",
      "hours": "10AM to 12:30PM, 1:30 to 10PM"
    }
  ],
  "reviewsCount": 47
},
{
  "title": "曼哈頓動物醫院",
  "totalScore": 4.2,
  "categoryName": "Animal hospital",
  "address": "No. 77號, Section 4, Civic Blvd, Songshan District, Taipei City, Taiwan 10557             10557台北市松山區市民大道四段77號",
  "locatedIn": null,
  "plusCode": "2GWW+4R Songshan District, Taipei City, Taiwan",
  "website": "blog.sina.com.tw",
  "phone": "+886 2 2781 5203",
  "temporarilyClosed": false,
  "permanentlyClosed": false,
  "rank": 134,
  "placeId": "ChIJLdi9QdurQjQRfWYgHqZMFhM",
  "url": "https://www.google.com/maps/place/%E6%9B%BC%E5%93%88%E9%A0%93%E5%8B%95%E7%89%A9%E9%86%AB%E9%99%A2/@25.0452782,121.5449176,17z/data=!3m1!4b1!4m5!3m4!1s0x3442abdb41bdd82d:0x13164ca61e20667d!8m2!3d25.0452782!4d121.5471063",
  "location": {
    "lat": 25.0452782,
    "lng": 121.5471063
  },
  "searchString": "桃園市的動物醫院",
  "openingHours": [
    {
      "day": "Tuesday,",
      "hours": "10AM to 9PM"
    },
    {
      "day": "Wednesday,",
      "hours": "10AM to 9PM"
    },
    {
      "day": "Thursday",
      "hours": "(Mid-Autumn Festival), 10AM to 9PM, Hours might differ"
    },
    {
      "day": "Friday,",
      "hours": "10AM to 9PM"
    },
    {
      "day": "Saturday,",
      "hours": "10AM to 9PM"
    },
    {
      "day": "Sunday,",
      "hours": "Closed"
    },
    {
      "day": "Monday,",
      "hours": "10AM to 9PM"
    }
  ],
  "reviewsCount": 74
},
{
  "title": "桃鶯動物醫院",
  "totalScore": 3.2,
  "categoryName": "Hospital",
  "address": "No. 101, Taoying Road, Taoyuan District, Taoyuan City, Taiwan 330             330桃園市桃園區桃鶯路101號",
  "locatedIn": null,
  "plusCode": "X8P9+W6 Taoyuan District, Taoyuan City, Taiwan",
  "website": null,
  "phone": "+886 3 375 4339",
  "temporarilyClosed": false,
  "permanentlyClosed": false,
  "rank": 113,
  "placeId": "ChIJ7XNwPuUeaDQRl9tcq6uJDlI",
  "url": "https://www.google.com/maps/place/%E6%A1%83%E9%B6%AF%E5%8B%95%E7%89%A9%E9%86%AB%E9%99%A2/@24.9872831,121.3159109,17z/data=!3m1!4b1!4m5!3m4!1s0x34681ee53e7073ed:0x520e89abab5cdb97!8m2!3d24.9872831!4d121.3180996",
  "location": {
    "lat": 24.9872831,
    "lng": 121.3180996
  },
  "searchString": "桃園市的動物醫院",
  "reviewsCount": 17
},
{
  "title": "原野動物專科醫院",
  "totalScore": 4.9,
  "categoryName": "Veterinarian",
  "address": "324, Taiwan, Taoyuan City, Pingzhen District, Guangde Street, 12號1樓             324桃園市平鎮區廣德街12號1樓",
  "locatedIn": null,
  "plusCode": "X643+MX Pingzhen District, Taoyuan City, Taiwan",
  "website": "facebook.com",
  "phone": "+886 3 494 2020",
  "temporarilyClosed": false,
  "permanentlyClosed": false,
  "rank": 103,
  "placeId": "ChIJOSSSnswjaDQRNtY6VBXtv-s",
  "url": "https://www.google.com/maps/place/%E5%8E%9F%E9%87%8E%E5%8B%95%E7%89%A9%E5%B0%88%E7%A7%91%E9%86%AB%E9%99%A2/@24.9566501,121.2027243,17z/data=!3m1!4b1!4m5!3m4!1s0x346823cc9e922439:0xebbfed15543ad636!8m2!3d24.9566501!4d121.204913",
  "location": {
    "lat": 24.9566501,
    "lng": 121.204913
  },
  "searchString": "桃園市的動物醫院",
  "openingHours": [
    {
      "day": "Tuesday,",
      "hours": "10AM to 1PM, 2PM to 9AM"
    },
    {
      "day": "Wednesday,",
      "hours": "10AM to 1PM, 2PM to 9AM"
    },
    {
      "day": "Thursday",
      "hours": "(Mid-Autumn Festival), 10AM to 1PM, 2 to 9PM, Hours might differ"
    },
    {
      "day": "Friday,",
      "hours": "10AM to 1PM, 2 to 9PM"
    },
    {
      "day": "Saturday,",
      "hours": "10AM to 1PM, 2 to 9PM"
    },
    {
      "day": "Sunday,",
      "hours": "10AM to 1PM, 2 to 9PM"
    },
    {
      "day": "Monday,",
      "hours": "10AM to 1PM, 2 to 9PM"
    }
  ],
  "reviewsCount": 40
},
{
  "title": "崇恩動物醫院",
  "totalScore": 1.9,
  "categoryName": "Hospital",
  "address": "No. 32, Wenhua Street, Yangmei District, Taiwan 326             326楊梅區文化街32號",
  "locatedIn": null,
  "plusCode": "W58M+CW Yangmei District, Taoyuan City, Taiwan",
  "website": null,
  "phone": "+886 3 482 3627",
  "temporarilyClosed": false,
  "permanentlyClosed": false,
  "rank": 109,
  "placeId": "ChIJr3gh_UQjaDQRKNkzgcBXAz8",
  "url": "https://www.google.com/maps/place/%E5%B4%87%E6%81%A9%E5%8B%95%E7%89%A9%E9%86%AB%E9%99%A2/@24.9160024,121.1826082,17z/data=!3m1!4b1!4m5!3m4!1s0x34682344fd2178af:0x3f0357c08133d928!8m2!3d24.9160024!4d121.1847969",
  "location": {
    "lat": 24.9160024,
    "lng": 121.1847969
  },
  "searchString": "桃園市的動物醫院",
  "openingHours": [
    {
      "day": "Tuesday,",
      "hours": "8:30AM to 12PM, 1:30 to 9:30PM"
    },
    {
      "day": "Wednesday,",
      "hours": "8:30AM to 12PM, 1:30 to 9:30PM"
    },
    {
      "day": "Thursday",
      "hours": "(Mid-Autumn Festival), 8:30AM to 12PM, 1:30 to 9:30PM, Hours might differ"
    },
    {
      "day": "Friday,",
      "hours": "8:30AM to 12PM, 1:30 to 9:30PM"
    },
    {
      "day": "Saturday,",
      "hours": "8:30AM to 12PM, 1:30 to 9:30PM"
    },
    {
      "day": "Sunday,",
      "hours": "8:30AM to 12PM, 1:30 to 9:30PM"
    },
    {
      "day": "Monday,",
      "hours": "8:30AM to 12PM, 1:30 to 9:30PM"
    }
  ],
  "reviewsCount": 8
},
{
  "title": "寵愛動物醫院",
  "totalScore": 4.5,
  "categoryName": "",
  "address": "No. 176, Section 2, Daxing West Road, Taoyuan District, Taoyuan City, Taiwan 330             330桃園市桃園區大興西路二段176號",
  "locatedIn": null,
  "plusCode": "276W+3C Taoyuan District, Taoyuan City, Taiwan",
  "website": null,
  "phone": null,
  "temporarilyClosed": false,
  "permanentlyClosed": false,
  "rank": 102,
  "placeId": "ChIJZ6yG76UfaDQR4jFB7g97R3Q",
  "url": "https://www.google.com/maps/place/%E5%AF%B5%E6%84%9B%E5%8B%95%E7%89%A9%E9%86%AB%E9%99%A2/@25.0102397,121.293908,17z/data=!3m1!4b1!4m5!3m4!1s0x34681fa5ef86ac67:0x74477b0fee4131e2!8m2!3d25.0102397!4d121.2960967",
  "location": {
    "lat": 25.0102397,
    "lng": 121.2960967
  },
  "searchString": "桃園市的動物醫院",
  "reviewsCount": 2
},
{
  "title": "聯眾動物醫院",
  "totalScore": 3.7,
  "categoryName": "Hospital",
  "address": "No. 79, Wenhua Road, Daxi District, Taiwan 335             335大溪區文化路79號",
  "locatedIn": null,
  "plusCode": "V7JV+H9 Daxi District, Taoyuan City, Taiwan",
  "website": null,
  "phone": "+886 3 388 7799",
  "temporarilyClosed": false,
  "permanentlyClosed": false,
  "rank": 111,
  "placeId": "ChIJDfx_jSYYaDQR7Zxu-wZAmU8",
  "url": "https://www.google.com/maps/place/%E8%81%AF%E7%9C%BE%E5%8B%95%E7%89%A9%E9%86%AB%E9%99%A2/@24.881455,121.2912043,17z/data=!3m1!4b1!4m5!3m4!1s0x346818268d7ffc0d:0x4f994006fb6e9ced!8m2!3d24.881455!4d121.293393",
  "location": {
    "lat": 24.881455,
    "lng": 121.293393
  },
  "searchString": "桃園市的動物醫院",
  "openingHours": [
    {
      "day": "Tuesday,",
      "hours": "9:30AM to 12:30PM, 1:30 to 9:30PM"
    },
    {
      "day": "Wednesday,",
      "hours": "9:30AM to 12:30PM, 1:30 to 9:30PM"
    },
    {
      "day": "Thursday",
      "hours": "(Mid-Autumn Festival), 9:30AM to 12:30PM, 1:30 to 9:30PM, Hours might differ"
    },
    {
      "day": "Friday,",
      "hours": "9:30AM to 12:30PM, 1:30 to 9:30PM"
    },
    {
      "day": "Saturday,",
      "hours": "9:30AM to 12:30PM, 1:30 to 9:30PM"
    },
    {
      "day": "Sunday,",
      "hours": "Closed"
    },
    {
      "day": "Monday,",
      "hours": "9:30AM to 12:30PM, 1:30 to 9:30PM"
    }
  ],
  "reviewsCount": 9
},
{
  "title": "桃園市政府動物保護防疫處",
  "totalScore": 3.1,
  "categoryName": "Local government office",
  "address": "No. 57, Xianfu Road, Taoyuan District, Taoyuan City, Taiwan 330             330桃園市桃園區縣府路57號",
  "locatedIn": null,
  "plusCode": "X8V2+63 Taoyuan District, Taoyuan City, Taiwan",
  "website": "tycg.gov.tw",
  "phone": "+886 3 332 6742      phone operator5",
  "temporarilyClosed": false,
  "permanentlyClosed": false,
  "rank": 120,
  "placeId": "ChIJIdKq0QQfaDQR1Tqw7r2easo",
  "url": "https://www.google.com/maps/place/%E6%A1%83%E5%9C%92%E5%B8%82%E6%94%BF%E5%BA%9C%E5%8B%95%E7%89%A9%E4%BF%9D%E8%AD%B7%E9%98%B2%E7%96%AB%E8%99%95/@24.993107,121.2980414,17z/data=!3m1!4b1!4m5!3m4!1s0x34681f04d1aad221:0xca6a9ebdeeb03ad5!8m2!3d24.993107!4d121.3002301",
  "location": {
    "lat": 24.993107,
    "lng": 121.3002301
  },
  "searchString": "桃園市的動物醫院",
  "openingHours": [
    {
      "day": "Tuesday,",
      "hours": "8AM to 12PM, 1 to 5PM"
    },
    {
      "day": "Wednesday,",
      "hours": "8AM to 12PM, 1 to 5PM"
    },
    {
      "day": "Thursday",
      "hours": "(Mid-Autumn Festival), 8AM to 12PM, 1 to 5PM, Hours might differ"
    },
    {
      "day": "Friday,",
      "hours": "8AM to 12PM, 1 to 5PM"
    },
    {
      "day": "Saturday,",
      "hours": "Closed"
    },
    {
      "day": "Sunday,",
      "hours": "Closed"
    },
    {
      "day": "Monday,",
      "hours": "8AM to 12PM, 1 to 5PM"
    }
  ],
  "reviewsCount": 33
},
{
  "title": "宥昇動物醫院",
  "totalScore": "",
  "categoryName": "",
  "address": "No. 97號, Minzu Road, Taoyuan District, Taoyuan City, Taiwan 330             330桃園市桃園區民族路97號",
  "locatedIn": null,
  "plusCode": "X8R5+JP Taoyuan District, Taoyuan City, Taiwan",
  "website": null,
  "phone": "+886 3 335 6109",
  "temporarilyClosed": false,
  "permanentlyClosed": false,
  "rank": 105,
  "placeId": "ChIJ4ZWcRP0eaDQRyfzFZE3PCYQ",
  "url": "https://www.google.com/maps/place/%E5%AE%A5%E6%98%87%E5%8B%95%E7%89%A9%E9%86%AB%E9%99%A2/@24.991529,121.3070633,17z/data=!3m1!4b1!4m5!3m4!1s0x34681efd449c95e1:0x8409cf4d64c5fcc9!8m2!3d24.991529!4d121.309252",
  "location": {
    "lat": 24.991529,
    "lng": 121.309252
  },
  "searchString": "桃園市的動物醫院"
},
{
  "title": "耐斯動物醫院",
  "totalScore": 4.5,
  "categoryName": "Hospital",
  "address": "No. 189-1號, Huanzhong East Road, Zhongli District, Taoyuan City, Taiwan 320             320桃園市中壢區環中東路189-1號",
  "locatedIn": null,
  "plusCode": "X775+J6 Zhongli District, Taoyuan City, Taiwan",
  "website": null,
  "phone": "+886 3 433 5966",
  "temporarilyClosed": false,
  "permanentlyClosed": false,
  "rank": 106,
  "placeId": "ChIJCRFPmAYiaDQR_Z0Pic3498Y",
  "url": "https://www.google.com/maps/place/%E8%80%90%E6%96%AF%E5%8B%95%E7%89%A9%E9%86%AB%E9%99%A2/@24.9640718,121.2559003,17z/data=!3m1!4b1!4m5!3m4!1s0x34682206984f1109:0xc6f7f8cd890f9dfd!8m2!3d24.9640718!4d121.258089",
  "location": {
    "lat": 24.9640718,
    "lng": 121.258089
  },
  "searchString": "桃園市的動物醫院",
  "openingHours": [
    {
      "day": "Tuesday,",
      "hours": "10:30AM to 9:30PM"
    },
    {
      "day": "Wednesday,",
      "hours": "10:30AM to 9:30PM"
    },
    {
      "day": "Thursday",
      "hours": "(Mid-Autumn Festival), 10:30AM to 9:30PM, Hours might differ"
    },
    {
      "day": "Friday,",
      "hours": "10:30AM to 9:30PM"
    },
    {
      "day": "Saturday,",
      "hours": "10:30AM to 9:30PM"
    },
    {
      "day": "Sunday,",
      "hours": "Closed"
    },
    {
      "day": "Monday,",
      "hours": "10:30AM to 9:30PM"
    }
  ],
  "reviewsCount": 24
},
{
  "title": "旺旺動物醫院",
  "totalScore": 4.5,
  "categoryName": "Hospital",
  "address": "No. 58號, Longyuan Road, Longtan District, Taoyuan City, Taiwan 325             325桃園市龍潭區龍元路58號",
  "locatedIn": null,
  "plusCode": "V686+3X Longtan District, Taoyuan City, Taiwan",
  "website": "blog.xuite.net",
  "phone": "+886 3 470 3048",
  "temporarilyClosed": false,
  "permanentlyClosed": false,
  "rank": 107,
  "placeId": "ChIJz07VQOM8aDQRLNnDtih27HI",
  "url": "https://www.google.com/maps/place/%E6%97%BA%E6%97%BA%E5%8B%95%E7%89%A9%E9%86%AB%E9%99%A2/@24.865157,121.2101893,17z/data=!3m1!4b1!4m5!3m4!1s0x34683ce340d54ecf:0x72ec7628b6c3d92c!8m2!3d24.865157!4d121.212378",
  "location": {
    "lat": 24.865157,
    "lng": 121.212378
  },
  "searchString": "桃園市的動物醫院",
  "openingHours": [
    {
      "day": "Tuesday,",
      "hours": "9AM to 9PM"
    },
    {
      "day": "Wednesday,",
      "hours": "9AM to 9PM"
    },
    {
      "day": "Thursday",
      "hours": "(Mid-Autumn Festival), 9AM to 9PM, Hours might differ"
    },
    {
      "day": "Friday,",
      "hours": "9AM to 9PM"
    },
    {
      "day": "Saturday,",
      "hours": "9AM to 9PM"
    },
    {
      "day": "Sunday,",
      "hours": "9AM to 12PM"
    },
    {
      "day": "Monday,",
      "hours": "9AM to 9PM"
    }
  ],
  "reviewsCount": 26
},
{
  "title": "和平動物醫院",
  "totalScore": 4,
  "categoryName": "",
  "address": "No. 113, Section 2, Jieshou Road, Bade District, Taiwan 334             334八德區介壽路二段113號",
  "locatedIn": null,
  "plusCode": "X74X+3G Bade District, Taoyuan City, Taiwan",
  "website": null,
  "phone": "+886 3 363 5820",
  "temporarilyClosed": false,
  "permanentlyClosed": false,
  "rank": 112,
  "placeId": "ChIJHZr0j9EYaDQRrsmj83o_cc0",
  "url": "https://www.google.com/maps/place/%E5%92%8C%E5%B9%B3%E5%8B%95%E7%89%A9%E9%86%AB%E9%99%A2/@24.9551447,121.2966669,17z/data=!3m1!4b1!4m5!3m4!1s0x346818d18ff49a1d:0xcd713f7af3a3c9ae!8m2!3d24.9551447!4d121.2988556",
  "location": {
    "lat": 24.9551447,
    "lng": 121.2988556
  },
  "searchString": "桃園市的動物醫院",
  "reviewsCount": 10
},
{
  "title": "晨曦寵物龍安店-(桃園市區)推薦寵物美容店 寵旅旅館狗貓咪住宿 領養 剪毛修毛 寵物商品店",
  "totalScore": 4.1,
  "categoryName": "Pet store",
  "address": "No. 109號, Longan Street, Taoyuan District, Taoyuan City, Taiwan 330             330桃園市桃園區龍安街109號",
  "locatedIn": null,
  "plusCode": "X7QH+VX Taoyuan District, Taoyuan City, Taiwan",
  "website": "facebook.com",
  "phone": "+886 3 360 9911",
  "temporarilyClosed": false,
  "permanentlyClosed": false,
  "rank": 101,
  "placeId": "ChIJ5Y3o1WsfaDQRhfp-uecJY7M",
  "url": "https://www.google.com/maps/place/%E6%99%A8%E6%9B%A6%E5%AF%B5%E7%89%A9%E9%BE%8D%E5%AE%89%E5%BA%97-(%E6%A1%83%E5%9C%92%E5%B8%82%E5%8D%80)%E6%8E%A8%E8%96%A6%E5%AF%B5%E7%89%A9%E7%BE%8E%E5%AE%B9%E5%BA%97+%E5%AF%B5%E6%97%85%E6%97%85%E9%A4%A8%E7%8B%97%E8%B2%93%E5%92%AA%E4%BD%8F%E5%AE%BF+%E9%A0%98%E9%A4%8A+%E5%89%AA%E6%AF%9B%E4%BF%AE%E6%AF%9B+%E5%AF%B5%E7%89%A9%E5%95%86%E5%93%81%E5%BA%97/@24.9897242,121.2777034,17z/data=!3m1!4b1!4m5!3m4!1s0x34681f6bd5e88de5:0xb36309e7b97efa85!8m2!3d24.9897242!4d121.2798921",
  "location": {
    "lat": 24.9897242,
    "lng": 121.2798921
  },
  "searchString": "桃園市的動物醫院",
  "openingHours": [
    {
      "day": "Tuesday,",
      "hours": "10AM to 10PM"
    },
    {
      "day": "Wednesday,",
      "hours": "10AM to 10PM"
    },
    {
      "day": "Thursday",
      "hours": "(Mid-Autumn Festival), 10AM to 10PM, Hours might differ"
    },
    {
      "day": "Friday,",
      "hours": "10AM to 10PM"
    },
    {
      "day": "Saturday,",
      "hours": "10AM to 10PM"
    },
    {
      "day": "Sunday,",
      "hours": "10AM to 10PM"
    },
    {
      "day": "Monday,",
      "hours": "10AM to 10PM"
    }
  ],
  "reviewsCount": 98
},
{
  "title": "劉獸醫藥品服務中心",
  "totalScore": 5,
  "categoryName": "",
  "address": "No. 122, Zhongzheng East Road, Dayuan District, Taoyuan City, Taiwan 337             337桃園市大園區中正東路122號",
  "locatedIn": null,
  "plusCode": "3662+WF Dayuan District, Taoyuan City, Taiwan",
  "website": null,
  "phone": "+886 3 386 2425",
  "temporarilyClosed": false,
  "permanentlyClosed": false,
  "rank": 117,
  "placeId": "ChIJMasZlZsgaDQRtzebi7MOl_w",
  "url": "https://www.google.com/maps/place/%E5%8A%89%E7%8D%B8%E9%86%AB%E8%97%A5%E5%93%81%E6%9C%8D%E5%8B%99%E4%B8%AD%E5%BF%83/@25.062335,121.1990143,17z/data=!3m1!4b1!4m5!3m4!1s0x3468209b9519ab31:0xfc970eb38b9b37b7!8m2!3d25.062335!4d121.201203",
  "location": {
    "lat": 25.062335,
    "lng": 121.201203
  },
  "searchString": "桃園市的動物醫院",
  "reviewsCount": 2
},
{
  "title": "樂米動物醫院",
  "totalScore": 3.4,
  "categoryName": "Animal hospital",
  "address": "330, Taiwan, Taoyuan City, Taoyuan District, No206Zhongzheng 5th Street號             330桃園市桃園區No206Zhongzheng 5th Street號",
  "locatedIn": null,
  "plusCode": "2832+R9 Taoyuan District, Taoyuan City, Taiwan",
  "website": null,
  "phone": "+886 3 355 7073",
  "temporarilyClosed": false,
  "permanentlyClosed": false,
  "rank": 94,
  "placeId": "ChIJXyP6tasfaDQRjTPUe-N5Y6c",
  "url": "https://www.google.com/maps/place/%E6%A8%82%E7%B1%B3%E5%8B%95%E7%89%A9%E9%86%AB%E9%99%A2/@25.004501,121.2988076,17z/data=!3m1!4b1!4m5!3m4!1s0x34681fabb5fa235f:0xa76379e37bd4338d!8m2!3d25.004501!4d121.3009963",
  "location": {
    "lat": 25.004501,
    "lng": 121.3009963
  },
  "searchString": "桃園市的動物醫院",
  "openingHours": [
    {
      "day": "Tuesday,",
      "hours": "10AM to 12PM, 2 to 9PM"
    },
    {
      "day": "Wednesday,",
      "hours": "10AM to 12PM, 2 to 9PM"
    },
    {
      "day": "Thursday",
      "hours": "(Mid-Autumn Festival), 10AM to 12PM, 2 to 9PM, Hours might differ"
    },
    {
      "day": "Friday,",
      "hours": "10AM to 12PM, 2 to 9PM"
    },
    {
      "day": "Saturday,",
      "hours": "10AM to 12PM, 2 to 9PM"
    },
    {
      "day": "Sunday,",
      "hours": "Closed"
    },
    {
      "day": "Monday,",
      "hours": "Closed"
    }
  ],
  "reviewsCount": 54
},
{
  "title": "愛心動物醫院",
  "totalScore": 4.4,
  "categoryName": "",
  "address": "No. 23, Zhongning Street, Taoyuan District, Taoyuan City, Taiwan 330             330桃園市桃園區中寧街23號",
  "locatedIn": null,
  "plusCode": "279W+56 Taoyuan District, Taoyuan City, Taiwan",
  "website": null,
  "phone": "+886 3 358 5827",
  "temporarilyClosed": false,
  "permanentlyClosed": false,
  "rank": 93,
  "placeId": "ChIJocobXrofaDQR1xM2gh_3eck",
  "url": "https://www.google.com/maps/place/%E6%84%9B%E5%BF%83%E5%8B%95%E7%89%A9%E9%86%AB%E9%99%A2/@25.017941,121.2933153,17z/data=!3m1!4b1!4m5!3m4!1s0x34681fba5e1bcaa1:0xc979f71f823613d7!8m2!3d25.017941!4d121.295504",
  "location": {
    "lat": 25.017941,
    "lng": 121.295504
  },
  "searchString": "桃園市的動物醫院",
  "openingHours": [
    {
      "day": "Tuesday,",
      "hours": "10AM to 9PM"
    },
    {
      "day": "Wednesday,",
      "hours": "10AM to 9PM"
    },
    {
      "day": "Thursday",
      "hours": "(Mid-Autumn Festival), 10AM to 9PM, Hours might differ"
    },
    {
      "day": "Friday,",
      "hours": "10AM to 9PM"
    },
    {
      "day": "Saturday,",
      "hours": "10AM to 9PM"
    },
    {
      "day": "Sunday,",
      "hours": "Closed"
    },
    {
      "day": "Monday,",
      "hours": "10AM to 9PM"
    }
  ],
  "reviewsCount": 16
},
{
  "title": "綠崧動物醫院",
  "totalScore": 4.2,
  "categoryName": "Animal hospital",
  "address": "No. 112, Section 2, Huanzhong East Road, Zhongli District, Taoyuan City, Taiwan 320             320桃園市中壢區環中東路二段112號",
  "locatedIn": null,
  "plusCode": "X62Q+25 Zhongli District, Taoyuan City, Taiwan",
  "website": null,
  "phone": "+886 3 465 3266",
  "temporarilyClosed": false,
  "permanentlyClosed": false,
  "rank": 86,
  "placeId": "ChIJcxwGlkEiaDQRe32NBNaR2V4",
  "url": "https://www.google.com/maps/place/%E7%B6%A0%E5%B4%A7%E5%8B%95%E7%89%A9%E9%86%AB%E9%99%A2/@24.9501136,121.2357602,17z/data=!3m1!4b1!4m5!3m4!1s0x3468224196061c73:0x5ed991d6048d7d7b!8m2!3d24.9501136!4d121.2379489",
  "location": {
    "lat": 24.9501136,
    "lng": 121.2379489
  },
  "searchString": "桃園市的動物醫院",
  "openingHours": [
    {
      "day": "Tuesday,",
      "hours": "9:30AM to 12PM, 2 to 6PM, 6:30 to 9PM"
    },
    {
      "day": "Wednesday,",
      "hours": "9:30AM to 12PM, 2 to 6PM, 6:30 to 9PM"
    },
    {
      "day": "Thursday",
      "hours": "(Mid-Autumn Festival), 9:30AM to 12PM, 2 to 6PM, 6:30 to 9PM, Hours might differ"
    },
    {
      "day": "Friday,",
      "hours": "9:30AM to 12PM, 2 to 6PM, 6:30 to 9PM"
    },
    {
      "day": "Saturday,",
      "hours": "9:30AM to 12PM, 2 to 6PM, 6:30 to 9PM"
    },
    {
      "day": "Sunday,",
      "hours": "9:30AM to 12PM"
    },
    {
      "day": "Monday,",
      "hours": "Closed"
    }
  ],
  "reviewsCount": 79
},
{
  "title": "守足動物醫院",
  "totalScore": 5,
  "categoryName": "Hospital",
  "address": "No. 61號, Shangxing Road, Luzhu District, Taoyuan City, Taiwan 338             338桃園市蘆竹區上興路61號",
  "locatedIn": null,
  "plusCode": "2797+QX Luzhu District, Taoyuan City, Taiwan",
  "website": null,
  "phone": "+886 3 323 3866",
  "temporarilyClosed": false,
  "permanentlyClosed": false,
  "rank": 99,
  "placeId": "ChIJiSZTNkUfaDQRQuOp7HSIKEA",
  "url": "https://www.google.com/maps/place/%E5%AE%88%E8%B6%B3%E5%8B%95%E7%89%A9%E9%86%AB%E9%99%A2/@25.0194799,121.2627793,17z/data=!3m1!4b1!4m5!3m4!1s0x34681f4536532689:0x40288874eca9e342!8m2!3d25.0194799!4d121.264968",
  "location": {
    "lat": 25.0194799,
    "lng": 121.264968
  },
  "searchString": "桃園市的動物醫院",
  "openingHours": [
    {
      "day": "Tuesday,",
      "hours": "10AM to 2PM, 3 to 8:30PM"
    },
    {
      "day": "Wednesday,",
      "hours": "10AM to 2PM, 3 to 8:30PM"
    },
    {
      "day": "Thursday",
      "hours": "(Mid-Autumn Festival), 10AM to 2PM, 3 to 8:30PM, Hours might differ"
    },
    {
      "day": "Friday,",
      "hours": "10AM to 2PM, 3 to 8:30PM"
    },
    {
      "day": "Saturday,",
      "hours": "10AM to 2PM, 3 to 8:30PM"
    },
    {
      "day": "Sunday,",
      "hours": "10AM to 5PM"
    },
    {
      "day": "Monday,",
      "hours": "Closed"
    }
  ],
  "reviewsCount": 14
},
{
  "title": "Con-Chi Animal Hospital",
  "totalScore": 3.9,
  "categoryName": "Animal hospital",
  "address": "No. 50號, Section 2, Yuanhua Road, Zhongli District, Taoyuan City, Taiwan 320             320桃園市中壢區元化路二段50號",
  "locatedIn": null,
  "plusCode": "X67C+2J Zhongli District, Taoyuan City, Taiwan",
  "website": null,
  "phone": "+886 3 427 8606",
  "temporarilyClosed": false,
  "permanentlyClosed": false,
  "rank": 82,
  "placeId": "ChIJaUdgEjQiaDQRdC0D_9c3E9o",
  "url": "https://www.google.com/maps/place/Con-Chi+Animal+Hospital/@24.9625872,121.2193618,17z/data=!3m1!4b1!4m5!3m4!1s0x3468223412604769:0xda1337d7ff032d74!8m2!3d24.9625872!4d121.2215505",
  "location": {
    "lat": 24.9625872,
    "lng": 121.2215505
  },
  "searchString": "桃園市的動物醫院",
  "openingHours": [
    {
      "day": "Tuesday,",
      "hours": "10AM to 5PM, 6:30 to 9:30PM"
    },
    {
      "day": "Wednesday,",
      "hours": "10AM to 5PM, 6:30 to 9:30PM"
    },
    {
      "day": "Thursday",
      "hours": "(Mid-Autumn Festival), 10AM to 5PM, 6:30 to 9:30PM, Hours might differ"
    },
    {
      "day": "Friday,",
      "hours": "10AM to 5PM, 6:30 to 9:30PM"
    },
    {
      "day": "Saturday,",
      "hours": "10AM to 5PM, 6:30 to 9:30PM"
    },
    {
      "day": "Sunday,",
      "hours": "Closed"
    },
    {
      "day": "Monday,",
      "hours": "10AM to 5PM, 6:30 to 9:30PM"
    }
  ],
  "reviewsCount": 114
},
{
  "title": "新興動物藥品有限公司",
  "totalScore": 3.9,
  "categoryName": "Animal hospital",
  "address": "No. 65號, Section 1, Yanping Rd, Pingzhen District, Taoyuan City, Taiwan 324             324桃園市平鎮區延平路一段65號",
  "locatedIn": null,
  "plusCode": "X629+JW Pingzhen District, Taoyuan City, Taiwan",
  "website": null,
  "phone": "+886 3 422 2594",
  "temporarilyClosed": false,
  "permanentlyClosed": false,
  "rank": 89,
  "placeId": "ChIJoSTGYEwiaDQR1mGh_yo35Mw",
  "url": "https://www.google.com/maps/place/%E6%96%B0%E8%88%88%E5%8B%95%E7%89%A9%E8%97%A5%E5%93%81%E6%9C%89%E9%99%90%E5%85%AC%E5%8F%B8/@24.9515877,121.2176846,17z/data=!3m1!4b1!4m5!3m4!1s0x3468224c60c624a1:0xcce4372affa161d6!8m2!3d24.9515877!4d121.2198733",
  "location": {
    "lat": 24.9515877,
    "lng": 121.2198733
  },
  "searchString": "桃園市的動物醫院",
  "openingHours": [
    {
      "day": "Tuesday,",
      "hours": "8:15AM to 9PM"
    },
    {
      "day": "Wednesday,",
      "hours": "8:15AM to 9PM"
    },
    {
      "day": "Thursday",
      "hours": "(Mid-Autumn Festival), 8:15AM to 9PM, Hours might differ"
    },
    {
      "day": "Friday,",
      "hours": "8:15AM to 9PM"
    },
    {
      "day": "Saturday,",
      "hours": "8:15AM to 9PM"
    },
    {
      "day": "Sunday,",
      "hours": "8:15AM to 12PM"
    },
    {
      "day": "Monday,",
      "hours": "8:15AM to 9PM"
    }
  ],
  "reviewsCount": 47
},
{
  "title": "安泰動物醫院",
  "totalScore": 2.6,
  "categoryName": "Veterinarian",
  "address": "No. 628號, Zhongzheng Road, Zhongli District, Taoyuan City, Taiwan 320             320桃園市中壢區中正路628號",
  "locatedIn": null,
  "plusCode": "X656+X9 Zhongli District, Taoyuan City, Taiwan",
  "website": null,
  "phone": "+886 3 491 4162",
  "temporarilyClosed": false,
  "permanentlyClosed": false,
  "rank": 88,
  "placeId": "ChIJWfDgALYjaDQRM8hXfzaXjS4",
  "url": "https://www.google.com/maps/place/%E5%AE%89%E6%B3%B0%E5%8B%95%E7%89%A9%E9%86%AB%E9%99%A2/@24.9599839,121.2087673,17z/data=!3m1!4b1!4m5!3m4!1s0x346823b600e0f059:0x2e8d97367f57c833!8m2!3d24.9599839!4d121.210956",
  "location": {
    "lat": 24.9599839,
    "lng": 121.210956
  },
  "searchString": "桃園市的動物醫院",
  "openingHours": [
    {
      "day": "Tuesday,",
      "hours": "10AM to 9PM"
    },
    {
      "day": "Wednesday,",
      "hours": "10AM to 9PM"
    },
    {
      "day": "Thursday",
      "hours": "(Mid-Autumn Festival), 10AM to 9PM, Hours might differ"
    },
    {
      "day": "Friday,",
      "hours": "10AM to 9PM"
    },
    {
      "day": "Saturday,",
      "hours": "10AM to 9PM"
    },
    {
      "day": "Sunday,",
      "hours": "Closed"
    },
    {
      "day": "Monday,",
      "hours": "10AM to 9PM"
    }
  ],
  "reviewsCount": 40
},
{
  "title": "春風動物醫院",
  "totalScore": 4.9,
  "categoryName": "Animal hospital",
  "address": "338, Taiwan, Taoyuan City, Luzhu District, Daxin Road, 171號1樓             338桃園市蘆竹區大新路171號1樓",
  "locatedIn": null,
  "plusCode": "27F3+WH Luzhu District, Taoyuan City, Taiwan",
  "website": "facebook.com",
  "phone": "+886 3 313 8014",
  "temporarilyClosed": false,
  "permanentlyClosed": false,
  "rank": 84,
  "placeId": "ChIJTRTpqx0haDQR97zYO1f5ZVA",
  "url": "https://www.google.com/maps/place/%E6%98%A5%E9%A2%A8%E5%8B%95%E7%89%A9%E9%86%AB%E9%99%A2/@25.0248003,121.2517715,17z/data=!3m1!4b1!4m5!3m4!1s0x3468211dabe9144d:0x5065f9573bd8bcf7!8m2!3d25.0248003!4d121.2539602",
  "location": {
    "lat": 25.0248003,
    "lng": 121.2539602
  },
  "searchString": "桃園市的動物醫院",
  "openingHours": [
    {
      "day": "Tuesday,",
      "hours": "6 to 10PM"
    },
    {
      "day": "Wednesday,",
      "hours": "11AM to 10PM"
    },
    {
      "day": "Thursday",
      "hours": "(Mid-Autumn Festival), 11AM to 6PM, Holiday hours"
    },
    {
      "day": "Friday,",
      "hours": "Closed"
    },
    {
      "day": "Saturday,",
      "hours": "6 to 10PM"
    },
    {
      "day": "Sunday,",
      "hours": "11AM to 10PM"
    },
    {
      "day": "Monday,",
      "hours": "11AM to 10PM"
    }
  ],
  "reviewsCount": 37
},
{
  "title": "青山犬舍",
  "totalScore": 4.7,
  "categoryName": "Animal hospital",
  "address": "No. 229, Chunri Road, Taoyuan District, Taoyuan City, Taiwan 330             330桃園市桃園區春日路229號",
  "locatedIn": null,
  "plusCode": "X8W8+W4 Taoyuan District, Taoyuan City, Taiwan",
  "website": null,
  "phone": "+886 3 333 3600",
  "temporarilyClosed": false,
  "permanentlyClosed": false,
  "rank": 98,
  "placeId": "ChIJufq_3vgeaDQR0hKUN8aWaJU",
  "url": "https://www.google.com/maps/place/%E9%9D%92%E5%B1%B1%E7%8A%AC%E8%88%8D/@24.9972971,121.3131401,17z/data=!3m1!4b1!4m5!3m4!1s0x34681ef8debffab9:0x956896c6379412d2!8m2!3d24.9972971!4d121.3153288",
  "location": {
    "lat": 24.9972971,
    "lng": 121.3153288
  },
  "searchString": "桃園市的動物醫院",
  "openingHours": [
    {
      "day": "Tuesday,",
      "hours": "10AM to 9PM"
    },
    {
      "day": "Wednesday,",
      "hours": "10AM to 9PM"
    },
    {
      "day": "Thursday",
      "hours": "(Mid-Autumn Festival), 10AM to 9PM, Hours might differ"
    },
    {
      "day": "Friday,",
      "hours": "10AM to 9PM"
    },
    {
      "day": "Saturday,",
      "hours": "10AM to 9PM"
    },
    {
      "day": "Sunday,",
      "hours": "Closed"
    },
    {
      "day": "Monday,",
      "hours": "10AM to 9PM"
    }
  ],
  "reviewsCount": 48
},
{
  "title": "大興動物醫院美容院",
  "totalScore": "",
  "categoryName": "Hospital",
  "address": "No. 831, Yong'an Road, Taoyuan District, Taoyuan City, Taiwan 330             330桃園市桃園區永安路831號",
  "locatedIn": null,
  "plusCode": "275Q+8M Taoyuan District, Taoyuan City, Taiwan",
  "website": null,
  "phone": "+886 3 302 5236",
  "temporarilyClosed": false,
  "permanentlyClosed": false,
  "rank": 95,
  "placeId": "ChIJI6Up46AfaDQRalzQVJRRUFg",
  "url": "https://www.google.com/maps/place/%E5%A4%A7%E8%88%88%E5%8B%95%E7%89%A9%E9%86%AB%E9%99%A2%E7%BE%8E%E5%AE%B9%E9%99%A2/@25.008347,121.2869423,17z/data=!3m1!4b1!4m5!3m4!1s0x34681fa0e329a523:0x5850519454d05c6a!8m2!3d25.008347!4d121.289131",
  "location": {
    "lat": 25.008347,
    "lng": 121.289131
  },
  "searchString": "桃園市的動物醫院",
  "openingHours": [
    {
      "day": "Tuesday,",
      "hours": "8AM to 6PM"
    },
    {
      "day": "Wednesday,",
      "hours": "8AM to 6PM"
    },
    {
      "day": "Thursday",
      "hours": "(Mid-Autumn Festival), 8AM to 6PM, Hours might differ"
    },
    {
      "day": "Friday,",
      "hours": "8AM to 6PM"
    },
    {
      "day": "Saturday,",
      "hours": "Closed"
    },
    {
      "day": "Sunday,",
      "hours": "Closed"
    },
    {
      "day": "Monday,",
      "hours": "8AM to 6PM"
    }
  ]
},
{
  "title": "振愛動物醫院",
  "totalScore": 4.9,
  "categoryName": "Hospital",
  "address": "No. 188, Longdong Road, Zhongli District, Taoyuan City, Taiwan 320             320桃園市中壢區龍東路188號",
  "locatedIn": null,
  "plusCode": "W7H3+V6 Zhongli District, Taoyuan City, Taiwan",
  "website": "m.facebook.com",
  "phone": "+886 3 465 2934",
  "temporarilyClosed": false,
  "permanentlyClosed": false,
  "rank": 90,
  "placeId": "ChIJ5ZYLZn0iaDQRJQv3-oxmV_s",
  "url": "https://www.google.com/maps/place/%E6%8C%AF%E6%84%9B%E5%8B%95%E7%89%A9%E9%86%AB%E9%99%A2/@24.9296279,121.2508563,17z/data=!3m1!4b1!4m5!3m4!1s0x3468227d660b96e5:0xfb57668cfaf70b25!8m2!3d24.9296279!4d121.253045",
  "location": {
    "lat": 24.9296279,
    "lng": 121.253045
  },
  "searchString": "桃園市的動物醫院",
  "openingHours": [
    {
      "day": "Tuesday,",
      "hours": "10AM to 10PM"
    },
    {
      "day": "Wednesday,",
      "hours": "10AM to 10PM"
    },
    {
      "day": "Thursday",
      "hours": "(Mid-Autumn Festival), 10AM to 10PM, Hours might differ"
    },
    {
      "day": "Friday,",
      "hours": "10AM to 10PM"
    },
    {
      "day": "Saturday,",
      "hours": "10AM to 10PM"
    },
    {
      "day": "Sunday,",
      "hours": "Closed"
    },
    {
      "day": "Monday,",
      "hours": "10AM to 10PM"
    }
  ],
  "reviewsCount": 11
},
{
  "title": "泛亞動物醫院",
  "totalScore": 4.8,
  "categoryName": "Hospital",
  "address": "325, Taiwan, Taoyuan City, Longtan District, Donglong Road, 285號號             325桃園市龍潭區東龍路285號號",
  "locatedIn": null,
  "plusCode": "V687+F9 Longtan District, Taoyuan City, Taiwan",
  "website": null,
  "phone": "+886 3 480 3728",
  "temporarilyClosed": false,
  "permanentlyClosed": false,
  "rank": 97,
  "placeId": "ChIJSSKABuM8aDQRBz1kwLgzYLs",
  "url": "https://www.google.com/maps/place/%E6%B3%9B%E4%BA%9E%E5%8B%95%E7%89%A9%E9%86%AB%E9%99%A2/@24.866238,121.2112649,17z/data=!3m1!4b1!4m5!3m4!1s0x34683ce306802249:0xbb6033b8c0643d07!8m2!3d24.866238!4d121.2134536",
  "location": {
    "lat": 24.866238,
    "lng": 121.2134536
  },
  "searchString": "桃園市的動物醫院",
  "openingHours": [
    {
      "day": "Tuesday,",
      "hours": "9AM to 9PM"
    },
    {
      "day": "Wednesday,",
      "hours": "9AM to 9PM"
    },
    {
      "day": "Thursday",
      "hours": "(Mid-Autumn Festival), 9AM to 9PM, Hours might differ"
    },
    {
      "day": "Friday,",
      "hours": "9AM to 9PM"
    },
    {
      "day": "Saturday,",
      "hours": "9AM to 9PM"
    },
    {
      "day": "Sunday,",
      "hours": "Closed"
    },
    {
      "day": "Monday,",
      "hours": "9AM to 9PM"
    }
  ],
  "reviewsCount": 17
},
{
  "title": "中原動物醫院",
  "totalScore": 4,
  "categoryName": "Animal hospital",
  "address": "No. 447, Huanbei Road, Zhongli District, Taiwan 320             320中壢區環北路447號",
  "locatedIn": null,
  "plusCode": "X68G+8Q Zhongli District, Taoyuan City, Taiwan",
  "website": "facebook.com",
  "phone": "+886 3 451 2927",
  "temporarilyClosed": false,
  "permanentlyClosed": false,
  "rank": 85,
  "placeId": "ChIJFYA3FDAiaDQRqSX7jr5nQ8E",
  "url": "https://www.google.com/maps/place/%E4%B8%AD%E5%8E%9F%E5%8B%95%E7%89%A9%E9%86%AB%E9%99%A2/@24.9657615,121.2248054,17z/data=!3m1!4b1!4m5!3m4!1s0x3468223014378015:0xc14367be8efb25a9!8m2!3d24.9657615!4d121.2269941",
  "location": {
    "lat": 24.9657615,
    "lng": 121.2269941
  },
  "searchString": "桃園市的動物醫院",
  "openingHours": [
    {
      "day": "Tuesday,",
      "hours": "9AM to 9PM"
    },
    {
      "day": "Wednesday,",
      "hours": "9AM to 9PM"
    },
    {
      "day": "Thursday",
      "hours": "(Mid-Autumn Festival), 9AM to 9PM, Hours might differ"
    },
    {
      "day": "Friday,",
      "hours": "9AM to 9PM"
    },
    {
      "day": "Saturday,",
      "hours": "9AM to 9PM"
    },
    {
      "day": "Sunday,",
      "hours": "Closed"
    },
    {
      "day": "Monday,",
      "hours": "9AM to 9PM"
    }
  ],
  "reviewsCount": 92
},
{
  "title": "琪欣動物醫院",
  "totalScore": 4.3,
  "categoryName": "Hospital",
  "address": "No. 99, Wenhua 3rd Road, Guishan District, Taoyuan City, Taiwan 333             333桃園市龜山區文化三路99號",
  "locatedIn": null,
  "plusCode": "3957+3H Guishan District, Taoyuan City, Taiwan",
  "website": null,
  "phone": "+886 3 397 9825",
  "temporarilyClosed": false,
  "permanentlyClosed": false,
  "rank": 81,
  "placeId": "ChIJJVmaNDenQjQRn4kBHZ51Vvc",
  "url": "https://www.google.com/maps/place/%E7%90%AA%E6%AC%A3%E5%8B%95%E7%89%A9%E9%86%AB%E9%99%A2/@25.0576947,121.361809,17z/data=!3m1!4b1!4m5!3m4!1s0x3442a737349a5925:0xf756759e1d01899f!8m2!3d25.0576947!4d121.3639977",
  "location": {
    "lat": 25.0576947,
    "lng": 121.3639977
  },
  "searchString": "桃園市的動物醫院",
  "openingHours": [
    {
      "day": "Tuesday,",
      "hours": "10AM to 12PM, 2 to 9PM"
    },
    {
      "day": "Wednesday,",
      "hours": "10AM to 12PM, 2 to 9PM"
    },
    {
      "day": "Thursday",
      "hours": "(Mid-Autumn Festival), 10AM to 12PM, 2 to 9PM, Hours might differ"
    },
    {
      "day": "Friday,",
      "hours": "10AM to 12PM, 2 to 9PM"
    },
    {
      "day": "Saturday,",
      "hours": "10AM to 12PM, 2 to 9PM"
    },
    {
      "day": "Sunday,",
      "hours": "Closed"
    },
    {
      "day": "Monday,",
      "hours": "10AM to 12PM, 2 to 9PM"
    }
  ],
  "reviewsCount": 73
},
{
  "title": "中泰動物醫院",
  "totalScore": 4.1,
  "categoryName": "Animal hospital",
  "address": "號 No. 408, Section 1, Zhonghua Road, Zhongli District, Taoyuan City, Taiwan 320             號 No. 408, 中華路一段中壢區桃園市320",
  "locatedIn": null,
  "plusCode": "X7C3+HR Zhongli District, Taoyuan City, Taiwan",
  "website": null,
  "phone": "+886 3 455 0405",
  "temporarilyClosed": false,
  "permanentlyClosed": false,
  "rank": 87,
  "placeId": "ChIJZZd-gvghaDQRrQ2qwbGO1ik",
  "url": "https://www.google.com/maps/place/%E4%B8%AD%E6%B3%B0%E5%8B%95%E7%89%A9%E9%86%AB%E9%99%A2/@24.971393,121.2523843,17z/data=!3m1!4b1!4m5!3m4!1s0x346821f8827e9765:0x29d68eb1c1aa0dad!8m2!3d24.971393!4d121.254573",
  "location": {
    "lat": 24.971393,
    "lng": 121.254573
  },
  "searchString": "桃園市的動物醫院",
  "openingHours": [
    {
      "day": "Tuesday,",
      "hours": "9AM to 9PM"
    },
    {
      "day": "Wednesday,",
      "hours": "9AM to 9PM"
    },
    {
      "day": "Thursday",
      "hours": "(Mid-Autumn Festival), 9AM to 9PM, Hours might differ"
    },
    {
      "day": "Friday,",
      "hours": "9AM to 9PM"
    },
    {
      "day": "Saturday,",
      "hours": "9AM to 9PM"
    },
    {
      "day": "Sunday,",
      "hours": "Closed"
    },
    {
      "day": "Monday,",
      "hours": "9AM to 9PM"
    }
  ],
  "reviewsCount": 49
},
{
  "title": "仟祐動物醫院",
  "totalScore": 3.9,
  "categoryName": "Animal hospital",
  "address": "No. 796 Jieshou Rd, Daxi District, Taoyuan City, Taiwan 335             No. 796 Jieshou Rd, 大溪區桃園市335",
  "locatedIn": null,
  "plusCode": "W73M+2H Daxi District, Taoyuan City, Taiwan",
  "website": null,
  "phone": "+886 3 380 4477",
  "temporarilyClosed": false,
  "permanentlyClosed": false,
  "rank": 100,
  "placeId": "ChIJmRPCikIYaDQRVfCYnzPMWgM",
  "url": "https://www.google.com/maps/place/%E4%BB%9F%E7%A5%90%E5%8B%95%E7%89%A9%E9%86%AB%E9%99%A2/@24.9025018,121.2817052,17z/data=!3m1!4b1!4m5!3m4!1s0x346818428ac21399:0x35acc339f98f055!8m2!3d24.9025018!4d121.2838939",
  "location": {
    "lat": 24.9025018,
    "lng": 121.2838939
  },
  "searchString": "桃園市的動物醫院",
  "openingHours": [
    {
      "day": "Tuesday,",
      "hours": "9AM to 9PM"
    },
    {
      "day": "Wednesday,",
      "hours": "9AM to 9PM"
    },
    {
      "day": "Thursday",
      "hours": "(Mid-Autumn Festival), 9AM to 9PM, Hours might differ"
    },
    {
      "day": "Friday,",
      "hours": "9AM to 9PM"
    },
    {
      "day": "Saturday,",
      "hours": "9AM to 9PM"
    },
    {
      "day": "Sunday,",
      "hours": "Closed"
    },
    {
      "day": "Monday,",
      "hours": "9AM to 9PM"
    }
  ],
  "reviewsCount": 69
},
{
  "title": "立仁動物醫院",
  "totalScore": 4.1,
  "categoryName": "Veterinarian",
  "address": "號, No. 30, Gongyuan Road, Bade District, Taoyuan City, Taiwan 334             號, No. 30公園路八德區桃園市334",
  "locatedIn": null,
  "plusCode": "X77W+HV Bade District, Taoyuan City, Taiwan",
  "website": null,
  "phone": "+886 3 362 0221",
  "temporarilyClosed": false,
  "permanentlyClosed": false,
  "rank": 91,
  "placeId": "ChIJEYDefi0faDQRJSl7AGGZPro",
  "url": "https://www.google.com/maps/place/%E7%AB%8B%E4%BB%81%E5%8B%95%E7%89%A9%E9%86%AB%E9%99%A2/@24.963927,121.2950583,17z/data=!3m1!4b1!4m5!3m4!1s0x34681f2d7ede8011:0xba3e9961007b2925!8m2!3d24.963927!4d121.297247",
  "location": {
    "lat": 24.963927,
    "lng": 121.297247
  },
  "searchString": "桃園市的動物醫院",
  "openingHours": [
    {
      "day": "Tuesday,",
      "hours": "9AM to 9PM"
    },
    {
      "day": "Wednesday,",
      "hours": "9AM to 9PM"
    },
    {
      "day": "Thursday",
      "hours": "(Mid-Autumn Festival), 9AM to 9PM, Hours might differ"
    },
    {
      "day": "Friday,",
      "hours": "9AM to 9PM"
    },
    {
      "day": "Saturday,",
      "hours": "9AM to 9PM"
    },
    {
      "day": "Sunday,",
      "hours": "Closed"
    },
    {
      "day": "Monday,",
      "hours": "9AM to 9PM"
    }
  ],
  "reviewsCount": 60
},
{
  "title": "聖愛動物醫院 Sheng Ai Veterinary Hospital",
  "totalScore": 3.7,
  "categoryName": "Hospital",
  "address": "No. 445, Dayou Road, Taoyuan District, Taoyuan City, Taiwan 330             330桃園市桃園區大有路445號",
  "locatedIn": null,
  "plusCode": "2869+PG Taoyuan District, Taoyuan City, Taiwan",
  "website": null,
  "phone": "+886 3 325 3633",
  "temporarilyClosed": false,
  "permanentlyClosed": false,
  "rank": 96,
  "placeId": "ChIJe-bIm08eaDQR-Gx2_BIXIYE",
  "url": "https://www.google.com/maps/place/%E8%81%96%E6%84%9B%E5%8B%95%E7%89%A9%E9%86%AB%E9%99%A2+Sheng+Ai+Veterinary+Hospital/@25.0117602,121.3166618,17z/data=!3m1!4b1!4m5!3m4!1s0x34681e4f9bc8e67b:0x81211712fc766cf8!8m2!3d25.0117602!4d121.3188505",
  "location": {
    "lat": 25.0117602,
    "lng": 121.3188505
  },
  "searchString": "桃園市的動物醫院",
  "openingHours": [
    {
      "day": "Tuesday,",
      "hours": "9:30AM to 12:30PM, 2:30 to 9PM"
    },
    {
      "day": "Wednesday,",
      "hours": "9:30AM to 12:30PM, 2:30 to 9PM"
    },
    {
      "day": "Thursday",
      "hours": "(Mid-Autumn Festival), 9:30AM to 12:30PM, 2:30 to 9PM, Hours might differ"
    },
    {
      "day": "Friday,",
      "hours": "9:30AM to 12:30PM, 2:30 to 9PM"
    },
    {
      "day": "Saturday,",
      "hours": "9:30AM to 12:30PM, 2:30 to 9PM"
    },
    {
      "day": "Sunday,",
      "hours": "Closed"
    },
    {
      "day": "Monday,",
      "hours": "9:30AM to 12:30PM, 2:30 to 9PM"
    }
  ],
  "reviewsCount": 7
},
{
  "title": "TianYi Animal Hospital",
  "totalScore": 4.1,
  "categoryName": "Animal hospital",
  "address": "No. 426, Section 1, Zhonghua Road, Zhongli District, Taoyuan City, Taiwan 32068             32068桃園市中壢區中華路一段426號",
  "locatedIn": null,
  "plusCode": "X7C3+HR Zhongli District, Taoyuan City, Taiwan",
  "website": "wakema.com.tw",
  "phone": "+886 3 451 2480",
  "temporarilyClosed": false,
  "permanentlyClosed": false,
  "rank": 92,
  "placeId": "ChIJxRWGeAIiaDQRqsxEszIXGN8",
  "url": "https://www.google.com/maps/place/TianYi+Animal+Hospital/@24.9714776,121.2523295,17z/data=!3m1!4b1!4m5!3m4!1s0x34682202788615c5:0xdf181732b344ccaa!8m2!3d24.9714776!4d121.2545182",
  "location": {
    "lat": 24.9714776,
    "lng": 121.2545182
  },
  "searchString": "桃園市的動物醫院",
  "openingHours": [
    {
      "day": "Tuesday,",
      "hours": "9:30AM to 1PM, 3 to 9:30PM"
    },
    {
      "day": "Wednesday,",
      "hours": "9:30AM to 1PM, 3 to 9:30PM"
    },
    {
      "day": "Thursday",
      "hours": "(Mid-Autumn Festival), 9:30AM to 1PM, 3 to 9:30PM, Hours might differ"
    },
    {
      "day": "Friday,",
      "hours": "9:30AM to 1PM, 3 to 9:30PM"
    },
    {
      "day": "Saturday,",
      "hours": "9:30AM to 1PM, 3 to 9:30PM"
    },
    {
      "day": "Sunday,",
      "hours": "9:30AM to 1PM, 2 to 5:30PM"
    },
    {
      "day": "Monday,",
      "hours": "9:30AM to 1PM, 3 to 9:30PM"
    }
  ],
  "reviewsCount": 252
},
{
  "title": "信安動物醫院",
  "totalScore": 2.7,
  "categoryName": "Animal hospital",
  "address": "No. 82, Ziqiang South Road, Guishan District, Taoyuan City, Taiwan 333             333桃園市龜山區自強南路82號",
  "locatedIn": null,
  "plusCode": "X8VQ+5J Guishan District, Taoyuan City, Taiwan",
  "website": null,
  "phone": "+886 3 350 3075",
  "temporarilyClosed": false,
  "permanentlyClosed": false,
  "rank": 83,
  "placeId": "ChIJjVKgt4keaDQRR7K41QIpWHQ",
  "url": "https://www.google.com/maps/place/%E4%BF%A1%E5%AE%89%E5%8B%95%E7%89%A9%E9%86%AB%E9%99%A2/@24.9928955,121.3368575,17z/data=!3m1!4b1!4m5!3m4!1s0x34681e89b7a0528d:0x74582902d5b8b247!8m2!3d24.9928955!4d121.3390462",
  "location": {
    "lat": 24.9928955,
    "lng": 121.3390462
  },
  "searchString": "桃園市的動物醫院",
  "openingHours": [
    {
      "day": "Tuesday,",
      "hours": "9AM to 10:30PM"
    },
    {
      "day": "Wednesday,",
      "hours": "9AM to 10:30PM"
    },
    {
      "day": "Thursday",
      "hours": "(Mid-Autumn Festival), 9AM to 10:30PM, Hours might differ"
    },
    {
      "day": "Friday,",
      "hours": "9AM to 10:30PM"
    },
    {
      "day": "Saturday,",
      "hours": "9AM to 10:30PM"
    },
    {
      "day": "Sunday,",
      "hours": "9AM to 10:30PM"
    },
    {
      "day": "Monday,",
      "hours": "9AM to 10:30PM"
    }
  ],
  "reviewsCount": 23
},
{
  "title": "禾原動物醫院",
  "totalScore": 4.6,
  "categoryName": "Animal hospital",
  "address": "No. 159, Dayou Road, Taoyuan District, Taoyuan City, Taiwan 330             330桃園市桃園區大有路159號",
  "locatedIn": null,
  "plusCode": "284C+Q9 Taoyuan District, Taoyuan City, Taiwan",
  "website": null,
  "phone": "+886 3 332 1695",
  "temporarilyClosed": false,
  "permanentlyClosed": false,
  "rank": 69,
  "placeId": "ChIJ53xej1oeaDQRETqMCMfHRKs",
  "url": "https://www.google.com/maps/place/%E7%A6%BE%E5%8E%9F%E5%8B%95%E7%89%A9%E9%86%AB%E9%99%A2/@25.006879,121.318693,17z/data=!3m1!4b1!4m5!3m4!1s0x34681e5a8f5e7ce7:0xab44c7c7088c3a11!8m2!3d25.006879!4d121.3208817",
  "location": {
    "lat": 25.006879,
    "lng": 121.3208817
  },
  "searchString": "桃園市的動物醫院",
  "openingHours": [
    {
      "day": "Tuesday,",
      "hours": "9AM to 12PM, 3 to 9PM"
    },
    {
      "day": "Wednesday,",
      "hours": "9AM to 12PM, 3 to 9PM"
    },
    {
      "day": "Thursday",
      "hours": "(Mid-Autumn Festival), 9AM to 12PM, 3 to 9PM, Hours might differ"
    },
    {
      "day": "Friday,",
      "hours": "9AM to 12PM, 3 to 9PM"
    },
    {
      "day": "Saturday,",
      "hours": "9AM to 12PM, 3 to 9PM"
    },
    {
      "day": "Sunday,",
      "hours": "Closed"
    },
    {
      "day": "Monday,",
      "hours": "9AM to 12PM, 3 to 9PM"
    }
  ],
  "reviewsCount": 46
},
{
  "title": "泰安動物醫院",
  "totalScore": 4.4,
  "categoryName": "Animal hospital",
  "address": "No. 1319號, Section 2, Wanshou Road, Guishan District, Taoyuan City, Taiwan 333             333桃園市龜山區萬壽路二段1319號",
  "locatedIn": null,
  "plusCode": "X8VG+3R Guishan District, Taoyuan City, Taiwan",
  "website": "iyp.com.tw",
  "phone": "+886 3 320 3069",
  "temporarilyClosed": false,
  "permanentlyClosed": false,
  "rank": 75,
  "placeId": "ChIJMTn-2_QeaDQRjCS_7cioZ_Y",
  "url": "https://www.google.com/maps/place/%E6%B3%B0%E5%AE%89%E5%8B%95%E7%89%A9%E9%86%AB%E9%99%A2/@24.992746,121.3249303,17z/data=!3m1!4b1!4m5!3m4!1s0x34681ef4dbfe3931:0xf667a8c8edbf248c!8m2!3d24.992746!4d121.327119",
  "location": {
    "lat": 24.992746,
    "lng": 121.327119
  },
  "searchString": "桃園市的動物醫院",
  "openingHours": [
    {
      "day": "Tuesday,",
      "hours": "9AM to 10PM"
    },
    {
      "day": "Wednesday,",
      "hours": "9AM to 10PM"
    },
    {
      "day": "Thursday",
      "hours": "(Mid-Autumn Festival), 9AM to 10PM, Hours might differ"
    },
    {
      "day": "Friday,",
      "hours": "9AM to 10PM"
    },
    {
      "day": "Saturday,",
      "hours": "9AM to 10PM"
    },
    {
      "day": "Sunday,",
      "hours": "Closed"
    },
    {
      "day": "Monday,",
      "hours": "9AM to 10PM"
    }
  ],
  "reviewsCount": 12
},
{
  "title": "環東動物醫院",
  "totalScore": 3.3,
  "categoryName": "Animal hospital",
  "address": "No. 167, Rongmin Rd, Zhongli District, Taoyuan City, Taiwan 320             320桃園市中壢區榮民路167號",
  "locatedIn": null,
  "plusCode": "X786+H9 Zhongli District, Taoyuan City, Taiwan",
  "website": null,
  "phone": "+886 3 433 2339",
  "temporarilyClosed": false,
  "permanentlyClosed": false,
  "rank": 62,
  "placeId": "ChIJv2mJNAEiaDQRvSaCQK-XUk4",
  "url": "https://www.google.com/maps/place/%E7%92%B0%E6%9D%B1%E5%8B%95%E7%89%A9%E9%86%AB%E9%99%A2/@24.9664933,121.2587884,17z/data=!3m1!4b1!4m5!3m4!1s0x34682201348969bf:0x4e5297af408226bd!8m2!3d24.9664933!4d121.2609771",
  "location": {
    "lat": 24.9664933,
    "lng": 121.2609771
  },
  "searchString": "桃園市的動物醫院",
  "openingHours": [
    {
      "day": "Tuesday,",
      "hours": "9AM to 10PM"
    },
    {
      "day": "Wednesday,",
      "hours": "9AM to 10PM"
    },
    {
      "day": "Thursday",
      "hours": "(Mid-Autumn Festival), 9AM to 10PM, Hours might differ"
    },
    {
      "day": "Friday,",
      "hours": "9AM to 10PM"
    },
    {
      "day": "Saturday,",
      "hours": "9AM to 10PM"
    },
    {
      "day": "Sunday,",
      "hours": "9AM to 10PM"
    },
    {
      "day": "Monday,",
      "hours": "9AM to 10PM"
    }
  ],
  "reviewsCount": 69
},
{
  "title": "游動物醫院",
  "totalScore": 4.5,
  "categoryName": "Animal hospital",
  "address": "324, Taiwan, Taoyuan City, Pingzhen District, Zhongyuan Road, 147號號 No             324桃園市平鎮區中原路147號號 No",
  "locatedIn": null,
  "plusCode": "X629+M9 Pingzhen District, Taoyuan City, Taiwan",
  "website": null,
  "phone": "+886 3 422 6466      phone3",
  "temporarilyClosed": false,
  "permanentlyClosed": false,
  "rank": 65,
  "placeId": "ChIJa2Sc8kwiaDQRUl5FKuUSRJg",
  "url": "https://www.google.com/maps/place/%E6%B8%B8%E5%8B%95%E7%89%A9%E9%86%AB%E9%99%A2/@24.9517003,121.2162767,17z/data=!3m1!4b1!4m5!3m4!1s0x3468224cf29c646b:0x984412e52a455e52!8m2!3d24.9517003!4d121.2184654",
  "location": {
    "lat": 24.9517003,
    "lng": 121.2184654
  },
  "searchString": "桃園市的動物醫院",
  "openingHours": [
    {
      "day": "Tuesday,",
      "hours": "9:20AM to 12:20PM, 2 to 9PM"
    },
    {
      "day": "Wednesday,",
      "hours": "9:20AM to 12:20PM, 2 to 9PM"
    },
    {
      "day": "Thursday",
      "hours": "(Mid-Autumn Festival), 9:20AM to 12:20PM, 2 to 7PM, Holiday hours"
    },
    {
      "day": "Friday,",
      "hours": "9:20AM to 12:20PM, 2 to 7PM"
    },
    {
      "day": "Saturday,",
      "hours": "9:20AM to 12:20PM"
    },
    {
      "day": "Sunday,",
      "hours": "Closed"
    },
    {
      "day": "Monday,",
      "hours": "9:20AM to 12:20PM, 2 to 9PM"
    }
  ],
  "reviewsCount": 94
},
{
  "title": "永祥動物醫院",
  "totalScore": 4.8,
  "categoryName": "Animal hospital",
  "address": "No. 117, Zhengguang Road, Taoyuan District, Taoyuan City, Taiwan 330             330桃園市桃園區正光路117號",
  "locatedIn": null,
  "plusCode": "X7VV+QX Taoyuan District, Taoyuan City, Taiwan",
  "website": null,
  "phone": "+886 3 392 0149",
  "temporarilyClosed": false,
  "permanentlyClosed": false,
  "rank": 67,
  "placeId": "ChIJvRhB2g8faDQRuWjZM-ly5-M",
  "url": "https://www.google.com/maps/place/%E6%B0%B8%E7%A5%A5%E5%8B%95%E7%89%A9%E9%86%AB%E9%99%A2/@24.9944465,121.2927478,17z/data=!3m1!4b1!4m5!3m4!1s0x34681f0fda4118bd:0xe3e772e933d968b9!8m2!3d24.9944465!4d121.2949365",
  "location": {
    "lat": 24.9944465,
    "lng": 121.2949365
  },
  "searchString": "桃園市的動物醫院",
  "reviewsCount": 15
},
{
  "title": "梁動物醫院",
  "totalScore": 4.3,
  "categoryName": "Animal hospital",
  "address": "No. 136, Donglong Road, Longtan District, Taoyuan City, Taiwan 325             325桃園市龍潭區東龍路136號",
  "locatedIn": null,
  "plusCode": "V678+22 Longtan District, Taoyuan City, Taiwan",
  "website": null,
  "phone": "+886 3 479 2945",
  "temporarilyClosed": false,
  "permanentlyClosed": false,
  "rank": 76,
  "placeId": "ChIJ6_tNOf08aDQRi8NrpB-Ee4g",
  "url": "https://www.google.com/maps/place/%E6%A2%81%E5%8B%95%E7%89%A9%E9%86%AB%E9%99%A2/@24.8625495,121.2129153,17z/data=!3m1!4b1!4m5!3m4!1s0x34683cfd394dfbeb:0x887b841fa46bc38b!8m2!3d24.8625495!4d121.215104",
  "location": {
    "lat": 24.8625495,
    "lng": 121.215104
  },
  "searchString": "桃園市的動物醫院",
  "openingHours": [
    {
      "day": "Tuesday,",
      "hours": "9AM to 9PM"
    },
    {
      "day": "Wednesday,",
      "hours": "9AM to 9PM"
    },
    {
      "day": "Thursday",
      "hours": "(Mid-Autumn Festival), 9AM to 9PM, Hours might differ"
    },
    {
      "day": "Friday,",
      "hours": "9AM to 9PM"
    },
    {
      "day": "Saturday,",
      "hours": "9AM to 5PM"
    },
    {
      "day": "Sunday,",
      "hours": "Closed"
    },
    {
      "day": "Monday,",
      "hours": "9AM to 9PM"
    }
  ],
  "reviewsCount": 29
},
{
  "title": "長春動物醫院",
  "totalScore": 4.8,
  "categoryName": "Animal hospital",
  "address": "No. 960, Section 2, Wanshou Road, Guishan District, Taoyuan City, Taiwan 333             333桃園市龜山區萬壽路二段960號",
  "locatedIn": null,
  "plusCode": "X8WQ+45 Guishan District, Taoyuan City, Taiwan",
  "website": null,
  "phone": "+886 3 329 8323",
  "temporarilyClosed": false,
  "permanentlyClosed": false,
  "rank": 68,
  "placeId": "ChIJTQ_sFmIeaDQRFYbWpGzrQF4",
  "url": "https://www.google.com/maps/place/%E9%95%B7%E6%98%A5%E5%8B%95%E7%89%A9%E9%86%AB%E9%99%A2/@24.9953675,121.3357094,17z/data=!3m1!4b1!4m5!3m4!1s0x34681e6216ec0f4d:0x5e40eb6ca4d68615!8m2!3d24.9953675!4d121.3378981",
  "location": {
    "lat": 24.9953675,
    "lng": 121.3378981
  },
  "searchString": "桃園市的動物醫院",
  "openingHours": [
    {
      "day": "Tuesday,",
      "hours": "9AM to 9PM"
    },
    {
      "day": "Wednesday,",
      "hours": "9AM to 9PM"
    },
    {
      "day": "Thursday",
      "hours": "(Mid-Autumn Festival), 9AM to 9PM, Hours might differ"
    },
    {
      "day": "Friday,",
      "hours": "9AM to 9PM"
    },
    {
      "day": "Saturday,",
      "hours": "9AM to 9PM"
    },
    {
      "day": "Sunday,",
      "hours": "Closed"
    },
    {
      "day": "Monday,",
      "hours": "9AM to 9PM"
    }
  ],
  "reviewsCount": 66
},
{
  "title": "新生動物醫院",
  "totalScore": 3.8,
  "categoryName": "Hospital",
  "address": "No. 32, Defeng Street, Taoyuan District, Taoyuan City, Taiwan 330             330桃園市桃園區德豐街32號",
  "locatedIn": null,
  "plusCode": "X8M6+98 Taoyuan District, Taoyuan City, Taiwan",
  "website": null,
  "phone": "+886 3 363 1212",
  "temporarilyClosed": false,
  "permanentlyClosed": false,
  "rank": 80,
  "placeId": "ChIJFTJhouEeaDQRBia_yAfknEY",
  "url": "https://www.google.com/maps/place/%E6%96%B0%E7%94%9F%E5%8B%95%E7%89%A9%E9%86%AB%E9%99%A2/@24.9834871,121.3085653,17z/data=!3m1!4b1!4m5!3m4!1s0x34681ee1a2613215:0x469ce407c8bf2606!8m2!3d24.9834871!4d121.310754",
  "location": {
    "lat": 24.9834871,
    "lng": 121.310754
  },
  "searchString": "桃園市的動物醫院",
  "reviewsCount": 36
},
{
  "title": "麗園動物醫院-大園分院",
  "totalScore": 4.2,
  "categoryName": "Veterinarian",
  "address": "No. 5號, Zhongzheng East Road, Dayuan District, Taoyuan City, Taiwan 337             337桃園市大園區中正東路5號",
  "locatedIn": null,
  "plusCode": "357X+M4 Dayuan District, Taoyuan City, Taiwan",
  "website": "facebook.com",
  "phone": "+886 3 385 5577",
  "temporarilyClosed": false,
  "permanentlyClosed": false,
  "rank": 73,
  "placeId": "ChIJzys4M5kgaDQRGM-OxeiMKSE",
  "url": "https://www.google.com/maps/place/%E9%BA%97%E5%9C%92%E5%8B%95%E7%89%A9%E9%86%AB%E9%99%A2-%E5%A4%A7%E5%9C%92%E5%88%86%E9%99%A2/@25.0641412,121.1956088,17z/data=!3m1!4b1!4m5!3m4!1s0x3468209933382bcf:0x21298ce8c58ecf18!8m2!3d25.0641412!4d121.1977975",
  "location": {
    "lat": 25.0641412,
    "lng": 121.1977975
  },
  "searchString": "桃園市的動物醫院",
  "openingHours": [
    {
      "day": "Tuesday,",
      "hours": "9AM to 12PM, 1 to 5PM, 6 to 8PM"
    },
    {
      "day": "Wednesday,",
      "hours": "9AM to 12PM, 1 to 5PM, 6 to 8PM"
    },
    {
      "day": "Thursday",
      "hours": "(Mid-Autumn Festival), 9AM to 4PM, Holiday hours"
    },
    {
      "day": "Friday,",
      "hours": "9AM to 12PM, 1 to 5PM, 6 to 8PM"
    },
    {
      "day": "Saturday,",
      "hours": "9AM to 12PM, 1 to 5PM, 6 to 8PM"
    },
    {
      "day": "Sunday,",
      "hours": "9AM to 12PM, 1 to 5PM, 6 to 8PM"
    },
    {
      "day": "Monday,",
      "hours": "9AM to 12PM, 1 to 5PM, 6 to 8PM"
    }
  ],
  "reviewsCount": 178
},
{
  "title": "萬欣犬貓醫院",
  "totalScore": "",
  "categoryName": "Animal hospital",
  "address": "No. 610, Minsheng Road, Taoyuan District, Taoyuan City, Taiwan 330             330桃園市桃園區民生路610號",
  "locatedIn": null,
  "plusCode": "2825+QW Taoyuan District, Taoyuan City, Taiwan",
  "website": null,
  "phone": "+886 3 338 4637",
  "temporarilyClosed": false,
  "permanentlyClosed": false,
  "rank": 70,
  "placeId": "ChIJPx4MQlUeaDQR6jeeu2WoN6s",
  "url": "https://www.google.com/maps/place/%E8%90%AC%E6%AC%A3%E7%8A%AC%E8%B2%93%E9%86%AB%E9%99%A2/@25.0019701,121.3075699,17z/data=!3m1!4b1!4m5!3m4!1s0x34681e55420c1e3f:0xab37a865bb9e37ea!8m2!3d25.0019701!4d121.3097586",
  "location": {
    "lat": 25.0019701,
    "lng": 121.3097586
  },
  "searchString": "桃園市的動物醫院"
},
{
  "title": "圓霖動物醫院",
  "totalScore": 4.7,
  "categoryName": "Animal hospital",
  "address": "No. 1072, Section 2, Jieshou Road, Bade District, Taoyuan City, Taiwan 334             334桃園市八德區介壽路二段1072號",
  "locatedIn": null,
  "plusCode": "W7JW+PV Bade District, Taoyuan City, Taiwan",
  "website": null,
  "phone": "+886 3 365 6008",
  "temporarilyClosed": false,
  "permanentlyClosed": false,
  "rank": 71,
  "placeId": "ChIJTVZ1fOUYaDQRsDh91G-3MOY",
  "url": "https://www.google.com/maps/place/%E5%9C%93%E9%9C%96%E5%8B%95%E7%89%A9%E9%86%AB%E9%99%A2/@24.9318098,121.2950242,17z/data=!3m1!4b1!4m5!3m4!1s0x346818e57c75564d:0xe630b76fd47d38b0!8m2!3d24.9318098!4d121.2972129",
  "location": {
    "lat": 24.9318098,
    "lng": 121.2972129
  },
  "searchString": "桃園市的動物醫院",
  "openingHours": [
    {
      "day": "Tuesday,",
      "hours": "12 to 9PM"
    },
    {
      "day": "Wednesday,",
      "hours": "12 to 9PM"
    },
    {
      "day": "Thursday",
      "hours": "(Mid-Autumn Festival), 12 to 9PM, Hours might differ"
    },
    {
      "day": "Friday,",
      "hours": "12 to 9PM"
    },
    {
      "day": "Saturday,",
      "hours": "12 to 9PM"
    },
    {
      "day": "Sunday,",
      "hours": "12 to 9PM"
    },
    {
      "day": "Monday,",
      "hours": "12 to 9PM"
    }
  ],
  "reviewsCount": 23
},
{
  "title": "呈品動物醫院",
  "totalScore": 4.5,
  "categoryName": "Animal hospital",
  "address": "No. 359號, Zhongfeng Road, Zhongli District, Taoyuan City, Taiwan 320             320桃園市中壢區中豐路359號",
  "locatedIn": null,
  "plusCode": "X649+CJ Zhongli District, Taoyuan City, Taiwan",
  "website": "facebook.com",
  "phone": "+886 3 280 6070",
  "temporarilyClosed": false,
  "permanentlyClosed": false,
  "rank": 78,
  "placeId": "ChIJ7xhA-0oiaDQR7UhbBk00SOA",
  "url": "https://www.google.com/maps/place/%E5%91%88%E5%93%81%E5%8B%95%E7%89%A9%E9%86%AB%E9%99%A2/@24.9560748,121.2168879,17z/data=!3m1!4b1!4m5!3m4!1s0x3468224afb4018ef:0xe048344d065b48ed!8m2!3d24.9560748!4d121.2190766",
  "location": {
    "lat": 24.9560748,
    "lng": 121.2190766
  },
  "searchString": "桃園市的動物醫院",
  "openingHours": [
    {
      "day": "Tuesday,",
      "hours": "10AM to 9PM"
    },
    {
      "day": "Wednesday,",
      "hours": "2 to 9PM"
    },
    {
      "day": "Thursday",
      "hours": "(Mid-Autumn Festival), Closed, Holiday hours"
    },
    {
      "day": "Friday,",
      "hours": "10AM to 9PM"
    },
    {
      "day": "Saturday,",
      "hours": "10AM to 6PM"
    },
    {
      "day": "Sunday,",
      "hours": "Closed"
    },
    {
      "day": "Monday,",
      "hours": "10AM to 9PM"
    }
  ],
  "reviewsCount": 80
},
{
  "title": "聖仁動物醫院",
  "totalScore": 4.6,
  "categoryName": "Animal hospital",
  "address": "No. 285號, Zhongxiao Road, Zhongli District, Taoyuan City, Taiwan 320             320桃園市中壢區忠孝路285號",
  "locatedIn": null,
  "plusCode": "X7H3+PJ Zhongli District, Taoyuan City, Taiwan",
  "website": "voofla.com",
  "phone": "+886 3 462 8655",
  "temporarilyClosed": false,
  "permanentlyClosed": false,
  "rank": 72,
  "placeId": "ChIJtVISq_shaDQRWO9imPW3LzY",
  "url": "https://www.google.com/maps/place/%E8%81%96%E4%BB%81%E5%8B%95%E7%89%A9%E9%86%AB%E9%99%A2/@24.9792626,121.2519035,17z/data=!3m1!4b1!4m5!3m4!1s0x346821fbab1252b5:0x362fb7f59862ef58!8m2!3d24.9792626!4d121.2540922",
  "location": {
    "lat": 24.9792626,
    "lng": 121.2540922
  },
  "searchString": "桃園市的動物醫院",
  "openingHours": [
    {
      "day": "Tuesday,",
      "hours": "9AM to 12PM, 1 to 5:30PM, 6:30 to 9PM"
    },
    {
      "day": "Wednesday,",
      "hours": "9AM to 12PM, 1 to 5:30PM, 6:30 to 9PM"
    },
    {
      "day": "Thursday",
      "hours": "(Mid-Autumn Festival), 9AM to 12PM, 1 to 5:30PM, 6:30 to 9PM, Hours might differ"
    },
    {
      "day": "Friday,",
      "hours": "9AM to 12PM, 1 to 5:30PM, 6:30 to 9PM"
    },
    {
      "day": "Saturday,",
      "hours": "9AM to 12PM, 1 to 5:30PM, 6:30 to 9PM"
    },
    {
      "day": "Sunday,",
      "hours": "9AM to 12PM, 1 to 5:30PM, 6:30 to 9PM"
    },
    {
      "day": "Monday,",
      "hours": "9AM to 12PM, 1 to 5:30PM, 6:30 to 9PM"
    }
  ],
  "reviewsCount": 272
},
{
  "title": "新世紀獸醫院",
  "totalScore": 4.8,
  "categoryName": "Animal hospital",
  "address": "No. 179號, Section 3, Wanshou Road, Taoyuan District, Taoyuan City, Taiwan 330             330桃園市桃園區萬壽路三段179號",
  "locatedIn": null,
  "plusCode": "X8R9+8P Taoyuan District, Taoyuan City, Taiwan",
  "website": null,
  "phone": "+886 3 332 8100",
  "temporarilyClosed": false,
  "permanentlyClosed": false,
  "rank": 74,
  "placeId": "ChIJSyu2MiAfaDQRKMlAIV3d8jU",
  "url": "https://www.google.com/maps/place/%E6%96%B0%E4%B8%96%E7%B4%80%E7%8D%B8%E9%86%AB%E9%99%A2/@24.99076,121.3170873,17z/data=!3m1!4b1!4m5!3m4!1s0x34681f2032b62b4b:0x35f2dd5d2140c928!8m2!3d24.99076!4d121.319276",
  "location": {
    "lat": 24.99076,
    "lng": 121.319276
  },
  "searchString": "桃園市的動物醫院",
  "openingHours": [
    {
      "day": "Tuesday,",
      "hours": "9AM to 9PM"
    },
    {
      "day": "Wednesday,",
      "hours": "9AM to 9PM"
    },
    {
      "day": "Thursday",
      "hours": "(Mid-Autumn Festival), 9AM to 9PM, Hours might differ"
    },
    {
      "day": "Friday,",
      "hours": "9AM to 9PM"
    },
    {
      "day": "Saturday,",
      "hours": "9AM to 7PM"
    },
    {
      "day": "Sunday,",
      "hours": "Closed"
    },
    {
      "day": "Monday,",
      "hours": "9AM to 9PM"
    }
  ],
  "reviewsCount": 29
},
{
  "title": "喜樂地動物醫院",
  "totalScore": 4.4,
  "categoryName": "Veterinarian",
  "address": "No. 319號, Dazhu Road, Luzhu District, Taoyuan City, Taiwan 338             338桃園市蘆竹區大竹路319號",
  "locatedIn": null,
  "plusCode": "2798+JG Luzhu District, Taoyuan City, Taiwan",
  "website": null,
  "phone": "+886 3 313 2012",
  "temporarilyClosed": false,
  "permanentlyClosed": false,
  "rank": 50,
  "placeId": "ChIJ6fNd94YfaDQREBX_AHtmphs",
  "url": "https://www.google.com/maps/place/%E5%96%9C%E6%A8%82%E5%9C%B0%E5%8B%95%E7%89%A9%E9%86%AB%E9%99%A2/@25.0190272,121.2640992,17z/data=!3m1!4b1!4m5!3m4!1s0x34681f86f75df3e9:0x1ba6667b00ff1510!8m2!3d25.0190272!4d121.2662879",
  "location": {
    "lat": 25.0190272,
    "lng": 121.2662879
  },
  "searchString": "桃園市的動物醫院",
  "openingHours": [
    {
      "day": "Tuesday,",
      "hours": "10AM to 9PM"
    },
    {
      "day": "Wednesday,",
      "hours": "10AM to 9PM"
    },
    {
      "day": "Thursday",
      "hours": "(Mid-Autumn Festival), 10AM to 9PM, Hours might differ"
    },
    {
      "day": "Friday,",
      "hours": "10AM to 9PM"
    },
    {
      "day": "Saturday,",
      "hours": "10AM to 8PM"
    },
    {
      "day": "Sunday,",
      "hours": "Closed"
    },
    {
      "day": "Monday,",
      "hours": "10AM to 9PM"
    }
  ],
  "reviewsCount": 89
},
{
  "title": "永安動物醫院",
  "totalScore": 4.6,
  "categoryName": "Animal hospital",
  "address": "No. 554, Yong'an Road, Taoyuan District, Taiwan 330             330桃園區永安路554號",
  "locatedIn": null,
  "plusCode": "272X+V6 Taoyuan District, Taoyuan City, Taiwan",
  "website": null,
  "phone": "+886 3 337 7332",
  "temporarilyClosed": false,
  "permanentlyClosed": false,
  "rank": 44,
  "placeId": "ChIJXRNywAcfaDQRxv2C_-EHLMY",
  "url": "https://www.google.com/maps/place/%E6%B0%B8%E5%AE%89%E5%8B%95%E7%89%A9%E9%86%AB%E9%99%A2/@25.0021891,121.2959338,17z/data=!3m1!4b1!4m5!3m4!1s0x34681f07c072135d:0xc62c07e1ff82fdc6!8m2!3d25.0021891!4d121.2981225",
  "location": {
    "lat": 25.0021891,
    "lng": 121.2981225
  },
  "searchString": "桃園市的動物醫院",
  "openingHours": [
    {
      "day": "Tuesday,",
      "hours": "9AM to 9PM"
    },
    {
      "day": "Wednesday,",
      "hours": "9AM to 9PM"
    },
    {
      "day": "Thursday",
      "hours": "(Mid-Autumn Festival), 9AM to 9PM, Hours might differ"
    },
    {
      "day": "Friday,",
      "hours": "9AM to 9PM"
    },
    {
      "day": "Saturday,",
      "hours": "9AM to 6PM"
    },
    {
      "day": "Sunday,",
      "hours": "Closed"
    },
    {
      "day": "Monday,",
      "hours": "9AM to 9PM"
    }
  ],
  "reviewsCount": 34
},
{
  "title": "中圓寵物家族",
  "totalScore": 4.1,
  "categoryName": "Pet store",
  "address": "No. 16號, Section 2, Zhongshan East Road, Zhongli District, Taoyuan City, Taiwan 320             320桃園市中壢區中山東路二段16號",
  "locatedIn": null,
  "plusCode": "X63P+PR Zhongli District, Taoyuan City, Taiwan",
  "website": "petsfamily.com.tw",
  "phone": "+886 3 465 3377",
  "temporarilyClosed": false,
  "permanentlyClosed": false,
  "rank": 60,
  "placeId": "ChIJhxB1gD8iaDQRODeDiEPM-Wg",
  "url": "https://www.google.com/maps/place/%E4%B8%AD%E5%9C%93%E5%AF%B5%E7%89%A9%E5%AE%B6%E6%97%8F/@24.9543533,121.2348498,17z/data=!3m1!4b1!4m5!3m4!1s0x3468223f80751087:0x68f9cc4388833738!8m2!3d24.9543533!4d121.2370385",
  "location": {
    "lat": 24.9543533,
    "lng": 121.2370385
  },
  "searchString": "桃園市的動物醫院",
  "openingHours": [
    {
      "day": "Tuesday,",
      "hours": "10AM to 10:30PM"
    },
    {
      "day": "Wednesday,",
      "hours": "10AM to 10:30PM"
    },
    {
      "day": "Thursday",
      "hours": "(Mid-Autumn Festival), 10AM to 10:30PM, Hours might differ"
    },
    {
      "day": "Friday,",
      "hours": "10AM to 10:30PM"
    },
    {
      "day": "Saturday,",
      "hours": "10AM to 10:30PM"
    },
    {
      "day": "Sunday,",
      "hours": "10AM to 10:30PM"
    },
    {
      "day": "Monday,",
      "hours": "10AM to 10:30PM"
    }
  ],
  "reviewsCount": 191
},
{
  "title": "思邁爾動物醫院中壢分院",
  "totalScore": 3.9,
  "categoryName": "Animal hospital",
  "address": "No. 562, Huanbei Road, Zhongli District, Taoyuan City, Taiwan 320             320桃園市中壢區環北路562號",
  "locatedIn": null,
  "plusCode": "X67H+RC Zhongli District, Taoyuan City, Taiwan",
  "website": "smileanimal.com",
  "phone": "+886 3 435 1510",
  "temporarilyClosed": false,
  "permanentlyClosed": false,
  "rank": 42,
  "placeId": "ChIJd0iUgzoiaDQRJBShm4cducE",
  "url": "https://www.google.com/maps/place/%E6%80%9D%E9%82%81%E7%88%BE%E5%8B%95%E7%89%A9%E9%86%AB%E9%99%A2%E4%B8%AD%E5%A3%A2%E5%88%86%E9%99%A2/@24.964547,121.2263893,17z/data=!3m1!4b1!4m5!3m4!1s0x3468223a83944877:0xc1b91d879ba11424!8m2!3d24.964547!4d121.228578",
  "location": {
    "lat": 24.964547,
    "lng": 121.228578
  },
  "searchString": "桃園市的動物醫院",
  "openingHours": [
    {
      "day": "Tuesday,",
      "hours": "9AM to 12PM, 1 to 5PM, 6 to 9PM"
    },
    {
      "day": "Wednesday,",
      "hours": "9AM to 12PM, 1 to 5PM, 6 to 9PM"
    },
    {
      "day": "Thursday",
      "hours": "(Mid-Autumn Festival), 9AM to 12PM, 1 to 5PM, 6 to 9PM, Hours might differ"
    },
    {
      "day": "Friday,",
      "hours": "9AM to 12PM, 1 to 5PM, 6 to 9PM"
    },
    {
      "day": "Saturday,",
      "hours": "9AM to 12PM, 1 to 5PM, 6 to 9PM"
    },
    {
      "day": "Sunday,",
      "hours": "Closed"
    },
    {
      "day": "Monday,",
      "hours": "9AM to 12PM, 1 to 5PM, 6 to 9PM"
    }
  ],
  "reviewsCount": 256
},
{
  "title": "南崁動物醫院",
  "totalScore": 4,
  "categoryName": "Animal hospital",
  "address": "No. 379號, Zhongzheng Road, Luzhu District, Taoyuan City, Taiwan 338             338桃園市蘆竹區中正路379號",
  "locatedIn": null,
  "plusCode": "27XR+Q7 Luzhu District, Taoyuan City, Taiwan",
  "website": null,
  "phone": "+886 3 352 0136",
  "temporarilyClosed": false,
  "permanentlyClosed": false,
  "rank": 43,
  "placeId": "ChIJA3ek3XWgQjQREYk3e17fd1k",
  "url": "https://www.google.com/maps/place/%E5%8D%97%E5%B4%81%E5%8B%95%E7%89%A9%E9%86%AB%E9%99%A2/@25.049438,121.2885513,17z/data=!3m1!4b1!4m5!3m4!1s0x3442a075dda47703:0x5977df5e7b378911!8m2!3d25.049438!4d121.29074",
  "location": {
    "lat": 25.049438,
    "lng": 121.29074
  },
  "searchString": "桃園市的動物醫院",
  "openingHours": [
    {
      "day": "Tuesday,",
      "hours": "9AM to 9PM"
    },
    {
      "day": "Wednesday,",
      "hours": "9AM to 9PM"
    },
    {
      "day": "Thursday",
      "hours": "(Mid-Autumn Festival), 9AM to 9PM, Hours might differ"
    },
    {
      "day": "Friday,",
      "hours": "9AM to 9PM"
    },
    {
      "day": "Saturday,",
      "hours": "9AM to 6PM"
    },
    {
      "day": "Sunday,",
      "hours": "Closed"
    },
    {
      "day": "Monday,",
      "hours": "9AM to 9PM"
    }
  ],
  "reviewsCount": 38
},
{
  "title": "佑安動物醫院",
  "totalScore": 4.1,
  "categoryName": "Animal hospital",
  "address": "No. 29號, Section 2, Minzu Road, Pingzhen District, Taoyuan City, Taiwan 324             324桃園市平鎮區民族路二段29號",
  "locatedIn": null,
  "plusCode": "X645+V3 Pingzhen District, Taoyuan City, Taiwan",
  "website": null,
  "phone": "+886 3 493 0603",
  "temporarilyClosed": false,
  "permanentlyClosed": false,
  "rank": 59,
  "placeId": "ChIJ-8oLGbcjaDQRL9U9B2W2raA",
  "url": "https://www.google.com/maps/place/%E4%BD%91%E5%AE%89%E5%8B%95%E7%89%A9%E9%86%AB%E9%99%A2/@24.957217,121.2055453,17z/data=!3m1!4b1!4m5!3m4!1s0x346823b7190bcafb:0xa0adb665073dd52f!8m2!3d24.957217!4d121.207734",
  "location": {
    "lat": 24.957217,
    "lng": 121.207734
  },
  "searchString": "桃園市的動物醫院",
  "openingHours": [
    {
      "day": "Tuesday,",
      "hours": "10AM to 9PM"
    },
    {
      "day": "Wednesday,",
      "hours": "10AM to 9PM"
    },
    {
      "day": "Thursday",
      "hours": "(Mid-Autumn Festival), 10AM to 9PM, Hours might differ"
    },
    {
      "day": "Friday,",
      "hours": "10AM to 9PM"
    },
    {
      "day": "Saturday,",
      "hours": "9AM to 6PM"
    },
    {
      "day": "Sunday,",
      "hours": "Closed"
    },
    {
      "day": "Monday,",
      "hours": "10AM to 9PM"
    }
  ],
  "reviewsCount": 75
},
{
  "title": "仁愛動物醫院",
  "totalScore": 4.3,
  "categoryName": "Animal hospital",
  "address": "No. 1087號, Section 2, Jieshou Road, Bade District, Taoyuan City, Taiwan 334             334桃園市八德區介壽路二段1087號",
  "locatedIn": null,
  "plusCode": "W7MX+F3 Bade District, Taoyuan City, Taiwan",
  "website": null,
  "phone": "+886 3 365 0149",
  "temporarilyClosed": false,
  "permanentlyClosed": false,
  "rank": 41,
  "placeId": "ChIJMfaN7eUYaDQR5ih_PLck9V4",
  "url": "https://www.google.com/maps/place/%E4%BB%81%E6%84%9B%E5%8B%95%E7%89%A9%E9%86%AB%E9%99%A2/@24.9336694,121.2955396,17z/data=!3m1!4b1!4m5!3m4!1s0x346818e5ed8df631:0x5ef524b73c7f28e6!8m2!3d24.9336694!4d121.2977283",
  "location": {
    "lat": 24.9336694,
    "lng": 121.2977283
  },
  "searchString": "桃園市的動物醫院",
  "openingHours": [
    {
      "day": "Tuesday,",
      "hours": "9:30AM to 9:30PM"
    },
    {
      "day": "Wednesday,",
      "hours": "9:30AM to 9:30PM"
    },
    {
      "day": "Thursday",
      "hours": "(Mid-Autumn Festival), 9:30AM to 9:30PM, Hours might differ"
    },
    {
      "day": "Friday,",
      "hours": "9:30AM to 9:30PM"
    },
    {
      "day": "Saturday,",
      "hours": "9:30AM to 9:30PM"
    },
    {
      "day": "Sunday,",
      "hours": "9AM to 1PM"
    },
    {
      "day": "Monday,",
      "hours": "9:30AM to 9:30PM"
    }
  ],
  "reviewsCount": 103
},
{
  "title": "Boo’s Veterinarian",
  "totalScore": 4.2,
  "categoryName": "Animal hospital",
  "address": "No. 69號, Section 2, Longgang Road, Zhongli District, Taoyuan City, Taiwan 320             320桃園市中壢區龍岡路二段69號",
  "locatedIn": null,
  "plusCode": "W6WH+HJ Zhongli District, Taoyuan City, Taiwan",
  "website": "facebook.com",
  "phone": "+886 3 468 6811",
  "temporarilyClosed": false,
  "permanentlyClosed": false,
  "rank": 52,
  "placeId": "ChIJcad_XUUiaDQR5PQ__lopY4Q",
  "url": "https://www.google.com/maps/place/Boo%E2%80%99s+Veterinarian/@24.9464411,121.2269128,17z/data=!3m1!4b1!4m5!3m4!1s0x346822455d7fa771:0x8463295afe3ff4e4!8m2!3d24.9464411!4d121.2291015",
  "location": {
    "lat": 24.9464411,
    "lng": 121.2291015
  },
  "searchString": "桃園市的動物醫院",
  "openingHours": [
    {
      "day": "Tuesday,",
      "hours": "9AM to 9PM"
    },
    {
      "day": "Wednesday,",
      "hours": "9AM to 9PM"
    },
    {
      "day": "Thursday",
      "hours": "(Mid-Autumn Festival), 9AM to 3PM, Holiday hours"
    },
    {
      "day": "Friday,",
      "hours": "9AM to 9PM"
    },
    {
      "day": "Saturday,",
      "hours": "9AM to 9PM"
    },
    {
      "day": "Sunday,",
      "hours": "9AM to 9PM"
    },
    {
      "day": "Monday,",
      "hours": "9AM to 9PM"
    }
  ],
  "reviewsCount": 346
},
{
  "title": "新時代動物醫院",
  "totalScore": 3.7,
  "categoryName": "Animal hospital",
  "address": "No. 337號, Zhongzheng Road, Luzhu District, Taoyuan City, Taiwan 330             330桃園市蘆竹區中正路337號",
  "locatedIn": null,
  "plusCode": "27XR+9G Luzhu District, Taoyuan City, Taiwan",
  "website": null,
  "phone": "+886 3 352 2257",
  "temporarilyClosed": false,
  "permanentlyClosed": false,
  "rank": 48,
  "placeId": "ChIJF4jxB3agQjQRlZgFg3vIV88",
  "url": "https://www.google.com/maps/place/%E6%96%B0%E6%99%82%E4%BB%A3%E5%8B%95%E7%89%A9%E9%86%AB%E9%99%A2/@25.0484805,121.2890942,17z/data=!3m1!4b1!4m5!3m4!1s0x3442a07607f18817:0xcf57c87b83059895!8m2!3d25.0484805!4d121.2912829",
  "location": {
    "lat": 25.0484805,
    "lng": 121.2912829
  },
  "searchString": "桃園市的動物醫院",
  "reviewsCount": 38
},
{
  "title": "元氣動物醫院南崁分院",
  "totalScore": 3.8,
  "categoryName": "Animal hospital",
  "address": "No. 352號, Zhongzheng Road, Luzhu District, Taoyuan City, Taiwan 338             338桃園市蘆竹區中正路352號",
  "locatedIn": null,
  "plusCode": "372R+28 Luzhu District, Taoyuan City, Taiwan",
  "website": "genkivet.com.tw",
  "phone": "+886 3 222 9198      phone3",
  "temporarilyClosed": false,
  "permanentlyClosed": false,
  "rank": 49,
  "placeId": "ChIJiz560HWgQjQRUheRiqkd-V8",
  "url": "https://www.google.com/maps/place/%E5%85%83%E6%B0%A3%E5%8B%95%E7%89%A9%E9%86%AB%E9%99%A2%E5%8D%97%E5%B4%81%E5%88%86%E9%99%A2/@25.0500769,121.2886381,17z/data=!3m1!4b1!4m5!3m4!1s0x3442a075d07a3e8b:0x5ff91da98a911752!8m2!3d25.0500769!4d121.2908268",
  "location": {
    "lat": 25.0500769,
    "lng": 121.2908268
  },
  "searchString": "桃園市的動物醫院",
  "openingHours": [
    {
      "day": "Tuesday,",
      "hours": "9:30AM to 9PM"
    },
    {
      "day": "Wednesday,",
      "hours": "9:30AM to 9PM"
    },
    {
      "day": "Thursday",
      "hours": "(Mid-Autumn Festival), 9:30AM to 9PM, Holiday hours"
    },
    {
      "day": "Friday,",
      "hours": "9:30AM to 9PM"
    },
    {
      "day": "Saturday,",
      "hours": "9:30AM to 9PM"
    },
    {
      "day": "Sunday,",
      "hours": "9:30AM to 9PM"
    },
    {
      "day": "Monday,",
      "hours": "9:30AM to 9PM"
    }
  ],
  "reviewsCount": 122
},
{
  "title": "小果苗動物醫院",
  "totalScore": 5,
  "categoryName": "Animal hospital",
  "address": "No. 512號, Nanping Road, Taoyuan District, Taoyuan City, Taiwan 330             330桃園市桃園區南平路512號",
  "locatedIn": null,
  "plusCode": "278V+GF Taoyuan District, Taoyuan City, Taiwan",
  "website": "vetldc.business.site",
  "phone": "+886 3 357 7027      phone3",
  "temporarilyClosed": false,
  "permanentlyClosed": false,
  "rank": 57,
  "placeId": "ChIJtazqInMfaDQRyoU5wZ_DWjg",
  "url": "https://www.google.com/maps/place/%E5%B0%8F%E6%9E%9C%E8%8B%97%E5%8B%95%E7%89%A9%E9%86%AB%E9%99%A2/@25.0163281,121.2915302,17z/data=!3m1!4b1!4m5!3m4!1s0x34681f7322eaacb5:0x385ac39fc13985ca!8m2!3d25.0163281!4d121.2937189",
  "location": {
    "lat": 25.0163281,
    "lng": 121.2937189
  },
  "searchString": "桃園市的動物醫院",
  "openingHours": [
    {
      "day": "Tuesday,",
      "hours": "10AM to 1PM, 2 to 9PM"
    },
    {
      "day": "Wednesday,",
      "hours": "10AM to 1PM, 2 to 9PM"
    },
    {
      "day": "Thursday",
      "hours": "(Mid-Autumn Festival), 10AM to 1PM, 2 to 9PM, Hours might differ"
    },
    {
      "day": "Friday,",
      "hours": "10AM to 1PM, 2 to 9PM"
    },
    {
      "day": "Saturday,",
      "hours": "10AM to 1PM, 2 to 9PM"
    },
    {
      "day": "Sunday,",
      "hours": "10AM to 1PM, 2 to 9PM"
    },
    {
      "day": "Monday,",
      "hours": "10AM to 1PM, 2 to 9PM"
    }
  ],
  "reviewsCount": 52
},
{
  "title": "恆星動物醫院",
  "totalScore": 4.3,
  "categoryName": "Animal hospital",
  "address": "No. 35巷2號, Longwen St, Zhongli District, Taoyuan City, Taiwan 320             320桃園市中壢區龍文街35巷2號",
  "locatedIn": null,
  "plusCode": "W7P4+25 Zhongli District, Taoyuan City, Taiwan",
  "website": null,
  "phone": "+886 3 456 1992",
  "temporarilyClosed": false,
  "permanentlyClosed": false,
  "rank": 56,
  "placeId": "ChIJaTLpx3siaDQRVWczr67Ge4A",
  "url": "https://www.google.com/maps/place/%E6%81%86%E6%98%9F%E5%8B%95%E7%89%A9%E9%86%AB%E9%99%A2/@24.9350131,121.2531959,17z/data=!3m1!4b1!4m5!3m4!1s0x3468227bc7e93269:0x807bc6aeaf336755!8m2!3d24.9350131!4d121.2553846",
  "location": {
    "lat": 24.9350131,
    "lng": 121.2553846
  },
  "searchString": "桃園市的動物醫院",
  "openingHours": [
    {
      "day": "Tuesday,",
      "hours": "9AM to 9PM"
    },
    {
      "day": "Wednesday,",
      "hours": "9AM to 9PM"
    },
    {
      "day": "Thursday",
      "hours": "(Mid-Autumn Festival), 9AM to 9PM, Hours might differ"
    },
    {
      "day": "Friday,",
      "hours": "9AM to 9PM"
    },
    {
      "day": "Saturday,",
      "hours": "9AM to 9PM"
    },
    {
      "day": "Sunday,",
      "hours": "Closed"
    },
    {
      "day": "Monday,",
      "hours": "9AM to 9PM"
    }
  ],
  "reviewsCount": 106
},
{
  "title": "振源家畜醫院",
  "totalScore": 4.2,
  "categoryName": "Animal hospital",
  "address": "No. 215號, Zhongshan East Road, Taoyuan District, Taoyuan City, Taiwan 330             330桃園市桃園區中山東路215號",
  "locatedIn": null,
  "plusCode": "X8X9+5X Taoyuan District, Taoyuan City, Taiwan",
  "website": null,
  "phone": "+886 3 332 4825",
  "temporarilyClosed": false,
  "permanentlyClosed": false,
  "rank": 53,
  "placeId": "ChIJWcy29_ceaDQRa6CS6Cp-OX4",
  "url": "https://www.google.com/maps/place/%E6%8C%AF%E6%BA%90%E5%AE%B6%E7%95%9C%E9%86%AB%E9%99%A2/@24.99788,121.3177712,17z/data=!3m1!4b1!4m5!3m4!1s0x34681ef7f7b6cc59:0x7e397e2ae892a06b!8m2!3d24.99788!4d121.3199599",
  "location": {
    "lat": 24.99788,
    "lng": 121.3199599
  },
  "searchString": "桃園市的動物醫院",
  "openingHours": [
    {
      "day": "Tuesday,",
      "hours": "9:30AM to 12PM, 2 to 9:30PM"
    },
    {
      "day": "Wednesday,",
      "hours": "9:30AM to 12PM, 2 to 9:30PM"
    },
    {
      "day": "Thursday",
      "hours": "(Mid-Autumn Festival), 9:30AM to 12PM, 2 to 9:30PM, Hours might differ"
    },
    {
      "day": "Friday,",
      "hours": "9:30AM to 12PM, 2 to 9:30PM"
    },
    {
      "day": "Saturday,",
      "hours": "9:30AM to 12PM, 2 to 9:30PM"
    },
    {
      "day": "Sunday,",
      "hours": "Closed"
    },
    {
      "day": "Monday,",
      "hours": "9:30AM to 12PM, 2 to 9:30PM"
    }
  ],
  "reviewsCount": 12
},
{
  "title": "恆生動物醫院",
  "totalScore": 4.4,
  "categoryName": "Animal hospital",
  "address": "No. 13號, Section 1, Zhongmei Road, Zhongli District, Taoyuan City, Taiwan 320             320桃園市中壢區中美路一段13號",
  "locatedIn": null,
  "plusCode": "X65F+PH Zhongli District, Taoyuan City, Taiwan",
  "website": "facebook.com",
  "phone": "+886 3 425 1893",
  "temporarilyClosed": false,
  "permanentlyClosed": false,
  "rank": 58,
  "placeId": "ChIJtRDRZzYiaDQR0v7gvsJfJKs",
  "url": "https://www.google.com/maps/place/%E6%81%86%E7%94%9F%E5%8B%95%E7%89%A9%E9%86%AB%E9%99%A2/@24.9592595,121.2217873,17z/data=!3m1!4b1!4m5!3m4!1s0x3468223667d110b5:0xab245fc2bee0fed2!8m2!3d24.9592595!4d121.223976",
  "location": {
    "lat": 24.9592595,
    "lng": 121.223976
  },
  "searchString": "桃園市的動物醫院",
  "openingHours": [
    {
      "day": "Tuesday,",
      "hours": "9AM to 12PM, 2 to 9PM"
    },
    {
      "day": "Wednesday,",
      "hours": "Closed"
    },
    {
      "day": "Thursday",
      "hours": "(Mid-Autumn Festival), Closed, Holiday hours"
    },
    {
      "day": "Friday,",
      "hours": "9AM to 12PM, 2 to 9PM"
    },
    {
      "day": "Saturday,",
      "hours": "9AM to 5PM"
    },
    {
      "day": "Sunday,",
      "hours": "Closed"
    },
    {
      "day": "Monday,",
      "hours": "9AM to 12PM, 2 to 9PM"
    }
  ],
  "reviewsCount": 132
},
{
  "title": "中山動物醫院",
  "totalScore": 3.6,
  "categoryName": "Animal hospital",
  "address": "No. 583, Yanping Road, Zhongli District, Taoyuan City, Taiwan 320             320桃園市中壢區延平路583號",
  "locatedIn": null,
  "plusCode": "X63F+V2 Zhongli District, Taoyuan City, Taiwan",
  "website": "facebook.com",
  "phone": "+886 3 426 0566",
  "temporarilyClosed": false,
  "permanentlyClosed": false,
  "rank": 45,
  "placeId": "ChIJz1JcfkkiaDQRuB1zhg2uRDw",
  "url": "https://www.google.com/maps/place/%E4%B8%AD%E5%B1%B1%E5%8B%95%E7%89%A9%E9%86%AB%E9%99%A2/@24.954635,121.2203788,17z/data=!3m1!4b1!4m5!3m4!1s0x346822497e5c52cf:0x3c44ae0d86731db8!8m2!3d24.954635!4d121.2225675",
  "location": {
    "lat": 24.954635,
    "lng": 121.2225675
  },
  "searchString": "桃園市的動物醫院",
  "openingHours": [
    {
      "day": "Tuesday,",
      "hours": "10AM to 9PM"
    },
    {
      "day": "Wednesday,",
      "hours": "Closed"
    },
    {
      "day": "Thursday",
      "hours": "(Mid-Autumn Festival), 10AM to 9PM, Hours might differ"
    },
    {
      "day": "Friday,",
      "hours": "10AM to 9PM"
    },
    {
      "day": "Saturday,",
      "hours": "10AM to 9PM"
    },
    {
      "day": "Sunday,",
      "hours": "10AM to 9PM"
    },
    {
      "day": "Monday,",
      "hours": "10AM to 9PM"
    }
  ],
  "reviewsCount": 161
},
{
  "title": "長生動物醫院",
  "totalScore": 4.3,
  "categoryName": "Animal hospital",
  "address": "No. 24號, Section 2, Huanzhong East Road, Zhongli District, Taoyuan City, Taiwan 320             320桃園市中壢區環中東路二段24號",
  "locatedIn": null,
  "plusCode": "X62Q+GV Zhongli District, Taoyuan City, Taiwan",
  "website": null,
  "phone": "+886 3 456 6941",
  "temporarilyClosed": false,
  "permanentlyClosed": false,
  "rank": 30,
  "placeId": "ChIJbxyBgWoiaDQRRQkFtTsxHO0",
  "url": "https://www.google.com/maps/place/%E9%95%B7%E7%94%9F%E5%8B%95%E7%89%A9%E9%86%AB%E9%99%A2/@24.9512869,121.2375352,17z/data=!3m1!4b1!4m5!3m4!1s0x3468226a81811c6f:0xed1c313bb5050945!8m2!3d24.9512869!4d121.2397239",
  "location": {
    "lat": 24.9512869,
    "lng": 121.2397239
  },
  "searchString": "桃園市的動物醫院",
  "openingHours": [
    {
      "day": "Tuesday,",
      "hours": "9AM to 1PM, 2 to 9PM"
    },
    {
      "day": "Wednesday,",
      "hours": "9AM to 1PM, 2 to 9PM"
    },
    {
      "day": "Thursday",
      "hours": "(Mid-Autumn Festival), 9AM to 1PM, 2 to 9PM, Hours might differ"
    },
    {
      "day": "Friday,",
      "hours": "9AM to 1PM, 2 to 9PM"
    },
    {
      "day": "Saturday,",
      "hours": "9AM to 1PM, 2 to 7:30PM"
    },
    {
      "day": "Sunday,",
      "hours": "Closed"
    },
    {
      "day": "Monday,",
      "hours": "9AM to 1PM, 2 to 9PM"
    }
  ],
  "reviewsCount": 181
},
{
  "title": "諾亞動物醫院",
  "totalScore": 4.7,
  "categoryName": "Animal hospital",
  "address": "No. 35, Section 1, Zhongshan E Rd, Zhongli District, Taoyuan City, Taiwan 320             320桃園市中壢區中山東路一段35號",
  "locatedIn": null,
  "plusCode": "X64H+CW Zhongli District, Taoyuan City, Taiwan",
  "website": null,
  "phone": "+886 3 426 4015",
  "temporarilyClosed": false,
  "permanentlyClosed": false,
  "rank": 32,
  "placeId": "ChIJl1H1EEgiaDQRIp54HEDIE-U",
  "url": "https://www.google.com/maps/place/%E8%AB%BE%E4%BA%9E%E5%8B%95%E7%89%A9%E9%86%AB%E9%99%A2/@24.9560126,121.2276223,17z/data=!3m1!4b1!4m5!3m4!1s0x3468224810f55197:0xe513c8401c789e22!8m2!3d24.9560126!4d121.229811",
  "location": {
    "lat": 24.9560126,
    "lng": 121.229811
  },
  "searchString": "桃園市的動物醫院",
  "openingHours": [
    {
      "day": "Tuesday,",
      "hours": "12 to 9PM"
    },
    {
      "day": "Wednesday,",
      "hours": "12 to 9PM"
    },
    {
      "day": "Thursday",
      "hours": "(Mid-Autumn Festival), 12 to 9PM, Hours might differ"
    },
    {
      "day": "Friday,",
      "hours": "12 to 9PM"
    },
    {
      "day": "Saturday,",
      "hours": "12 to 9PM"
    },
    {
      "day": "Sunday,",
      "hours": "Closed"
    },
    {
      "day": "Monday,",
      "hours": "12 to 9PM"
    }
  ],
  "reviewsCount": 104
},
{
  "title": "東昇動物醫院",
  "totalScore": 3.7,
  "categoryName": "Animal hospital",
  "address": "No. 109, Xincheng Road, Yangmei District, Taoyuan City, Taiwan 326             326桃園市楊梅區新成路109號",
  "locatedIn": null,
  "plusCode": "W46W+5Q Yangmei District, Taoyuan City, Taiwan",
  "website": null,
  "phone": "+886 3 485 0171",
  "temporarilyClosed": false,
  "permanentlyClosed": false,
  "rank": 39,
  "placeId": "ChIJMY0zRjU7aDQR2EvT8HcwI3k",
  "url": "https://www.google.com/maps/place/%E6%9D%B1%E6%98%87%E5%8B%95%E7%89%A9%E9%86%AB%E9%99%A2/@24.9104828,121.1447033,17z/data=!3m1!4b1!4m5!3m4!1s0x34683b3546338d31:0x79233077f0d34bd8!8m2!3d24.9104828!4d121.146892",
  "location": {
    "lat": 24.9104828,
    "lng": 121.146892
  },
  "searchString": "桃園市的動物醫院",
  "openingHours": [
    {
      "day": "Tuesday,",
      "hours": "9AM to 9PM"
    },
    {
      "day": "Wednesday,",
      "hours": "9AM to 3:30PM"
    },
    {
      "day": "Thursday",
      "hours": "(Mid-Autumn Festival), 9AM to 9PM, Hours might differ"
    },
    {
      "day": "Friday,",
      "hours": "9AM to 9PM"
    },
    {
      "day": "Saturday,",
      "hours": "9AM to 5PM"
    },
    {
      "day": "Sunday,",
      "hours": "Closed"
    },
    {
      "day": "Monday,",
      "hours": "9AM to 9PM"
    }
  ],
  "reviewsCount": 69
},
{
  "title": "中央動物醫院",
  "totalScore": 4.1,
  "categoryName": "Animal hospital",
  "address": "No. 84, Section 2, Zhongyang West Road, Zhongli District, Taoyuan City, Taiwan 320             320桃園市中壢區中央西路二段84號",
  "locatedIn": null,
  "plusCode": "X658+CC Zhongli District, Taoyuan City, Taiwan",
  "website": null,
  "phone": "+886 3 495 3214",
  "temporarilyClosed": false,
  "permanentlyClosed": false,
  "rank": 28,
  "placeId": "ChIJ7SLfWrUjaDQRExGAYukLkFY",
  "url": "https://www.google.com/maps/place/%E4%B8%AD%E5%A4%AE%E5%8B%95%E7%89%A9%E9%86%AB%E9%99%A2/@24.9585303,121.2138255,17z/data=!3m1!4b1!4m5!3m4!1s0x346823b55adf22ed:0x56900be962801113!8m2!3d24.9585303!4d121.2160142",
  "location": {
    "lat": 24.9585303,
    "lng": 121.2160142
  },
  "searchString": "桃園市的動物醫院",
  "openingHours": [
    {
      "day": "Tuesday,",
      "hours": "9:30AM to 9:30PM"
    },
    {
      "day": "Wednesday,",
      "hours": "9:30AM to 9:30PM"
    },
    {
      "day": "Thursday",
      "hours": "(Mid-Autumn Festival), 9:30AM to 9:30PM, Hours might differ"
    },
    {
      "day": "Friday,",
      "hours": "9:30AM to 9:30PM"
    },
    {
      "day": "Saturday,",
      "hours": "9:30AM to 9:30PM"
    },
    {
      "day": "Sunday,",
      "hours": "Closed"
    },
    {
      "day": "Monday,",
      "hours": "9:30AM to 9:30PM"
    }
  ],
  "reviewsCount": 74
},
{
  "title": "逗號動物醫院",
  "totalScore": 4.6,
  "categoryName": "Animal hospital",
  "address": "No. 517號, Zhongshan Road, Taoyuan District, Taoyuan City, Taiwan 33059             33059桃園市桃園區中山路517號",
  "locatedIn": null,
  "plusCode": "X7RW+FW Taoyuan District, Taoyuan City, Taiwan",
  "website": "m.facebook.com",
  "phone": "+886 3 332 2212",
  "temporarilyClosed": false,
  "permanentlyClosed": false,
  "rank": 46,
  "placeId": "ChIJUTF2WmIfaDQRE7qm45QWgT8",
  "url": "https://www.google.com/maps/place/%E9%80%97%E8%99%9F%E5%8B%95%E7%89%A9%E9%86%AB%E9%99%A2/@24.9911425,121.2951171,17z/data=!3m1!4b1!4m5!3m4!1s0x34681f625a763151:0x3f811694e3a6ba13!8m2!3d24.9911425!4d121.2973058",
  "location": {
    "lat": 24.9911425,
    "lng": 121.2973058
  },
  "searchString": "桃園市的動物醫院",
  "openingHours": [
    {
      "day": "Tuesday,",
      "hours": "10AM to 1PM, 2 to 5:30PM, 6 to 10PM"
    },
    {
      "day": "Wednesday,",
      "hours": "10AM to 1PM, 2 to 5:30PM, 6 to 10PM"
    },
    {
      "day": "Thursday",
      "hours": "(Mid-Autumn Festival), 10AM to 6PM, Holiday hours"
    },
    {
      "day": "Friday,",
      "hours": "1:30 to 5:30PM, 6 to 10PM"
    },
    {
      "day": "Saturday,",
      "hours": "10AM to 1PM, 2 to 5:30PM, 6 to 10PM"
    },
    {
      "day": "Sunday,",
      "hours": "10AM to 1PM, 2 to 5:30PM, 6 to 10PM"
    },
    {
      "day": "Monday,",
      "hours": "10AM to 1PM, 2 to 5:30PM, 6 to 10PM"
    }
  ],
  "reviewsCount": 124
},
{
  "title": "奇昀動物醫院",
  "totalScore": 4.5,
  "categoryName": "Animal hospital",
  "address": "No. 374, Minsheng Road, Taoyuan District, Taoyuan City, Taiwan 330             330桃園市桃園區民生路374號",
  "locatedIn": null,
  "plusCode": "X8X6+2P Taoyuan District, Taoyuan City, Taiwan",
  "website": "dogcathospital.blogspot.tw",
  "phone": "+886 3 331 3170",
  "temporarilyClosed": false,
  "permanentlyClosed": false,
  "rank": 34,
  "placeId": "ChIJYZss_f4eaDQRgoXIue-UTPM",
  "url": "https://www.google.com/maps/place/%E5%A5%87%E6%98%80%E5%8B%95%E7%89%A9%E9%86%AB%E9%99%A2/@24.9975527,121.3095641,17z/data=!3m1!4b1!4m5!3m4!1s0x34681efefd2c9b61:0xf34c94efb9c88582!8m2!3d24.9975527!4d121.3117528",
  "location": {
    "lat": 24.9975527,
    "lng": 121.3117528
  },
  "searchString": "桃園市的動物醫院",
  "openingHours": [
    {
      "day": "Tuesday,",
      "hours": "11AM to 10PM"
    },
    {
      "day": "Wednesday,",
      "hours": "Closed"
    },
    {
      "day": "Thursday",
      "hours": "(Mid-Autumn Festival), 11AM to 10PM, Hours might differ"
    },
    {
      "day": "Friday,",
      "hours": "11AM to 10PM"
    },
    {
      "day": "Saturday,",
      "hours": "11AM to 10PM"
    },
    {
      "day": "Sunday,",
      "hours": "11AM to 10PM"
    },
    {
      "day": "Monday,",
      "hours": "11AM to 10PM"
    }
  ],
  "reviewsCount": 47
},
{
  "title": "佳貝捷動物醫院",
  "totalScore": 5,
  "categoryName": "Animal hospital",
  "address": "No. 232號, Jingguo Road, Taoyuan District, Taoyuan City, Taiwan 330             330桃園市桃園區經國路232號",
  "locatedIn": null,
  "plusCode": "2894+62 Taoyuan District, Taoyuan City, Taiwan",
  "website": "facebook.com",
  "phone": "+886 3 325 5525      phone3",
  "temporarilyClosed": false,
  "permanentlyClosed": false,
  "rank": 26,
  "placeId": "ChIJjQL9S1sfaDQR-FUkgYyxiOA",
  "url": "https://www.google.com/maps/place/%E4%BD%B3%E8%B2%9D%E6%8D%B7%E5%8B%95%E7%89%A9%E9%86%AB%E9%99%A2/@25.0181174,121.3028434,17z/data=!3m1!4b1!4m5!3m4!1s0x34681f5b4bfd028d:0xe088b18c812455f8!8m2!3d25.0181174!4d121.3050321",
  "location": {
    "lat": 25.0181174,
    "lng": 121.3050321
  },
  "searchString": "桃園市的動物醫院",
  "openingHours": [
    {
      "day": "Tuesday,",
      "hours": "9AM to 12PM, 2 to 5PM, 6:30 to 9PM"
    },
    {
      "day": "Wednesday,",
      "hours": "9AM to 12PM, 2 to 5PM, 6:30 to 9PM"
    },
    {
      "day": "Thursday",
      "hours": "(Mid-Autumn Festival), 9AM to 12PM, 2 to 5PM, 6:30 to 9PM, Hours might differ"
    },
    {
      "day": "Friday,",
      "hours": "9AM to 12PM, 2 to 5PM, 6:30 to 9PM"
    },
    {
      "day": "Saturday,",
      "hours": "9AM to 12PM, 2 to 5PM, 6:30 to 9PM"
    },
    {
      "day": "Sunday,",
      "hours": "Closed"
    },
    {
      "day": "Monday,",
      "hours": "9AM to 12PM, 2 to 5PM, 6:30 to 9PM"
    }
  ],
  "reviewsCount": 56
},
{
  "title": "日安動物醫院",
  "totalScore": 4.7,
  "categoryName": "Animal hospital",
  "address": "No. 267號, Yong'an Road, Taoyuan District, Taoyuan City, Taiwan 330             330桃園市桃園區永安路267號",
  "locatedIn": null,
  "plusCode": "X8X2+GW Taoyuan District, Taoyuan City, Taiwan",
  "website": null,
  "phone": "+886 3 333 5723",
  "temporarilyClosed": false,
  "permanentlyClosed": false,
  "rank": 21,
  "placeId": "ChIJd_wbtgYfaDQRgDhaeW8Itpk",
  "url": "https://www.google.com/maps/place/%E6%97%A5%E5%AE%89%E5%8B%95%E7%89%A9%E9%86%AB%E9%99%A2/@24.998797,121.3000763,17z/data=!3m1!4b1!4m5!3m4!1s0x34681f06b61bfc77:0x99b6086f795a3880!8m2!3d24.998797!4d121.302265",
  "location": {
    "lat": 24.998797,
    "lng": 121.302265
  },
  "searchString": "桃園市的動物醫院",
  "openingHours": [
    {
      "day": "Tuesday,",
      "hours": "9AM to 8:30PM"
    },
    {
      "day": "Wednesday,",
      "hours": "9AM to 8:30PM"
    },
    {
      "day": "Thursday",
      "hours": "(Mid-Autumn Festival), 9AM to 8:30PM, Hours might differ"
    },
    {
      "day": "Friday,",
      "hours": "9AM to 8:30PM"
    },
    {
      "day": "Saturday,",
      "hours": "9AM to 4PM"
    },
    {
      "day": "Sunday,",
      "hours": "Closed"
    },
    {
      "day": "Monday,",
      "hours": "9AM to 8:30PM"
    }
  ],
  "reviewsCount": 73
},
{
  "title": "大台北動物醫院",
  "totalScore": 4.2,
  "categoryName": "Animal hospital",
  "address": "No. 854號, Yong'an Road, Taoyuan District, Taoyuan City, Taiwan 330             330桃園市桃園區永安路854號",
  "locatedIn": null,
  "plusCode": "274R+WW Taoyuan District, Taoyuan City, Taiwan",
  "website": "dataipeivet.com.tw",
  "phone": "+886 3 301 7158",
  "temporarilyClosed": false,
  "permanentlyClosed": false,
  "rank": 33,
  "placeId": "ChIJe4KNJKcfaDQRWKmbh4mNK7Y",
  "url": "https://www.google.com/maps/place/%E5%A4%A7%E5%8F%B0%E5%8C%97%E5%8B%95%E7%89%A9%E9%86%AB%E9%99%A2/@25.0072507,121.2900742,17z/data=!3m1!4b1!4m5!3m4!1s0x34681fa7248d827b:0xb62b8d89879ba958!8m2!3d25.0072507!4d121.2922629",
  "location": {
    "lat": 25.0072507,
    "lng": 121.2922629
  },
  "searchString": "桃園市的動物醫院",
  "openingHours": [
    {
      "day": "Tuesday,",
      "hours": "9AM to 9PM"
    },
    {
      "day": "Wednesday,",
      "hours": "9AM to 9PM"
    },
    {
      "day": "Thursday",
      "hours": "(Mid-Autumn Festival), 9AM to 9PM, Hours might differ"
    },
    {
      "day": "Friday,",
      "hours": "9AM to 9PM"
    },
    {
      "day": "Saturday,",
      "hours": "9AM to 9PM"
    },
    {
      "day": "Sunday,",
      "hours": "9AM to 7PM"
    },
    {
      "day": "Monday,",
      "hours": "9AM to 9PM"
    }
  ],
  "reviewsCount": 136
},
{
  "title": "向陽動物醫院",
  "totalScore": 4.7,
  "categoryName": "Animal hospital",
  "address": "No. 579, Section 3, Sanmin Road, Taoyuan District, Taoyuan City, Taiwan 330             330桃園市桃園區三民路三段579號",
  "locatedIn": null,
  "plusCode": "X8M5+F3 Taoyuan District, Taoyuan City, Taiwan",
  "website": null,
  "phone": "+886 3 376 3376",
  "temporarilyClosed": false,
  "permanentlyClosed": false,
  "rank": 40,
  "placeId": "ChIJnYqlOh4faDQRIlrnm_KVcME",
  "url": "https://www.google.com/maps/place/%E5%90%91%E9%99%BD%E5%8B%95%E7%89%A9%E9%86%AB%E9%99%A2/@24.983642,121.3054603,17z/data=!3m1!4b1!4m5!3m4!1s0x34681f1e3aa58a9d:0xc17095f29be75a22!8m2!3d24.983642!4d121.307649",
  "location": {
    "lat": 24.983642,
    "lng": 121.307649
  },
  "searchString": "桃園市的動物醫院",
  "openingHours": [
    {
      "day": "Tuesday,",
      "hours": "9:30AM to 9PM"
    },
    {
      "day": "Wednesday,",
      "hours": "9:30AM to 9PM"
    },
    {
      "day": "Thursday",
      "hours": "(Mid-Autumn Festival), 9:30AM to 9PM, Hours might differ"
    },
    {
      "day": "Friday,",
      "hours": "9:30AM to 9PM"
    },
    {
      "day": "Saturday,",
      "hours": "9:30AM to 9PM"
    },
    {
      "day": "Sunday,",
      "hours": "Closed"
    },
    {
      "day": "Monday,",
      "hours": "9:30AM to 9PM"
    }
  ],
  "reviewsCount": 86
},
{
  "title": "圓霖動物醫院-中正分院",
  "totalScore": 2.7,
  "categoryName": "Animal hospital",
  "address": "No. 836號, Zhongzheng Rd, Taoyuan District, Taoyuan City, Taiwan 330             330桃園市桃園區中正路836號",
  "locatedIn": null,
  "plusCode": "2862+2M Taoyuan District, Taoyuan City, Taiwan",
  "website": "petsfamily.com.tw",
  "phone": "+886 3 317 7608",
  "temporarilyClosed": false,
  "permanentlyClosed": false,
  "rank": 31,
  "placeId": "ChIJ0wQNny4faDQRZdL4s6baK3E",
  "url": "https://www.google.com/maps/place/%E5%9C%93%E9%9C%96%E5%8B%95%E7%89%A9%E9%86%AB%E9%99%A2-%E4%B8%AD%E6%AD%A3%E5%88%86%E9%99%A2/@25.0100274,121.2995401,17z/data=!3m1!4b1!4m5!3m4!1s0x34681f2e9f0d04d3:0x712bdaa6b3f8d265!8m2!3d25.0100274!4d121.3017288",
  "location": {
    "lat": 25.0100274,
    "lng": 121.3017288
  },
  "searchString": "桃園市的動物醫院",
  "openingHours": [
    {
      "day": "Tuesday,",
      "hours": "9AM to 10PM"
    },
    {
      "day": "Wednesday,",
      "hours": "9AM to 10PM"
    },
    {
      "day": "Thursday",
      "hours": "(Mid-Autumn Festival), 9AM to 10PM, Hours might differ"
    },
    {
      "day": "Friday,",
      "hours": "9AM to 10PM"
    },
    {
      "day": "Saturday,",
      "hours": "9AM to 10PM"
    },
    {
      "day": "Sunday,",
      "hours": "9AM to 10PM"
    },
    {
      "day": "Monday,",
      "hours": "9AM to 10PM"
    }
  ],
  "reviewsCount": 12
},
{
  "title": "小米動物醫院",
  "totalScore": 4.8,
  "categoryName": "Animal hospital",
  "address": "No. 383號, Tong'an Street, Taoyuan District, Taoyuan City, Taiwan 330             330桃園市桃園區同安街383號",
  "locatedIn": null,
  "plusCode": "2892+5Q Taoyuan District, Taoyuan City, Taiwan",
  "website": "milletvet.business.site",
  "phone": "+886 3 316 4371",
  "temporarilyClosed": false,
  "permanentlyClosed": false,
  "rank": 27,
  "placeId": "ChIJYVpVW7EfaDQRZJopQwyyrDs",
  "url": "https://www.google.com/maps/place/%E5%B0%8F%E7%B1%B3%E5%8B%95%E7%89%A9%E9%86%AB%E9%99%A2/@25.017897,121.2997513,17z/data=!3m1!4b1!4m5!3m4!1s0x34681fb15b555a61:0x3bacb20c43299a64!8m2!3d25.017897!4d121.30194",
  "location": {
    "lat": 25.017897,
    "lng": 121.30194
  },
  "searchString": "桃園市的動物醫院",
  "openingHours": [
    {
      "day": "Tuesday,",
      "hours": "10AM to 12PM, 1 to 5PM, 6 to 9PM"
    },
    {
      "day": "Wednesday,",
      "hours": "10AM to 12PM, 1 to 5PM, 6 to 9PM"
    },
    {
      "day": "Thursday",
      "hours": "(Mid-Autumn Festival), 10AM to 12PM, 1 to 5PM, 6 to 9PM, Holiday hours"
    },
    {
      "day": "Friday,",
      "hours": "Closed"
    },
    {
      "day": "Saturday,",
      "hours": "10AM to 12PM, 1 to 5PM, 6 to 9PM"
    },
    {
      "day": "Sunday,",
      "hours": "Closed"
    },
    {
      "day": "Monday,",
      "hours": "10AM to 12PM, 1 to 5PM, 6 to 9PM"
    }
  ],
  "reviewsCount": 121
},
{
  "title": "綠光動物醫院",
  "totalScore": 4.4,
  "categoryName": "Animal hospital",
  "address": "No. 250號, Minzu Road, Taoyuan District, Taoyuan City, Taiwan 330             330桃園市桃園區民族路250號",
  "locatedIn": null,
  "plusCode": "X8W4+CR Taoyuan District, Taoyuan City, Taiwan",
  "website": "facebook.com",
  "phone": "+886 3 331 1198",
  "temporarilyClosed": false,
  "permanentlyClosed": false,
  "rank": 23,
  "placeId": "ChIJNy0JGAAfaDQRSnrm533e05I",
  "url": "https://www.google.com/maps/place/%E7%B6%A0%E5%85%89%E5%8B%95%E7%89%A9%E9%86%AB%E9%99%A2/@24.9960252,121.3049039,17z/data=!3m1!4b1!4m5!3m4!1s0x34681f0018092d37:0x92d3de7de7e67a4a!8m2!3d24.9960252!4d121.3070926",
  "location": {
    "lat": 24.9960252,
    "lng": 121.3070926
  },
  "searchString": "桃園市的動物醫院",
  "openingHours": [
    {
      "day": "Tuesday,",
      "hours": "10AM to 12PM, 2 to 9PM"
    },
    {
      "day": "Wednesday,",
      "hours": "10AM to 12PM, 2 to 9PM"
    },
    {
      "day": "Thursday",
      "hours": "(Mid-Autumn Festival), 10AM to 12PM, 2 to 9PM, Hours might differ"
    },
    {
      "day": "Friday,",
      "hours": "10AM to 12PM, 2 to 9PM"
    },
    {
      "day": "Saturday,",
      "hours": "10AM to 12PM, 2 to 9PM"
    },
    {
      "day": "Sunday,",
      "hours": "10AM to 12PM, 2 to 9PM"
    },
    {
      "day": "Monday,",
      "hours": "10AM to 12PM, 2 to 9PM"
    }
  ],
  "reviewsCount": 141
},
{
  "title": "湖光動物醫院",
  "totalScore": 4.7,
  "categoryName": "Animal hospital",
  "address": "No. 178號, Taoyuan Street, Luzhu District, Taoyuan City, Taiwan 338             338桃園市蘆竹區桃園街178號",
  "locatedIn": null,
  "plusCode": "27XR+77 Luzhu District, Taoyuan City, Taiwan",
  "website": "zh-tw.facebook.com",
  "phone": "+886 3 352 8861",
  "temporarilyClosed": false,
  "permanentlyClosed": false,
  "rank": 22,
  "placeId": "ChIJB4ug-XWgQjQRmClgdSRVKjw",
  "url": "https://www.google.com/maps/place/%E6%B9%96%E5%85%89%E5%8B%95%E7%89%A9%E9%86%AB%E9%99%A2/@25.0481906,121.2885067,17z/data=!3m1!4b1!4m5!3m4!1s0x3442a075f9a08b07:0x3c2a552475602998!8m2!3d25.0481906!4d121.2906954",
  "location": {
    "lat": 25.0481906,
    "lng": 121.2906954
  },
  "searchString": "桃園市的動物醫院",
  "openingHours": [
    {
      "day": "Tuesday,",
      "hours": "10:30AM to 12:30PM, 1:30 to 5PM, 6 to 9PM"
    },
    {
      "day": "Wednesday,",
      "hours": "Closed"
    },
    {
      "day": "Thursday",
      "hours": "(Mid-Autumn Festival), 10:30AM to 12:30PM, 1:30 to 5PM, 6 to 9PM, Hours might differ"
    },
    {
      "day": "Friday,",
      "hours": "10:30AM to 12:30PM, 1:30 to 5PM, 6 to 9PM"
    },
    {
      "day": "Saturday,",
      "hours": "10:30AM to 12:30PM, 1:30 to 5PM, 6 to 9PM"
    },
    {
      "day": "Sunday,",
      "hours": "Closed"
    },
    {
      "day": "Monday,",
      "hours": "10:30AM to 12:30PM, 1:30 to 5PM, 6 to 9PM"
    }
  ],
  "reviewsCount": 185
},
{
  "title": "麻吉動物醫院",
  "totalScore": 5,
  "categoryName": "Animal hospital",
  "address": "No. 4號, Zhongshan North Road, Taoyuan District, Taoyuan City, Taiwan 330             330桃園市桃園區中山北路4號",
  "locatedIn": null,
  "plusCode": "X8R3+WC Taoyuan District, Taoyuan City, Taiwan",
  "website": "facebook.com",
  "phone": "+886 3 333 3314",
  "temporarilyClosed": false,
  "permanentlyClosed": false,
  "rank": 38,
  "placeId": "ChIJ3RGOTgMfaDQR3Bcrv7a3tQ0",
  "url": "https://www.google.com/maps/place/%E9%BA%BB%E5%90%89%E5%8B%95%E7%89%A9%E9%86%AB%E9%99%A2/@24.992252,121.3014343,17z/data=!3m1!4b1!4m5!3m4!1s0x34681f034e8e11dd:0xdb5b7b6bf2b17dc!8m2!3d24.992252!4d121.303623",
  "location": {
    "lat": 24.992252,
    "lng": 121.303623
  },
  "searchString": "桃園市的動物醫院",
  "openingHours": [
    {
      "day": "Tuesday,",
      "hours": "10AM to 12PM, 1:30 to 5PM, 6 to 8:30PM"
    },
    {
      "day": "Wednesday,",
      "hours": "10AM to 12PM, 1:30 to 5PM, 6 to 8:30PM"
    },
    {
      "day": "Thursday",
      "hours": "(Mid-Autumn Festival), 10AM to 12PM, 1:30 to 5PM, 6 to 8:30PM, Hours might differ"
    },
    {
      "day": "Friday,",
      "hours": "10AM to 12PM, 1:30 to 5PM, 6 to 8:30PM"
    },
    {
      "day": "Saturday,",
      "hours": "10AM to 12PM, 1:30 to 6PM"
    },
    {
      "day": "Sunday,",
      "hours": "Closed"
    },
    {
      "day": "Monday,",
      "hours": "10AM to 12PM, 1:30 to 5PM, 6 to 8:30PM"
    }
  ],
  "reviewsCount": 39
},
{
  "title": "榮興獸醫院",
  "totalScore": 3.7,
  "categoryName": "Animal hospital",
  "address": "No. 177, Zhonghua Road, Xinwu District, Taoyuan City, Taiwan 327             327桃園市新屋區中華路177號",
  "locatedIn": null,
  "plusCode": "X4C5+58 Xinwu District, Taoyuan City, Taiwan",
  "website": null,
  "phone": "+886 3 477 3992      phone6",
  "temporarilyClosed": false,
  "permanentlyClosed": false,
  "rank": 11,
  "placeId": "ChIJowSofqQlaDQRGBUWW9C58ZE",
  "url": "https://www.google.com/maps/place/%E6%A6%AE%E8%88%88%E7%8D%B8%E9%86%AB%E9%99%A2/@24.9703884,121.1061711,17z/data=!3m1!4b1!4m5!3m4!1s0x346825a47ea804a3:0x91f1b9d05b161518!8m2!3d24.9703884!4d121.1083598",
  "location": {
    "lat": 24.9703884,
    "lng": 121.1083598
  },
  "searchString": "桃園市的動物醫院",
  "openingHours": [
    {
      "day": "Tuesday,",
      "hours": "10AM to 7PM"
    },
    {
      "day": "Wednesday,",
      "hours": "10AM to 7PM"
    },
    {
      "day": "Thursday",
      "hours": "(Mid-Autumn Festival), 10AM to 7PM, Hours might differ"
    },
    {
      "day": "Friday,",
      "hours": "10AM to 7PM"
    },
    {
      "day": "Saturday,",
      "hours": "10AM to 7PM"
    },
    {
      "day": "Sunday,",
      "hours": "9AM to 1PM"
    },
    {
      "day": "Monday,",
      "hours": "10AM to 7PM"
    }
  ],
  "reviewsCount": 86
},
{
  "title": "SMILE Baoqing Branch Animal Hospital",
  "totalScore": 4.3,
  "categoryName": "Animal hospital",
  "address": "No. 422號, Baoqing Road, Taoyuan District, Taoyuan City, Taiwan 330             330桃園市桃園區寶慶路422號",
  "locatedIn": null,
  "plusCode": "279R+C6 Taoyuan District, Taoyuan City, Taiwan",
  "website": "smileanimal.com",
  "phone": "+886 3 301 1515",
  "temporarilyClosed": false,
  "permanentlyClosed": false,
  "rank": 16,
  "placeId": "ChIJOx8WibwfaDQRRVZ80Jnf9KY",
  "url": "https://www.google.com/maps/place/SMILE+Baoqing+Branch+Animal+Hospital/@25.0185989,121.2883463,17z/data=!3m1!4b1!4m5!3m4!1s0x34681fbc89161f3b:0xa6f4df99d07c5645!8m2!3d25.0185989!4d121.290535",
  "location": {
    "lat": 25.0185989,
    "lng": 121.290535
  },
  "searchString": "桃園市的動物醫院",
  "openingHours": [
    {
      "day": "Tuesday,",
      "hours": "9 to 11:30AM, 1 to 8:30PM"
    },
    {
      "day": "Wednesday,",
      "hours": "9 to 11:30AM, 1 to 8:30PM"
    },
    {
      "day": "Thursday",
      "hours": "(Mid-Autumn Festival), 9 to 11:30AM, 1 to 8:30PM, Hours might differ"
    },
    {
      "day": "Friday,",
      "hours": "9 to 11:30AM, 1 to 8:30PM"
    },
    {
      "day": "Saturday,",
      "hours": "9 to 11:30AM, 1 to 8:30PM"
    },
    {
      "day": "Sunday,",
      "hours": "Closed"
    },
    {
      "day": "Monday,",
      "hours": "9 to 11:30AM, 1 to 8:30PM"
    }
  ],
  "reviewsCount": 108
},
{
  "title": "中壢太樸動物醫院",
  "totalScore": 4.2,
  "categoryName": "Animal hospital",
  "address": "No. 51, Zhongbei Road, Zhongli District, Taoyuan City, Taiwan 320             320桃園市中壢區中北路51號",
  "locatedIn": null,
  "plusCode": "X64P+FP Zhongli District, Taoyuan City, Taiwan",
  "website": "facebook.com",
  "phone": "+886 3 456 9911",
  "temporarilyClosed": false,
  "permanentlyClosed": false,
  "rank": 36,
  "placeId": "ChIJa7zvpz8iaDQRcd36W9gew7g",
  "url": "https://www.google.com/maps/place/%E4%B8%AD%E5%A3%A2%E5%A4%AA%E6%A8%B8%E5%8B%95%E7%89%A9%E9%86%AB%E9%99%A2/@24.9561651,121.2346783,17z/data=!3m1!4b1!4m5!3m4!1s0x3468223fa7efbc6b:0xb8c31ed85bfadd71!8m2!3d24.9561651!4d121.236867",
  "location": {
    "lat": 24.9561651,
    "lng": 121.236867
  },
  "searchString": "桃園市的動物醫院",
  "openingHours": [
    {
      "day": "Tuesday,",
      "hours": "10:30AM to 9:30PM"
    },
    {
      "day": "Wednesday,",
      "hours": "10:30AM to 9:30PM"
    },
    {
      "day": "Thursday",
      "hours": "(Mid-Autumn Festival), 10:30AM to 9:30PM, Hours might differ"
    },
    {
      "day": "Friday,",
      "hours": "10:30AM to 9:30PM"
    },
    {
      "day": "Saturday,",
      "hours": "10:30AM to 9:30PM"
    },
    {
      "day": "Sunday,",
      "hours": "10:30AM to 9:30PM"
    },
    {
      "day": "Monday,",
      "hours": "10:30AM to 9:30PM"
    }
  ],
  "reviewsCount": 249
},
{
  "title": "新桃園犬貓專科醫院",
  "totalScore": 4.1,
  "categoryName": "Animal hospital",
  "address": "No. 1050號, Zhongshan Road, Taoyuan District, Taoyuan City, Taiwan 330             330桃園市桃園區中山路1050號",
  "locatedIn": null,
  "plusCode": "X7QM+5P Taoyuan District, Taoyuan City, Taiwan",
  "website": "facebook.com",
  "phone": "+886 3 392 0229",
  "temporarilyClosed": false,
  "permanentlyClosed": false,
  "rank": 18,
  "placeId": "ChIJWQQ9xQ8faDQR03hOQ2XJiqI",
  "url": "https://www.google.com/maps/place/%E6%96%B0%E6%A1%83%E5%9C%92%E7%8A%AC%E8%B2%93%E5%B0%88%E7%A7%91%E9%86%AB%E9%99%A2/@24.9879907,121.2820867,17z/data=!3m1!4b1!4m5!3m4!1s0x34681f0fc53d0459:0xa28ac965434e78d3!8m2!3d24.9879907!4d121.2842754",
  "location": {
    "lat": 24.9879907,
    "lng": 121.2842754
  },
  "searchString": "桃園市的動物醫院",
  "openingHours": [
    {
      "day": "Tuesday,",
      "hours": "11AM to 8PM"
    },
    {
      "day": "Wednesday,",
      "hours": "11AM to 8PM"
    },
    {
      "day": "Thursday",
      "hours": "(Mid-Autumn Festival), 11AM to 8PM, Hours might differ"
    },
    {
      "day": "Friday,",
      "hours": "11AM to 8PM"
    },
    {
      "day": "Saturday,",
      "hours": "11AM to 3PM"
    },
    {
      "day": "Sunday,",
      "hours": "Closed"
    },
    {
      "day": "Monday,",
      "hours": "12AM to 8PM"
    }
  ],
  "reviewsCount": 95
},
{
  "title": "元氣動物醫院三民總院24hr急診重症中心",
  "totalScore": 3.9,
  "categoryName": "Animal hospital",
  "address": "No. 381號, Section 3, Sanmin Road, Taoyuan District, Taoyuan City, Taiwan 330             330桃園市桃園區三民路三段381號",
  "locatedIn": null,
  "plusCode": "X8Q4+XQ Taoyuan District, Taoyuan City, Taiwan",
  "website": "genkivet.com.tw",
  "phone": "+886 3 333 3816",
  "temporarilyClosed": false,
  "permanentlyClosed": false,
  "rank": 5,
  "placeId": "ChIJt5G1Rh0faDQRuNaeaz6dLS8",
  "url": "https://www.google.com/maps/place/%E5%85%83%E6%B0%A3%E5%8B%95%E7%89%A9%E9%86%AB%E9%99%A2%E4%B8%89%E6%B0%91%E7%B8%BD%E9%99%A224hr%E6%80%A5%E8%A8%BA%E9%87%8D%E7%97%87%E4%B8%AD%E5%BF%83/@24.99,121.3047557,17z/data=!3m1!4b1!4m5!3m4!1s0x34681f1d46b591b7:0x2f2d9d3e6b9ed6b8!8m2!3d24.99!4d121.3069444",
  "location": {
    "lat": 24.99,
    "lng": 121.3069444
  },
  "searchString": "桃園市的動物醫院",
  "openingHours": [
    {
      "day": "Tuesday,",
      "hours": "Open 24 hours"
    },
    {
      "day": "Wednesday,",
      "hours": "Open 24 hours"
    },
    {
      "day": "Thursday",
      "hours": "(Mid-Autumn Festival), Open 24 hours, Holiday hours"
    },
    {
      "day": "Friday,",
      "hours": "Open 24 hours"
    },
    {
      "day": "Saturday,",
      "hours": "Open 24 hours"
    },
    {
      "day": "Sunday,",
      "hours": "Open 24 hours"
    },
    {
      "day": "Monday,",
      "hours": "Open 24 hours"
    }
  ],
  "reviewsCount": 338
},
{
  "title": "安辛動物醫院",
  "totalScore": 4.5,
  "categoryName": "Animal hospital",
  "address": "No. 558, Minsheng Road, Taoyuan District, Taoyuan City, Taiwan 330             330桃園市桃園區民生路558號",
  "locatedIn": null,
  "plusCode": "2826+93 Taoyuan District, Taoyuan City, Taiwan",
  "website": "icreatepet.com.tw",
  "phone": "+886 3 336 7775",
  "temporarilyClosed": false,
  "permanentlyClosed": false,
  "rank": 4,
  "placeId": "ChIJzz7UHfweaDQR2KnGntyNuak",
  "url": "https://www.google.com/maps/place/%E5%AE%89%E8%BE%9B%E5%8B%95%E7%89%A9%E9%86%AB%E9%99%A2/@25.0008831,121.3080488,17z/data=!3m1!4b1!4m5!3m4!1s0x34681efc1dd43ecf:0xa9b98ddc9ec6a9d8!8m2!3d25.0008831!4d121.3102375",
  "location": {
    "lat": 25.0008831,
    "lng": 121.3102375
  },
  "searchString": "桃園市的動物醫院",
  "openingHours": [
    {
      "day": "Tuesday,",
      "hours": "10AM to 10PM"
    },
    {
      "day": "Wednesday,",
      "hours": "10AM to 10PM"
    },
    {
      "day": "Thursday",
      "hours": "(Mid-Autumn Festival), 10AM to 10PM, Hours might differ"
    },
    {
      "day": "Friday,",
      "hours": "10AM to 10PM"
    },
    {
      "day": "Saturday,",
      "hours": "10AM to 10PM"
    },
    {
      "day": "Sunday,",
      "hours": "Closed"
    },
    {
      "day": "Monday,",
      "hours": "10AM to 10PM"
    }
  ],
  "reviewsCount": 158
},
{
  "title": "陳獸醫院",
  "totalScore": 4.8,
  "categoryName": "Animal hospital",
  "address": "No. 228號, Fuxing Road, Taoyuan District, Taoyuan City, Taiwan 330             330桃園市桃園區復興路228號",
  "locatedIn": null,
  "plusCode": "X8Q5+RQ Taoyuan District, Taoyuan City, Taiwan",
  "website": "facebook.com",
  "phone": "+886 3 333 1119",
  "temporarilyClosed": false,
  "permanentlyClosed": false,
  "rank": 2,
  "placeId": "ChIJy7qLu-IeaDQR8xjnLx9UKvA",
  "url": "https://www.google.com/maps/place/%E9%99%B3%E7%8D%B8%E9%86%AB%E9%99%A2/@24.989537,121.3071893,17z/data=!3m1!4b1!4m5!3m4!1s0x34681ee2bb8bbacb:0xf02a541f2fe718f3!8m2!3d24.989537!4d121.309378",
  "location": {
    "lat": 24.989537,
    "lng": 121.309378
  },
  "searchString": "桃園市的動物醫院",
  "openingHours": [
    {
      "day": "Tuesday,",
      "hours": "9AM to 12PM, 2 to 9PM"
    },
    {
      "day": "Wednesday,",
      "hours": "9AM to 12PM, 2 to 9PM"
    },
    {
      "day": "Thursday",
      "hours": "(Mid-Autumn Festival), 9AM to 12PM, 2 to 9PM, Hours might differ"
    },
    {
      "day": "Friday,",
      "hours": "9AM to 12PM, 2 to 9PM"
    },
    {
      "day": "Saturday,",
      "hours": "9AM to 12PM, 2 to 6PM"
    },
    {
      "day": "Sunday,",
      "hours": "Closed"
    },
    {
      "day": "Monday,",
      "hours": "9AM to 12PM, 2 to 9PM"
    }
  ],
  "reviewsCount": 269
},
{
  "title": "寶建動物醫院",
  "totalScore": 4.6,
  "categoryName": "Animal hospital",
  "address": "No. 79號, Taoying Road, Taoyuan District, Taoyuan City, Taiwan 330             330桃園市桃園區桃鶯路79號",
  "locatedIn": null,
  "plusCode": "X8Q9+67 Taoyuan District, Taoyuan City, Taiwan",
  "website": "facebook.com",
  "phone": "+886 3 364 1207",
  "temporarilyClosed": false,
  "permanentlyClosed": false,
  "rank": 24,
  "placeId": "ChIJHZKtNuUeaDQRu5XkTitCqhM",
  "url": "https://www.google.com/maps/place/%E5%AF%B6%E5%BB%BA%E5%8B%95%E7%89%A9%E9%86%AB%E9%99%A2/@24.9880662,121.316028,17z/data=!4m5!3m4!1s0x34681ee536ad921d:0x13aa422b4ee495bb!8m2!3d24.9880662!4d121.3182167",
  "location": {
    "lat": 24.9880662,
    "lng": 121.3182167
  },
  "searchString": "桃園市的動物醫院",
  "openingHours": [
    {
      "day": "Tuesday,",
      "hours": "10AM to 8:30PM"
    },
    {
      "day": "Wednesday,",
      "hours": "10AM to 8:30PM"
    },
    {
      "day": "Thursday",
      "hours": "(Mid-Autumn Festival), 10AM to 3PM, Holiday hours"
    },
    {
      "day": "Friday,",
      "hours": "10AM to 3PM"
    },
    {
      "day": "Saturday,",
      "hours": "10AM to 3PM"
    },
    {
      "day": "Sunday,",
      "hours": "Closed"
    },
    {
      "day": "Monday,",
      "hours": "10AM to 8:30PM"
    }
  ],
  "reviewsCount": 57
},
{
  "title": "維尼動物醫院-洗牙 結紮 寵物健康檢查 推薦動物醫院 寵物針灸 貓狗 推薦獸醫 寵物醫院",
  "totalScore": 4.8,
  "categoryName": "Animal hospital",
  "address": "No. 1091號, Section 2, Jieshou Road, Bade District, Taoyuan City, Taiwan 334             334桃園市八德區介壽路二段1091號",
  "locatedIn": null,
  "plusCode": "W7MX+C3 Bade District, Taoyuan City, Taiwan",
  "website": "business.site",
  "phone": "+886 3 365 9250",
  "temporarilyClosed": false,
  "permanentlyClosed": false,
  "rank": 8,
  "placeId": "ChIJZxbHCAEZaDQReFKwhtmhsNQ",
  "url": "https://www.google.com/maps/place/%E7%B6%AD%E5%B0%BC%E5%8B%95%E7%89%A9%E9%86%AB%E9%99%A2-%E6%B4%97%E7%89%99+%E7%B5%90%E7%B4%AE+%E5%AF%B5%E7%89%A9%E5%81%A5%E5%BA%B7%E6%AA%A2%E6%9F%A5+%E6%8E%A8%E8%96%A6%E5%8B%95%E7%89%A9%E9%86%AB%E9%99%A2+%E5%AF%B5%E7%89%A9%E9%87%9D%E7%81%B8+%E8%B2%93%E7%8B%97+%E6%8E%A8%E8%96%A6%E7%8D%B8%E9%86%AB+%E5%AF%B5%E7%89%A9%E9%86%AB%E9%99%A2/@24.9335739,121.2955332,17z/data=!3m1!4b1!4m5!3m4!1s0x3468190108c71667:0xd4b0a1d986b05278!8m2!3d24.9335739!4d121.2977219",
  "location": {
    "lat": 24.9335739,
    "lng": 121.2977219
  },
  "searchString": "桃園市的動物醫院",
  "openingHours": [
    {
      "day": "Tuesday,",
      "hours": "9AM to 9PM"
    },
    {
      "day": "Wednesday,",
      "hours": "Closed"
    },
    {
      "day": "Thursday",
      "hours": "(Mid-Autumn Festival), 9AM to 9PM, Hours might differ"
    },
    {
      "day": "Friday,",
      "hours": "9AM to 9PM"
    },
    {
      "day": "Saturday,",
      "hours": "9AM to 9PM"
    },
    {
      "day": "Sunday,",
      "hours": "9AM to 9PM"
    },
    {
      "day": "Monday,",
      "hours": "9AM to 9PM"
    }
  ],
  "reviewsCount": 90
},
{
  "title": "品湛動物醫院",
  "totalScore": 3.9,
  "categoryName": "Animal hospital",
  "address": "No. 495-9, Minsheng Road, Taoyuan District, Taoyuan City, Taiwan 330             330桃園市桃園區民生路495-9號",
  "locatedIn": null,
  "plusCode": "2835+3P Taoyuan District, Taoyuan City, Taiwan",
  "website": "facebook.com",
  "phone": "+886 3 336 3252",
  "temporarilyClosed": false,
  "permanentlyClosed": false,
  "rank": 1,
  "placeId": "ChIJt3t9QPseaDQRVMTeTuYSMNE",
  "url": "https://www.google.com/maps/place/%E5%93%81%E6%B9%9B%E5%8B%95%E7%89%A9%E9%86%AB%E9%99%A2/@25.0027364,121.3071775,17z/data=!3m1!4b1!4m5!3m4!1s0x34681efb407d7bb7:0xd13012e64edec454!8m2!3d25.0027364!4d121.3093662",
  "location": {
    "lat": 25.0027364,
    "lng": 121.3093662
  },
  "searchString": "桃園市的動物醫院",
  "reviewsCount": 279
},
{
  "title": "中華動物醫院",
  "totalScore": 4.1,
  "categoryName": "Animal hospital",
  "address": "No. 223號, No. 338, Zhongzheng Road, Luzhu District, Taoyuan City, Taiwan 338             No. 223號, No. 338中正路蘆竹區桃園市338",
  "locatedIn": null,
  "plusCode": "27WV+G2 Luzhu District, Taoyuan City, Taiwan",
  "website": null,
  "phone": "+886 3 352 2669",
  "temporarilyClosed": false,
  "permanentlyClosed": false,
  "rank": 13,
  "placeId": "ChIJ286gv9gfaDQRZbp8AUn_TXs",
  "url": "https://www.google.com/maps/place/%E4%B8%AD%E8%8F%AF%E5%8B%95%E7%89%A9%E9%86%AB%E9%99%A2/@25.046367,121.2903163,17z/data=!3m1!4b1!4m5!3m4!1s0x34681fd8bfa0cedb:0x7b4dff49017cba65!8m2!3d25.046367!4d121.292505",
  "location": {
    "lat": 25.046367,
    "lng": 121.292505
  },
  "searchString": "桃園市的動物醫院",
  "openingHours": [
    {
      "day": "Tuesday,",
      "hours": "9AM to 9PM"
    },
    {
      "day": "Wednesday,",
      "hours": "9AM to 9PM"
    },
    {
      "day": "Thursday",
      "hours": "(Mid-Autumn Festival), 9AM to 9PM, Hours might differ"
    },
    {
      "day": "Friday,",
      "hours": "9AM to 9PM"
    },
    {
      "day": "Saturday,",
      "hours": "2 to 9PM"
    },
    {
      "day": "Sunday,",
      "hours": "Closed"
    },
    {
      "day": "Monday,",
      "hours": "9AM to 9PM"
    }
  ],
  "reviewsCount": 92
},
{
  "title": "欣欣動物醫院",
  "totalScore": 4,
  "categoryName": "Animal hospital",
  "address": "No. 918號, Section 2, Wanshou Road, Guishan District, Taoyuan City, Taiwan 333             333桃園市龜山區萬壽路二段918號",
  "locatedIn": null,
  "plusCode": "X8WQ+8F Guishan District, Taoyuan City, Taiwan",
  "website": "sinsin-pet.com.tw",
  "phone": "+886 3 350 0683      phone3",
  "temporarilyClosed": false,
  "permanentlyClosed": false,
  "rank": 20,
  "placeId": "ChIJaxqaQWIeaDQRBoC4MTaKpgc",
  "url": "https://www.google.com/maps/place/%E6%AC%A3%E6%AC%A3%E5%8B%95%E7%89%A9%E9%86%AB%E9%99%A2/@24.995763,121.3365413,17z/data=!3m1!4b1!4m5!3m4!1s0x34681e62419a1a6b:0x7a68a3631b88006!8m2!3d24.995763!4d121.33873",
  "location": {
    "lat": 24.995763,
    "lng": 121.33873
  },
  "searchString": "桃園市的動物醫院",
  "openingHours": [
    {
      "day": "Tuesday,",
      "hours": "9AM to 9PM"
    },
    {
      "day": "Wednesday,",
      "hours": "9AM to 9PM"
    },
    {
      "day": "Thursday",
      "hours": "(Mid-Autumn Festival), 9AM to 9PM, Hours might differ"
    },
    {
      "day": "Friday,",
      "hours": "9AM to 9PM"
    },
    {
      "day": "Saturday,",
      "hours": "9AM to 9PM"
    },
    {
      "day": "Sunday,",
      "hours": "9AM to 5:30PM"
    },
    {
      "day": "Monday,",
      "hours": "9AM to 9PM"
    }
  ],
  "reviewsCount": 236
},
{
  "title": "人人動物醫院 八德分院",
  "totalScore": 4.3,
  "categoryName": "Animal hospital",
  "address": "No. 693號, Section 1, Jieshou Road, Bade District, Taoyuan City, Taiwan 334             334桃園市八德區介壽路一段693號",
  "locatedIn": null,
  "plusCode": "X882+47 Bade District, Taoyuan City, Taiwan",
  "website": "facebook.com",
  "phone": "+886 3 366 1314      phone7",
  "temporarilyClosed": false,
  "permanentlyClosed": false,
  "rank": 12,
  "placeId": "ChIJYXczOywfaDQRAl-BQfr2uH4",
  "url": "https://www.google.com/maps/place/%E4%BA%BA%E4%BA%BA%E5%8B%95%E7%89%A9%E9%86%AB%E9%99%A2+%E5%85%AB%E5%BE%B7%E5%88%86%E9%99%A2/@24.965344,121.2985353,17z/data=!3m1!4b1!4m5!3m4!1s0x34681f2c3b337761:0x7eb8f6fa41815f02!8m2!3d24.965344!4d121.300724",
  "location": {
    "lat": 24.965344,
    "lng": 121.300724
  },
  "searchString": "桃園市的動物醫院",
  "openingHours": [
    {
      "day": "Tuesday,",
      "hours": "9AM to 12:30PM, 1:30 to 9PM"
    },
    {
      "day": "Wednesday,",
      "hours": "9AM to 12:30PM, 1:30 to 9PM"
    },
    {
      "day": "Thursday",
      "hours": "(Mid-Autumn Festival), 9AM to 12:30PM, 1:30 to 9PM, Hours might differ"
    },
    {
      "day": "Friday,",
      "hours": "9AM to 12:30PM, 1:30 to 9PM"
    },
    {
      "day": "Saturday,",
      "hours": "9AM to 12:30PM, 1:30 to 9PM"
    },
    {
      "day": "Sunday,",
      "hours": "9AM to 12:30PM, 1:30 to 9PM"
    },
    {
      "day": "Monday,",
      "hours": "9AM to 12:30PM, 1:30 to 9PM"
    }
  ],
  "reviewsCount": 365
},
{
  "title": "廣喬動物醫院",
  "totalScore": 4.7,
  "categoryName": "Animal hospital",
  "address": "No. 176, Section 2, Daxing West Road, Taoyuan District, Taoyuan City, Taiwan 330             330桃園市桃園區大興西路二段176號",
  "locatedIn": null,
  "plusCode": "276W+3C Taoyuan District, Taoyuan City, Taiwan",
  "website": null,
  "phone": "+886 3 341 1700",
  "temporarilyClosed": false,
  "permanentlyClosed": false,
  "rank": 17,
  "placeId": "ChIJ5yZo76UfaDQRy-1jCwoxkmk",
  "url": "https://www.google.com/maps/place/%E5%BB%A3%E5%96%AC%E5%8B%95%E7%89%A9%E9%86%AB%E9%99%A2/@25.0102196,121.2938928,17z/data=!3m1!4b1!4m5!3m4!1s0x34681fa5ef6826e7:0x6992310a0b63edcb!8m2!3d25.0102196!4d121.2960815",
  "location": {
    "lat": 25.0102196,
    "lng": 121.2960815
  },
  "searchString": "桃園市的動物醫院",
  "openingHours": [
    {
      "day": "Tuesday,",
      "hours": "Closed"
    },
    {
      "day": "Wednesday,",
      "hours": "3 to 8:30PM"
    },
    {
      "day": "Thursday",
      "hours": "(Mid-Autumn Festival), 10AM to 1PM, Holiday hours"
    },
    {
      "day": "Friday,",
      "hours": "10AM to 1PM, 3 to 8:30PM"
    },
    {
      "day": "Saturday,",
      "hours": "10AM to 1PM, 3 to 8:30PM"
    },
    {
      "day": "Sunday,",
      "hours": "10AM to 1PM, 3 to 5:30PM"
    },
    {
      "day": "Monday,",
      "hours": "10AM to 1PM, 3 to 8:30PM"
    }
  ],
  "reviewsCount": 233
},
{
  "title": "高生動物醫院",
  "totalScore": 4.4,
  "categoryName": "Animal hospital",
  "address": "No. 419號, Zhongshan Road, Taoyuan District, Taoyuan City, Taiwan 330             330桃園市桃園區中山路419號",
  "locatedIn": null,
  "plusCode": "X8R2+M5 Taoyuan District, Taoyuan City, Taiwan",
  "website": "facebook.com",
  "phone": "+886 3 334 1159      phone9",
  "temporarilyClosed": false,
  "permanentlyClosed": false,
  "rank": 3,
  "placeId": "ChIJf0aUJBsfaDQRCObHYo56fW4",
  "url": "https://www.google.com/maps/place/%E9%AB%98%E7%94%9F%E5%8B%95%E7%89%A9%E9%86%AB%E9%99%A2/@24.991674,121.2982503,17z/data=!3m1!4b1!4m5!3m4!1s0x34681f1b2494467f:0x6e7d7a8e62c7e608!8m2!3d24.991674!4d121.300439",
  "location": {
    "lat": 24.991674,
    "lng": 121.300439
  },
  "searchString": "桃園市的動物醫院",
  "openingHours": [
    {
      "day": "Tuesday,",
      "hours": "10AM to 12PM, 1 to 9PM"
    },
    {
      "day": "Wednesday,",
      "hours": "10AM to 12PM, 1 to 9PM"
    },
    {
      "day": "Thursday",
      "hours": "(Mid-Autumn Festival), 10AM to 12PM, 1 to 9PM, Hours might differ"
    },
    {
      "day": "Friday,",
      "hours": "10AM to 12PM, 1 to 9PM"
    },
    {
      "day": "Saturday,",
      "hours": "10AM to 12PM, 1 to 9PM"
    },
    {
      "day": "Sunday,",
      "hours": "10AM to 12PM, 1 to 9PM"
    },
    {
      "day": "Monday,",
      "hours": "10AM to 12PM, 1 to 9PM"
    }
  ],
  "reviewsCount": 203
},
{
  "title": "思邁爾動物醫院醫療院區",
  "totalScore": 4.3,
  "categoryName": "Animal hospital",
  "address": "No. 3, Lane 100, Section 2, Zhuangjing Road, Taoyuan District, Taoyuan City, Taiwan 330             330桃園市桃園區莊敬路二段100巷3號",
  "locatedIn": null,
  "plusCode": "27FV+32 Taoyuan District, Taoyuan City, Taiwan",
  "website": "smileanimal.com",
  "phone": "+886 3 302 9995",
  "temporarilyClosed": false,
  "permanentlyClosed": false,
  "rank": 15,
  "placeId": "ChIJqynrFbkfaDQRboavhnJ5NiA",
  "url": "https://www.google.com/maps/place/%E6%80%9D%E9%82%81%E7%88%BE%E5%8B%95%E7%89%A9%E9%86%AB%E9%99%A2%E9%86%AB%E7%99%82%E9%99%A2%E5%8D%80/@25.0227458,121.2904013,17z/data=!3m1!4b1!4m5!3m4!1s0x34681fb915eb29ab:0x2036797286af866e!8m2!3d25.0227458!4d121.29259",
  "location": {
    "lat": 25.0227458,
    "lng": 121.29259
  },
  "searchString": "桃園市的動物醫院",
  "openingHours": [
    {
      "day": "Tuesday,",
      "hours": "9 to 11:30AM, 1 to 4:30PM, 6 to 8:30PM"
    },
    {
      "day": "Wednesday,",
      "hours": "9 to 11:30AM, 1 to 4:30PM, 6 to 8:30PM"
    },
    {
      "day": "Thursday",
      "hours": "(Mid-Autumn Festival), 9 to 11:30AM, 1 to 4:30PM, 6 to 8:30PM, Hours might differ"
    },
    {
      "day": "Friday,",
      "hours": "9 to 11:30AM, 1 to 4:30PM, 6 to 8:30PM"
    },
    {
      "day": "Saturday,",
      "hours": "9 to 11:30AM, 1 to 4:30PM, 6 to 8:30PM"
    },
    {
      "day": "Sunday,",
      "hours": "9 to 11:30AM, 1 to 4:30PM, 6 to 8:30PM"
    },
    {
      "day": "Monday,",
      "hours": "9 to 11:30AM, 1 to 4:30PM, 6 to 8:30PM"
    }
  ],
  "reviewsCount": 247
},
{
  "title": "中信動物醫院",
  "totalScore": 4.6,
  "categoryName": "Animal hospital",
  "address": "No. 380號, Section 2, Huanzhong East Road, Zhongli District, Taoyuan City, Taiwan 320             320桃園市中壢區環中東路二段380號",
  "locatedIn": null,
  "plusCode": "W6XM+2G Zhongli District, Taoyuan City, Taiwan",
  "website": "petline.com.tw",
  "phone": "+886 3 459 7245",
  "temporarilyClosed": false,
  "permanentlyClosed": false,
  "rank": 10,
  "placeId": "ChIJZciGd0QiaDQR7ChHV9nkYxQ",
  "url": "https://www.google.com/maps/place/%E4%B8%AD%E4%BF%A1%E5%8B%95%E7%89%A9%E9%86%AB%E9%99%A2/@24.9476169,121.2316772,17z/data=!3m1!4b1!4m5!3m4!1s0x346822447786c865:0x1463e4d9574728ec!8m2!3d24.9476169!4d121.2338659",
  "location": {
    "lat": 24.9476169,
    "lng": 121.2338659
  },
  "searchString": "桃園市的動物醫院",
  "openingHours": [
    {
      "day": "Tuesday,",
      "hours": "9AM to 12PM, 2 to 9PM"
    },
    {
      "day": "Wednesday,",
      "hours": "9AM to 12PM, 2 to 9PM"
    },
    {
      "day": "Thursday",
      "hours": "(Mid-Autumn Festival), 9AM to 12PM, 2 to 9PM, Hours might differ"
    },
    {
      "day": "Friday,",
      "hours": "9AM to 12PM, 2 to 9PM"
    },
    {
      "day": "Saturday,",
      "hours": "9AM to 12PM, 2 to 9PM"
    },
    {
      "day": "Sunday,",
      "hours": "Closed"
    },
    {
      "day": "Monday,",
      "hours": "9AM to 12PM, 2 to 9PM"
    }
  ],
  "reviewsCount": 163
},
{
  "title": "吉布動物醫院",
  "totalScore": 4.6,
  "categoryName": "Animal hospital",
  "address": "No. 134, Xinbu 7th Street, Taoyuan District, Taoyuan City, Taiwan 330             330桃園市桃園區新埔七街134號",
  "locatedIn": null,
  "plusCode": "28C2+F9 Taoyuan District, Taoyuan City, Taiwan",
  "website": null,
  "phone": "+886 3 358 5664",
  "temporarilyClosed": false,
  "permanentlyClosed": false,
  "rank": 35,
  "placeId": "ChIJnwLG87YfaDQRtZqnGvJPTBE",
  "url": "https://www.google.com/maps/place/%E5%90%89%E5%B8%83%E5%8B%95%E7%89%A9%E9%86%AB%E9%99%A2/@25.02125,121.2987813,17z/data=!3m1!4b1!4m5!3m4!1s0x34681fb6f3c6029f:0x114c4ff21aa79ab5!8m2!3d25.02125!4d121.30097",
  "location": {
    "lat": 25.02125,
    "lng": 121.30097
  },
  "searchString": "桃園市的動物醫院",
  "openingHours": [
    {
      "day": "Tuesday,",
      "hours": "9:30AM to 9PM"
    },
    {
      "day": "Wednesday,",
      "hours": "9:30AM to 7PM"
    },
    {
      "day": "Thursday",
      "hours": "(Mid-Autumn Festival), 9:30AM to 7PM, Holiday hours"
    },
    {
      "day": "Friday,",
      "hours": "9:30AM to 9PM"
    },
    {
      "day": "Saturday,",
      "hours": "9:30AM to 5PM"
    },
    {
      "day": "Sunday,",
      "hours": "Closed"
    },
    {
      "day": "Monday,",
      "hours": "9:30AM to 9PM"
    }
  ],
  "reviewsCount": 56
},
{
  "title": "中興動物醫院",
  "totalScore": 3.7,
  "categoryName": "Veterinarian",
  "address": "No. 192-1, Minzu Road, Zhongli District, Taoyuan City, Taiwan 320             320桃園市中壢區民族路192-1號",
  "locatedIn": null,
  "plusCode": "X646+J7 Zhongli District, Taoyuan City, Taiwan",
  "website": null,
  "phone": "+886 3 494 1312",
  "temporarilyClosed": false,
  "permanentlyClosed": false,
  "rank": 79,
  "placeId": "ChIJve9mmbYjaDQRX7PlwnXqko0",
  "url": "https://www.google.com/maps/place/%E4%B8%AD%E8%88%88%E5%8B%95%E7%89%A9%E9%86%AB%E9%99%A2/@24.95661,121.2084713,17z/data=!3m1!4b1!4m5!3m4!1s0x346823b69966efbd:0x8d92ea75c2e5b35f!8m2!3d24.95661!4d121.21066",
  "location": {
    "lat": 24.95661,
    "lng": 121.21066
  },
  "searchString": "桃園市的動物醫院",
  "openingHours": [
    {
      "day": "Tuesday,",
      "hours": "10AM to 12PM, 1:30 to 5:30PM, 6:30 to 9PM"
    },
    {
      "day": "Wednesday,",
      "hours": "10AM to 12PM, 1:30 to 5:30PM, 6:30 to 9PM"
    },
    {
      "day": "Thursday",
      "hours": "(Mid-Autumn Festival), 10AM to 12PM, 1:30 to 5:30PM, 6:30 to 9PM, Hours might differ"
    },
    {
      "day": "Friday,",
      "hours": "10AM to 12PM, 1:30 to 5:30PM, 6:30 to 9PM"
    },
    {
      "day": "Saturday,",
      "hours": "10AM to 12PM, 1:30 to 5:30PM"
    },
    {
      "day": "Sunday,",
      "hours": "Closed"
    },
    {
      "day": "Monday,",
      "hours": "10AM to 12PM, 1:30 to 5:30PM, 6:30 to 9PM"
    }
  ],
  "reviewsCount": 28
},
{
  "title": "狗老板三民店（寵物、水族、美容）",
  "totalScore": 4,
  "categoryName": "Pet supply store",
  "address": "No. 191, Section 1, Sanmin Road, Taoyuan District, Taoyuan City, Taiwan 330             330桃園市桃園區三民路一段191號",
  "locatedIn": null,
  "plusCode": "2829+C3 Taoyuan District, Taoyuan City, Taiwan",
  "website": "m.facebook.com",
  "phone": "+886 3 336 0033",
  "temporarilyClosed": false,
  "permanentlyClosed": false,
  "rank": 142,
  "placeId": "ChIJcU28uVceaDQRxIk4JheZjx8",
  "url": "https://www.google.com/maps/place/%E7%8B%97%E8%80%81%E6%9D%BF%E4%B8%89%E6%B0%91%E5%BA%97%EF%BC%88%E5%AF%B5%E7%89%A9%E3%80%81%E6%B0%B4%E6%97%8F%E3%80%81%E7%BE%8E%E5%AE%B9%EF%BC%89/@25.0010675,121.315495,17z/data=!3m1!4b1!4m5!3m4!1s0x34681e57b9bc4d71:0x1f8f9917263889c4!8m2!3d25.0010675!4d121.3176837",
  "location": {
    "lat": 25.0010675,
    "lng": 121.3176837
  },
  "searchString": "桃園市的動物醫院",
  "openingHours": [
    {
      "day": "Tuesday,",
      "hours": "11AM to 10:30PM"
    },
    {
      "day": "Wednesday,",
      "hours": "11AM to 10:30PM"
    },
    {
      "day": "Thursday",
      "hours": "(Mid-Autumn Festival), 11AM to 10:30PM, Hours might differ"
    },
    {
      "day": "Friday,",
      "hours": "11AM to 10:30PM"
    },
    {
      "day": "Saturday,",
      "hours": "11AM to 10:30PM"
    },
    {
      "day": "Sunday,",
      "hours": "11AM to 10:30PM"
    },
    {
      "day": "Monday,",
      "hours": "11AM to 10:30PM"
    }
  ],
  "reviewsCount": 357
},
{
  "title": "Weixin Animal Hospital",
  "totalScore": 4,
  "categoryName": "Veterinarian",
  "address": "No. 207, Daxing Road, Taoyuan District, Taoyuan City, Taiwan 330             330桃園市桃園區大興路207號",
  "locatedIn": null,
  "plusCode": "2887+82 Taoyuan District, Taoyuan City, Taiwan",
  "website": "wecareamc.com",
  "phone": "+886 3 325 9001",
  "temporarilyClosed": false,
  "permanentlyClosed": false,
  "rank": 6,
  "placeId": "ChIJF64lckweaDQRK6dXrwKnaMw",
  "url": "https://www.google.com/maps/place/Weixin+Animal+Hospital/@25.0157796,121.3103404,17z/data=!3m1!4b1!4m5!3m4!1s0x34681e4c7225ae17:0xcc68a702af57a72b!8m2!3d25.0157796!4d121.3125291",
  "location": {
    "lat": 25.0157796,
    "lng": 121.3125291
  },
  "searchString": "桃園市的動物醫院",
  "openingHours": [
    {
      "day": "Tuesday,",
      "hours": "10AM to 9PM"
    },
    {
      "day": "Wednesday,",
      "hours": "10AM to 9PM"
    },
    {
      "day": "Thursday",
      "hours": "(Mid-Autumn Festival), 10AM to 9PM, Hours might differ"
    },
    {
      "day": "Friday,",
      "hours": "10AM to 9PM"
    },
    {
      "day": "Saturday,",
      "hours": "10AM to 5PM"
    },
    {
      "day": "Sunday,",
      "hours": "10AM to 5PM"
    },
    {
      "day": "Monday,",
      "hours": "10AM to 9PM"
    }
  ],
  "reviewsCount": 56
},
{
  "title": "大群動物醫院",
  "totalScore": 4.3,
  "categoryName": "Animal hospital",
  "address": "No. 206, Section 6, Roosevelt Rd, Wenshan District, Taipei City, Taiwan 116             116台北市文山區羅斯福路六段206號",
  "locatedIn": null,
  "plusCode": "XGVR+C8 Wenshan District, Taipei City, Taiwan",
  "website": "dacyun-vet.tw",
  "phone": "+886 2 2930 5557",
  "temporarilyClosed": false,
  "permanentlyClosed": false,
  "rank": 128,
  "placeId": "ChIJU5vwbAGqQjQRKoQ7nDjiN_Q",
  "url": "https://www.google.com/maps/place/%E5%A4%A7%E7%BE%A4%E5%8B%95%E7%89%A9%E9%86%AB%E9%99%A2/@24.9936051,121.5386044,17z/data=!3m1!4b1!4m5!3m4!1s0x3442aa016cf09b53:0xf437e2389c3b842a!8m2!3d24.9936051!4d121.5407931",
  "location": {
    "lat": 24.9936051,
    "lng": 121.5407931
  },
  "searchString": "桃園市的動物醫院",
  "openingHours": [
    {
      "day": "Tuesday,",
      "hours": "Open 24 hours"
    },
    {
      "day": "Wednesday,",
      "hours": "Open 24 hours"
    },
    {
      "day": "Thursday",
      "hours": "(Mid-Autumn Festival), Open 24 hours, Hours might differ"
    },
    {
      "day": "Friday,",
      "hours": "Open 24 hours"
    },
    {
      "day": "Saturday,",
      "hours": "Open 24 hours"
    },
    {
      "day": "Sunday,",
      "hours": "Open 24 hours"
    },
    {
      "day": "Monday,",
      "hours": "Open 24 hours"
    }
  ],
  "reviewsCount": 304
},
{
  "title": "中圓寵物家族-南崁店",
  "totalScore": 4.3,
  "categoryName": "Pet store",
  "address": "No. 361號, Zhongzheng Road, Luzhu District, Taoyuan City, Taiwan 338             338桃園市蘆竹區中正路361號",
  "locatedIn": null,
  "plusCode": "27XR+J9 Luzhu District, Taoyuan City, Taiwan",
  "website": "petsfamily.com.tw",
  "phone": "+886 3 212 5555",
  "temporarilyClosed": false,
  "permanentlyClosed": false,
  "rank": 121,
  "placeId": "ChIJQ7q30XWgQjQRO5tXeH8njQs",
  "url": "https://www.google.com/maps/place/%E4%B8%AD%E5%9C%93%E5%AF%B5%E7%89%A9%E5%AE%B6%E6%97%8F-%E5%8D%97%E5%B4%81%E5%BA%97/@25.0491162,121.2887434,17z/data=!3m1!4b1!4m5!3m4!1s0x3442a075d1b7ba43:0xb8d277f78579b3b!8m2!3d25.0491162!4d121.2909321",
  "location": {
    "lat": 25.0491162,
    "lng": 121.2909321
  },
  "searchString": "桃園市的動物醫院",
  "openingHours": [
    {
      "day": "Tuesday,",
      "hours": "10AM to 10:30PM"
    },
    {
      "day": "Wednesday,",
      "hours": "10AM to 10:30PM"
    },
    {
      "day": "Thursday",
      "hours": "(Mid-Autumn Festival), 10AM to 10:30PM, Hours might differ"
    },
    {
      "day": "Friday,",
      "hours": "10AM to 10:30PM"
    },
    {
      "day": "Saturday,",
      "hours": "10AM to 10:30PM"
    },
    {
      "day": "Sunday,",
      "hours": "10AM to 10:30PM"
    },
    {
      "day": "Monday,",
      "hours": "10AM to 10:30PM"
    }
  ],
  "reviewsCount": 211
},
{
  "title": "Wellcome Animal Hospital",
  "totalScore": 4.2,
  "categoryName": "Animal hospital",
  "address": "No. 150號, Section 3, Chenggong Road, Neihu District, Taipei City, Taiwan 114             114台北市內湖區成功路三段150號",
  "locatedIn": null,
  "plusCode": "3HJQ+2X Neihu District, Taipei City, Taiwan",
  "website": "wellcarevet.com",
  "phone": "+886 2 2793 7293",
  "temporarilyClosed": false,
  "permanentlyClosed": false,
  "rank": 130,
  "placeId": "ChIJIcr5P4ysQjQReXQZdLLRoi4",
  "url": "https://www.google.com/maps/place/Wellcome+Animal+Hospital/@25.0800183,121.587768,17z/data=!3m1!4b1!4m5!3m4!1s0x3442ac8c3ff9ca21:0x2ea2d1b274197479!8m2!3d25.0800183!4d121.5899567",
  "location": {
    "lat": 25.0800183,
    "lng": 121.5899567
  },
  "searchString": "桃園市的動物醫院",
  "openingHours": [
    {
      "day": "Tuesday,",
      "hours": "10AM to 12PM, 1 to 5PM, 6 to 9PM"
    },
    {
      "day": "Wednesday,",
      "hours": "1 to 5PM, 6 to 9PM"
    },
    {
      "day": "Thursday",
      "hours": "(Mid-Autumn Festival), 10AM to 12PM, 1 to 5PM, 6 to 9PM, Hours might differ"
    },
    {
      "day": "Friday,",
      "hours": "10AM to 12PM, 1 to 5PM, 6 to 9PM"
    },
    {
      "day": "Saturday,",
      "hours": "10AM to 12PM, 1 to 5PM, 6 to 9PM"
    },
    {
      "day": "Sunday,",
      "hours": "10AM to 12PM, 1 to 5PM, 6 to 9PM"
    },
    {
      "day": "Monday,",
      "hours": "10AM to 12PM, 1 to 5PM, 6 to 9PM"
    }
  ],
  "reviewsCount": 200
},
{
  "title": "中圓寵物家族(桃園八德店)",
  "totalScore": 4.3,
  "categoryName": "Pet supply store",
  "address": "No. 1072號, Section 2, Jieshou Road, Bade District, Taoyuan City, Taiwan 334             334桃園市八德區介壽路二段1072號",
  "locatedIn": null,
  "plusCode": "W7JW+PV Bade District, Taoyuan City, Taiwan",
  "website": "facebook.com",
  "phone": "+886 3 365 6008",
  "temporarilyClosed": false,
  "permanentlyClosed": false,
  "rank": 104,
  "placeId": "ChIJD18xfOUYaDQRz0Xhwlj426s",
  "url": "https://www.google.com/maps/place/%E4%B8%AD%E5%9C%93%E5%AF%B5%E7%89%A9%E5%AE%B6%E6%97%8F(%E6%A1%83%E5%9C%92%E5%85%AB%E5%BE%B7%E5%BA%97)/@24.931851,121.2949803,17z/data=!3m1!4b1!4m5!3m4!1s0x346818e57c315f0f:0xabdbf858c2e145cf!8m2!3d24.931851!4d121.297169",
  "location": {
    "lat": 24.931851,
    "lng": 121.297169
  },
  "searchString": "桃園市的動物醫院",
  "reviewsCount": 599
},
{
  "title": "嘉興動物醫院",
  "totalScore": 4.6,
  "categoryName": "Veterinarian",
  "address": "No. 24號, Section 1, Zhongxiao Road, Sanchong District, New Taipei City, Taiwan 241             241新北市三重區忠孝路一段24號",
  "locatedIn": null,
  "plusCode": "3FCR+MP Sanchong District, New Taipei City, Taiwan",
  "website": null,
  "phone": "+886 2 2986 0239",
  "temporarilyClosed": false,
  "permanentlyClosed": false,
  "rank": 137,
  "placeId": "ChIJ57MZZCepQjQROLKDEdVDhfo",
  "url": "https://www.google.com/maps/place/%E5%98%89%E8%88%88%E5%8B%95%E7%89%A9%E9%86%AB%E9%99%A2/@25.0717292,121.4895886,17z/data=!3m1!4b1!4m5!3m4!1s0x3442a9276419b3e7:0xfa8543d51183b238!8m2!3d25.0717292!4d121.4917773",
  "location": {
    "lat": 25.0717292,
    "lng": 121.4917773
  },
  "searchString": "桃園市的動物醫院",
  "openingHours": [
    {
      "day": "Tuesday,",
      "hours": "9AM to 2PM, 3 to 5PM, 6 to 8:30PM"
    },
    {
      "day": "Wednesday,",
      "hours": "9AM to 2PM, 3 to 5PM, 6 to 8:30PM"
    },
    {
      "day": "Thursday",
      "hours": "(Mid-Autumn Festival), 9AM to 2PM, 3 to 5PM, 6 to 8:30PM, Hours might differ"
    },
    {
      "day": "Friday,",
      "hours": "9AM to 2PM, 3 to 5PM, 6 to 8:30PM"
    },
    {
      "day": "Saturday,",
      "hours": "9AM to 2PM, 3 to 8:30PM"
    },
    {
      "day": "Sunday,",
      "hours": "Closed"
    },
    {
      "day": "Monday,",
      "hours": "9AM to 2PM, 3 to 5PM, 6 to 8:30PM"
    }
  ],
  "reviewsCount": 43
},
{
  "title": "中壢太樸寵物生活館",
  "totalScore": 4.2,
  "categoryName": "Pet supply store",
  "address": "320, Taiwan, Taoyuan City, Zhongli District, Zhongbei Road, 51號1樓             320桃園市中壢區中北路51號1樓",
  "locatedIn": null,
  "plusCode": "X64P+FQ Zhongli District, Taoyuan City, Taiwan",
  "website": "facebook.com",
  "phone": "+886 3 456 9911",
  "temporarilyClosed": false,
  "permanentlyClosed": false,
  "rank": 116,
  "placeId": "ChIJvQlQ3H4jaDQRKtqPu-HhJWg",
  "url": "https://www.google.com/maps/place/%E4%B8%AD%E5%A3%A2%E5%A4%AA%E6%A8%B8%E5%AF%B5%E7%89%A9%E7%94%9F%E6%B4%BB%E9%A4%A8/@24.9561826,121.2347073,17z/data=!3m1!4b1!4m5!3m4!1s0x3468237edc5009bd:0x6825e1e1bb8fda2a!8m2!3d24.9561826!4d121.236896",
  "location": {
    "lat": 24.9561826,
    "lng": 121.236896
  },
  "searchString": "桃園市的動物醫院",
  "openingHours": [
    {
      "day": "Tuesday,",
      "hours": "10:30AM to 9:30PM"
    },
    {
      "day": "Wednesday,",
      "hours": "10:30AM to 9:30PM"
    },
    {
      "day": "Thursday",
      "hours": "(Mid-Autumn Festival), 10:30AM to 9:30PM, Hours might differ"
    },
    {
      "day": "Friday,",
      "hours": "10:30AM to 9:30PM"
    },
    {
      "day": "Saturday,",
      "hours": "10:30AM to 9:30PM"
    },
    {
      "day": "Sunday,",
      "hours": "10:30AM to 9:30PM"
    },
    {
      "day": "Monday,",
      "hours": "10:30AM to 9:30PM"
    }
  ],
  "reviewsCount": 16
},
{
  "title": "凡賽爾賽鴿寵物鳥醫院",
  "totalScore": 4.2,
  "categoryName": "Animal hospital",
  "address": "No. 53, Minzu West Road, Datong District, Taipei City, Taiwan 103             103台北市大同區民族西路53號",
  "locatedIn": null,
  "plusCode": "3G99+FJ Datong District, Taipei City, Taiwan",
  "website": "birds.com.tw",
  "phone": "+886 2 2586 9933",
  "temporarilyClosed": false,
  "permanentlyClosed": false,
  "rank": 125,
  "placeId": "ChIJrQ_lHEapQjQR2_o6C59frVM",
  "url": "https://www.google.com/maps/place/%E5%87%A1%E8%B3%BD%E7%88%BE%E8%B3%BD%E9%B4%BF%E5%AF%B5%E7%89%A9%E9%B3%A5%E9%86%AB%E9%99%A2/@25.068664,121.5168443,17z/data=!3m1!4b1!4m5!3m4!1s0x3442a9461ce50fad:0x53ad5f9f0b3afadb!8m2!3d25.068664!4d121.519033",
  "location": {
    "lat": 25.068664,
    "lng": 121.519033
  },
  "searchString": "桃園市的動物醫院",
  "openingHours": [
    {
      "day": "Tuesday,",
      "hours": "10AM to 2PM, 4 to 8PM"
    },
    {
      "day": "Wednesday,",
      "hours": "10AM to 2PM, 4 to 8PM"
    },
    {
      "day": "Thursday",
      "hours": "(Mid-Autumn Festival), 10AM to 2PM, 4 to 8PM, Hours might differ"
    },
    {
      "day": "Friday,",
      "hours": "10AM to 2PM, 4 to 8PM"
    },
    {
      "day": "Saturday,",
      "hours": "10AM to 2PM, 4 to 6PM"
    },
    {
      "day": "Sunday,",
      "hours": "10AM to 12PM"
    },
    {
      "day": "Monday,",
      "hours": "10AM to 2PM, 4 to 8PM"
    }
  ],
  "reviewsCount": 387
},
{
  "title": "寶貝屋動物醫院",
  "totalScore": 4.5,
  "categoryName": "Animal hospital",
  "address": "No. 154號, Taichang 3rd Street, Taoyuan District, Taoyuan City, Taiwan 330             330桃園市桃園區泰昌三街154號",
  "locatedIn": null,
  "plusCode": "X7PW+65 Taoyuan District, Taoyuan City, Taiwan",
  "website": null,
  "phone": "+886 3 220 1051",
  "temporarilyClosed": false,
  "permanentlyClosed": false,
  "rank": 51,
  "placeId": "ChIJicuboRcfaDQR6MC-H0C4HBo",
  "url": "https://www.google.com/maps/place/%E5%AF%B6%E8%B2%9D%E5%B1%8B%E5%8B%95%E7%89%A9%E9%86%AB%E9%99%A2/@24.985531,121.2932023,17z/data=!3m1!4b1!4m5!3m4!1s0x34681f17a19bcb89:0x1a1cb8401fbec0e8!8m2!3d24.985531!4d121.295391",
  "location": {
    "lat": 24.985531,
    "lng": 121.295391
  },
  "searchString": "桃園市的動物醫院",
  "reviewsCount": 20
},
{
  "title": "築心動物醫院 急重症微創腫瘤中心",
  "totalScore": 4.3,
  "categoryName": "Animal hospital",
  "address": "No. 654, Section 1, Jingguo Road, East District, Hsinchu City, Taiwan 300             300新竹市東區經國路一段654號",
  "locatedIn": null,
  "plusCode": "RX7F+RQ East District, Hsinchu City, Taiwan",
  "website": "zhuxin.com.tw",
  "phone": "+886 3 533 8055",
  "temporarilyClosed": false,
  "permanentlyClosed": false,
  "rank": 132,
  "placeId": "ChIJzzoZt881aDQRG7pOjUDFThA",
  "url": "https://www.google.com/maps/place/%E7%AF%89%E5%BF%83%E5%8B%95%E7%89%A9%E9%86%AB%E9%99%A2+%E6%80%A5%E9%87%8D%E7%97%87%E5%BE%AE%E5%89%B5%E8%85%AB%E7%98%A4%E4%B8%AD%E5%BF%83/@24.8145088,120.9722824,17z/data=!3m1!4b1!4m5!3m4!1s0x346835cfb7193acf:0x104ec5408d4eba1b!8m2!3d24.8145088!4d120.9744711",
  "location": {
    "lat": 24.8145088,
    "lng": 120.9744711
  },
  "searchString": "桃園市的動物醫院",
  "openingHours": [
    {
      "day": "Tuesday,",
      "hours": "9AM to 12:30PM, 3PM to 2AM"
    },
    {
      "day": "Wednesday,",
      "hours": "9AM to 2AM"
    },
    {
      "day": "Thursday",
      "hours": "(Mid-Autumn Festival), 9AM to 2AM, Hours might differ"
    },
    {
      "day": "Friday,",
      "hours": "9AM to 2AM"
    },
    {
      "day": "Saturday,",
      "hours": "9AM to 2AM"
    },
    {
      "day": "Sunday,",
      "hours": "9AM to 2AM"
    },
    {
      "day": "Monday,",
      "hours": "9AM to 2AM"
    }
  ],
  "reviewsCount": 536
},
{
  "title": "牧羊人動物醫院",
  "totalScore": 4.8,
  "categoryName": "Animal hospital",
  "address": "No. 11, Nanshun 5th Street, Luzhu District, Taoyuan City, Taiwan 338             338桃園市蘆竹區南順五街11號",
  "locatedIn": null,
  "plusCode": "27RQ+59 Luzhu District, Taoyuan City, Taiwan",
  "website": "facebook.com",
  "phone": "+886 3 312 7227",
  "temporarilyClosed": false,
  "permanentlyClosed": false,
  "rank": 63,
  "placeId": "ChIJZXZsVdwfaDQRJGSZeK4Ub5M",
  "url": "https://www.google.com/maps/place/%E7%89%A7%E7%BE%8A%E4%BA%BA%E5%8B%95%E7%89%A9%E9%86%AB%E9%99%A2/@25.0404157,121.2862336,17z/data=!3m1!4b1!4m5!3m4!1s0x34681fdc556c7665:0x936f14ae78996424!8m2!3d25.0404157!4d121.2884223",
  "location": {
    "lat": 25.0404157,
    "lng": 121.2884223
  },
  "searchString": "桃園市的動物醫院",
  "openingHours": [
    {
      "day": "Tuesday,",
      "hours": "11AM to 2PM, 4 to 9PM"
    },
    {
      "day": "Wednesday,",
      "hours": "11AM to 2PM, 4 to 9PM"
    },
    {
      "day": "Thursday",
      "hours": "(Mid-Autumn Festival), 11AM to 2PM, 4 to 9PM, Hours might differ"
    },
    {
      "day": "Friday,",
      "hours": "11AM to 2PM, 4 to 9PM"
    },
    {
      "day": "Saturday,",
      "hours": "11AM to 2PM, 4 to 7PM"
    },
    {
      "day": "Sunday,",
      "hours": "11AM to 2PM, 4 to 7PM"
    },
    {
      "day": "Monday,",
      "hours": "11AM to 2PM, 4 to 9PM"
    }
  ],
  "reviewsCount": 134
},
{
  "title": "青青動物醫院",
  "totalScore": 4.9,
  "categoryName": "Animal hospital",
  "address": "No. 35號, Yongneng Road, Zhongli District, Taoyuan City, Taiwan 320             320桃園市中壢區永能路35號",
  "locatedIn": null,
  "plusCode": "2643+P8 Zhongli District, Taoyuan City, Taiwan",
  "website": "facebook.com",
  "phone": "+886 3 287 2330",
  "temporarilyClosed": false,
  "permanentlyClosed": false,
  "rank": 61,
  "placeId": "ChIJ4ylmD9AhaDQRLe5Zvo0nXy4",
  "url": "https://www.google.com/maps/place/%E9%9D%92%E9%9D%92%E5%8B%95%E7%89%A9%E9%86%AB%E9%99%A2/@25.0068414,121.2011841,17z/data=!3m1!4b1!4m5!3m4!1s0x346821d00f6629e3:0x2e5f278dbe59ee2d!8m2!3d25.0068414!4d121.2033728",
  "location": {
    "lat": 25.0068414,
    "lng": 121.2033728
  },
  "searchString": "桃園市的動物醫院",
  "openingHours": [
    {
      "day": "Tuesday,",
      "hours": "10AM to 12PM, 2PM to 1AM"
    },
    {
      "day": "Wednesday,",
      "hours": "10AM to 12PM, 2PM to 1AM"
    },
    {
      "day": "Thursday",
      "hours": "(Mid-Autumn Festival), 10AM to 12PM, 2PM to 1AM, Hours might differ"
    },
    {
      "day": "Friday,",
      "hours": "10AM to 12PM, 2PM to 1AM"
    },
    {
      "day": "Saturday,",
      "hours": "10AM to 12PM, 2PM to 1AM"
    },
    {
      "day": "Sunday,",
      "hours": "10AM to 12PM, 2PM to 1AM"
    },
    {
      "day": "Monday,",
      "hours": "10AM to 12PM, 2PM to 1AM"
    }
  ],
  "reviewsCount": 349
},
{
  "title": "聖恩動物醫院",
  "totalScore": 4.4,
  "categoryName": "Animal hospital",
  "address": "No. 1141號, Section 2, Wanshou Road, Guishan District, Taoyuan City, Taiwan 333             333桃園市龜山區萬壽路二段1141號",
  "locatedIn": null,
  "plusCode": "X8VM+C6 Guishan District, Taoyuan City, Taiwan",
  "website": null,
  "phone": "+886 3 350 7425",
  "temporarilyClosed": false,
  "permanentlyClosed": false,
  "rank": 55,
  "placeId": "ChIJRdKO44oeaDQRKF_Q_tjEbOg",
  "url": "https://www.google.com/maps/place/%E8%81%96%E6%81%A9%E5%8B%95%E7%89%A9%E9%86%AB%E9%99%A2/@24.9935435,121.3308291,17z/data=!3m1!4b1!4m5!3m4!1s0x34681e8ae38ed245:0xe86cc4d8fed05f28!8m2!3d24.9935435!4d121.3330178",
  "location": {
    "lat": 24.9935435,
    "lng": 121.3330178
  },
  "searchString": "桃園市的動物醫院",
  "openingHours": [
    {
      "day": "Tuesday,",
      "hours": "9AM to 9PM"
    },
    {
      "day": "Wednesday,",
      "hours": "9AM to 9PM"
    },
    {
      "day": "Thursday",
      "hours": "(Mid-Autumn Festival), 9AM to 9PM, Hours might differ"
    },
    {
      "day": "Friday,",
      "hours": "9AM to 9PM"
    },
    {
      "day": "Saturday,",
      "hours": "9AM to 9PM"
    },
    {
      "day": "Sunday,",
      "hours": "Closed"
    },
    {
      "day": "Monday,",
      "hours": "9AM to 9PM"
    }
  ],
  "reviewsCount": 50
},
{
  "title": "哲安動物醫院",
  "totalScore": 4.3,
  "categoryName": "Animal hospital",
  "address": "No. 632, Zhongshan Road, Taoyuan District, Taiwan 330             330桃園區中山路632號",
  "locatedIn": null,
  "plusCode": "X7RW+CF Taoyuan District, Taoyuan City, Taiwan",
  "website": null,
  "phone": "+886 3 333 7785",
  "temporarilyClosed": false,
  "permanentlyClosed": false,
  "rank": 77,
  "placeId": "ChIJWa_aYhAfaDQR4aCo9rzuu7Q",
  "url": "https://www.google.com/maps/place/%E5%93%B2%E5%AE%89%E5%8B%95%E7%89%A9%E9%86%AB%E9%99%A2/@24.991057,121.2940173,17z/data=!3m1!4b1!4m5!3m4!1s0x34681f1062daaf59:0xb4bbeebcf6a8a0e1!8m2!3d24.991057!4d121.296206",
  "location": {
    "lat": 24.991057,
    "lng": 121.296206
  },
  "searchString": "桃園市的動物醫院",
  "openingHours": [
    {
      "day": "Tuesday,",
      "hours": "9AM to 12PM, 2 to 9PM"
    },
    {
      "day": "Wednesday,",
      "hours": "9AM to 12PM, 2 to 9PM"
    },
    {
      "day": "Thursday",
      "hours": "(Mid-Autumn Festival), 9AM to 12PM, 2 to 9PM, Hours might differ"
    },
    {
      "day": "Friday,",
      "hours": "9AM to 12PM, 2 to 9PM"
    },
    {
      "day": "Saturday,",
      "hours": "9AM to 12PM, 2 to 9PM"
    },
    {
      "day": "Sunday,",
      "hours": "Closed"
    },
    {
      "day": "Monday,",
      "hours": "9AM to 12PM, 2 to 9PM"
    }
  ],
  "reviewsCount": 47
},
{
  "title": "丹尼爾動物醫院",
  "totalScore": 4.7,
  "categoryName": "Animal hospital",
  "address": "No. 248-1, Section 1, Jieshou Road, Bade District, Taoyuan City, Taiwan 334             334桃園市八德區介壽路一段248-1號",
  "locatedIn": null,
  "plusCode": "X8C2+QM Bade District, Taoyuan City, Taiwan",
  "website": "m.facebook.com",
  "phone": "+886 3 366 2215",
  "temporarilyClosed": false,
  "permanentlyClosed": false,
  "rank": 37,
  "placeId": "ChIJURiZ7iUfaDQRTMyfOP-1c9Q",
  "url": "https://www.google.com/maps/place/%E4%B8%B9%E5%B0%BC%E7%88%BE%E5%8B%95%E7%89%A9%E9%86%AB%E9%99%A2/@24.9719638,121.2994554,17z/data=!3m1!4b1!4m5!3m4!1s0x34681f25ee991851:0xd473b5ff389fcc4c!8m2!3d24.9719638!4d121.3016441",
  "location": {
    "lat": 24.9719638,
    "lng": 121.3016441
  },
  "searchString": "桃園市的動物醫院",
  "openingHours": [
    {
      "day": "Tuesday,",
      "hours": "9:30AM to 3:30PM"
    },
    {
      "day": "Wednesday,",
      "hours": "9:30AM to 2:30PM, 5:30 to 8PM"
    },
    {
      "day": "Thursday",
      "hours": "(Mid-Autumn Festival), Closed, Holiday hours"
    },
    {
      "day": "Friday,",
      "hours": "Closed"
    },
    {
      "day": "Saturday,",
      "hours": "Closed"
    },
    {
      "day": "Sunday,",
      "hours": "Closed"
    },
    {
      "day": "Monday,",
      "hours": "11:30AM to 3:30PM"
    }
  ],
  "reviewsCount": 127
},
{
  "title": "楊梅動物醫院",
  "totalScore": 3.8,
  "categoryName": "Animal hospital",
  "address": "No. 10號, Zhongshan Road, Yangmei District, Taoyuan City, Taiwan 32641             32641桃園市楊梅區中山路10號",
  "locatedIn": null,
  "plusCode": "W44X+XC Yangmei District, Taoyuan City, Taiwan",
  "website": null,
  "phone": null,
  "temporarilyClosed": false,
  "permanentlyClosed": false,
  "rank": 14,
  "placeId": "ChIJp4vpd0o7aDQRH3_mhBUYfYU",
  "url": "https://www.google.com/maps/place/%E6%A5%8A%E6%A2%85%E5%8B%95%E7%89%A9%E9%86%AB%E9%99%A2/@24.907395,121.1463823,17z/data=!3m1!4b1!4m5!3m4!1s0x34683b4a77e98ba7:0x857d181584e67f1f!8m2!3d24.907395!4d121.148571",
  "location": {
    "lat": 24.907395,
    "lng": 121.148571
  },
  "searchString": "桃園市的動物醫院",
  "openingHours": [
    {
      "day": "Tuesday,",
      "hours": "9AM to 9PM"
    },
    {
      "day": "Wednesday,",
      "hours": "9AM to 9PM"
    },
    {
      "day": "Thursday",
      "hours": "(Mid-Autumn Festival), 9AM to 9PM, Hours might differ"
    },
    {
      "day": "Friday,",
      "hours": "9AM to 9PM"
    },
    {
      "day": "Saturday,",
      "hours": "9AM to 5PM"
    },
    {
      "day": "Sunday,",
      "hours": "Closed"
    },
    {
      "day": "Monday,",
      "hours": "9AM to 9PM"
    }
  ],
  "reviewsCount": 98
},
{
  "title": "大禾動物醫院",
  "totalScore": 4.5,
  "categoryName": "Animal hospital",
  "address": "No. 218號, Jianguo Road, Taoyuan District, Taoyuan City, Taiwan 330             330桃園市桃園區建國路218號",
  "locatedIn": null,
  "plusCode": "X8P5+45 Taoyuan District, Taoyuan City, Taiwan",
  "website": null,
  "phone": "+886 3 362 5122",
  "temporarilyClosed": false,
  "permanentlyClosed": false,
  "rank": 47,
  "placeId": "ChIJE2aUBh4faDQRbiUHVgrLQ3c",
  "url": "https://www.google.com/maps/place/%E5%A4%A7%E7%A6%BE%E5%8B%95%E7%89%A9%E9%86%AB%E9%99%A2/@24.9852779,121.3057553,17z/data=!3m1!4b1!4m5!3m4!1s0x34681f1e06946613:0x7743cb0a5607256e!8m2!3d24.9852779!4d121.307944",
  "location": {
    "lat": 24.9852779,
    "lng": 121.307944
  },
  "searchString": "桃園市的動物醫院",
  "openingHours": [
    {
      "day": "Tuesday,",
      "hours": "9AM to 9PM"
    },
    {
      "day": "Wednesday,",
      "hours": "9AM to 9PM"
    },
    {
      "day": "Thursday",
      "hours": "(Mid-Autumn Festival), 9AM to 9PM, Hours might differ"
    },
    {
      "day": "Friday,",
      "hours": "9AM to 9PM"
    },
    {
      "day": "Saturday,",
      "hours": "9AM to 9PM"
    },
    {
      "day": "Sunday,",
      "hours": "Closed"
    },
    {
      "day": "Monday,",
      "hours": "9AM to 9PM"
    }
  ],
  "reviewsCount": 74
},
{
  "title": "大安動物醫院",
  "totalScore": 4.3,
  "categoryName": "Animal hospital",
  "address": "No. 24, Section 1, Sanmin Road, Taoyuan District, Taoyuan City, Taiwan 330             330桃園市桃園區三民路一段24號",
  "locatedIn": null,
  "plusCode": "X8WF+P2 Taoyuan District, Taoyuan City, Taiwan",
  "website": null,
  "phone": "+886 3 333 5025",
  "temporarilyClosed": false,
  "permanentlyClosed": false,
  "rank": 19,
  "placeId": "ChIJ4WJPNfYeaDQRv88i6q33sug",
  "url": "https://www.google.com/maps/place/%E5%A4%A7%E5%AE%89%E5%8B%95%E7%89%A9%E9%86%AB%E9%99%A2/@24.9968669,121.3204259,17z/data=!3m1!4b1!4m5!3m4!1s0x34681ef6354f62e1:0xe8b2f7adea22cfbf!8m2!3d24.9968669!4d121.3226146",
  "location": {
    "lat": 24.9968669,
    "lng": 121.3226146
  },
  "searchString": "桃園市的動物醫院",
  "openingHours": [
    {
      "day": "Tuesday,",
      "hours": "9AM to 12PM, 2 to 9PM"
    },
    {
      "day": "Wednesday,",
      "hours": "9AM to 12PM, 2 to 9PM"
    },
    {
      "day": "Thursday",
      "hours": "(Mid-Autumn Festival), 9AM to 12PM, 2 to 9PM, Hours might differ"
    },
    {
      "day": "Friday,",
      "hours": "9AM to 12PM, 2 to 9PM"
    },
    {
      "day": "Saturday,",
      "hours": "9AM to 12PM, 2 to 8PM"
    },
    {
      "day": "Sunday,",
      "hours": "Closed"
    },
    {
      "day": "Monday,",
      "hours": "9AM to 12PM, 2 to 9PM"
    }
  ],
  "reviewsCount": 100
},
{
  "title": "春日動物醫院",
  "totalScore": 4.6,
  "categoryName": "Animal hospital",
  "address": "No. 4號, Lane 975, Chunri Road, Taoyuan District, Taoyuan City, Taiwan 33050             33050桃園市桃園區春日路975巷4號",
  "locatedIn": null,
  "plusCode": "2865+7X Taoyuan District, Taoyuan City, Taiwan",
  "website": null,
  "phone": "+886 3 355 9338",
  "temporarilyClosed": false,
  "permanentlyClosed": false,
  "rank": 25,
  "placeId": "ChIJZeFfjFMeaDQR3p7Rca52yCQ",
  "url": "https://www.google.com/maps/place/%E6%98%A5%E6%97%A5%E5%8B%95%E7%89%A9%E9%86%AB%E9%99%A2/@25.0107258,121.3077618,17z/data=!3m1!4b1!4m5!3m4!1s0x34681e538c5fe165:0x24c876ae71d19ede!8m2!3d25.0107258!4d121.3099505",
  "location": {
    "lat": 25.0107258,
    "lng": 121.3099505
  },
  "searchString": "桃園市的動物醫院",
  "openingHours": [
    {
      "day": "Tuesday,",
      "hours": "9AM to 9PM"
    },
    {
      "day": "Wednesday,",
      "hours": "9AM to 9PM"
    },
    {
      "day": "Thursday",
      "hours": "(Mid-Autumn Festival), 9AM to 9PM, Hours might differ"
    },
    {
      "day": "Friday,",
      "hours": "9AM to 9PM"
    },
    {
      "day": "Saturday,",
      "hours": "9AM to 9PM"
    },
    {
      "day": "Sunday,",
      "hours": "9AM to 9PM"
    },
    {
      "day": "Monday,",
      "hours": "9AM to 9PM"
    }
  ],
  "reviewsCount": 48
},
{
  "title": "PetPark",
  "totalScore": 4.3,
  "categoryName": "Pet supply store",
  "address": "No. 120, Section 2, Daxing West Road, Taoyuan District, Taoyuan City, Taiwan 330             330桃園市桃園區大興西路二段120號",
  "locatedIn": null,
  "plusCode": "276W+9R Taoyuan District, Taoyuan City, Taiwan",
  "website": "wonderpet.asia",
  "phone": "+886 3 215 1745",
  "temporarilyClosed": false,
  "permanentlyClosed": false,
  "rank": 148,
  "placeId": "ChIJvX-_BN2pQjQR78A25C0TSuA",
  "url": "https://www.google.com/maps/place/PetPark/@25.0108849,121.2948897,17z/data=!3m1!4b1!4m5!3m4!1s0x3442a9dd04bf7fbd:0xe04a132de436c0ef!8m2!3d25.0108849!4d121.2970784",
  "location": {
    "lat": 25.0108849,
    "lng": 121.2970784
  },
  "searchString": "桃園市的動物醫院",
  "openingHours": [
    {
      "day": "Tuesday,",
      "hours": "10AM to 11PM"
    },
    {
      "day": "Wednesday,",
      "hours": "10AM to 11PM"
    },
    {
      "day": "Thursday",
      "hours": "(Mid-Autumn Festival), 10AM to 11PM, Hours might differ"
    },
    {
      "day": "Friday,",
      "hours": "10AM to 11PM"
    },
    {
      "day": "Saturday,",
      "hours": "10AM to 11PM"
    },
    {
      "day": "Sunday,",
      "hours": "10AM to 11PM"
    },
    {
      "day": "Monday,",
      "hours": "10AM to 11PM"
    }
  ],
  "reviewsCount": 507
},
{
  "title": "進安動物醫院｜寵物中醫專科",
  "totalScore": 4.5,
  "categoryName": "Animal hospital",
  "address": "No. 274號, Section 2, Jieshou Road, Bade District, Taoyuan City, Taiwan 33445             33445桃園市八德區介壽路二段274號",
  "locatedIn": null,
  "plusCode": "X72X+44 Bade District, Taoyuan City, Taiwan",
  "website": null,
  "phone": "+886 3 364 2686",
  "temporarilyClosed": false,
  "permanentlyClosed": false,
  "rank": 29,
  "placeId": "ChIJj4k325cZaDQR2Ks4-h-JOmo",
  "url": "https://www.google.com/maps/place/%E9%80%B2%E5%AE%89%E5%8B%95%E7%89%A9%E9%86%AB%E9%99%A2%EF%BD%9C%E5%AF%B5%E7%89%A9%E4%B8%AD%E9%86%AB%E5%B0%88%E7%A7%91/@24.9502901,121.2956064,17z/data=!3m1!4b1!4m5!3m4!1s0x34681997db37898f:0x6a3a891ffa38abd8!8m2!3d24.9502901!4d121.2977951",
  "location": {
    "lat": 24.9502901,
    "lng": 121.2977951
  },
  "searchString": "桃園市的動物醫院",
  "reviewsCount": 62
},
{
  "title": "美生動物醫院",
  "totalScore": 4.1,
  "categoryName": "Animal hospital",
  "address": "324, Taiwan, Taoyuan City, Pingzhen District, Huannan Road, 460號之3號之1             324桃園市平鎮區環南路460號之3號之1",
  "locatedIn": null,
  "plusCode": "W6W4+RM Pingzhen District, Taoyuan City, Taiwan",
  "website": null,
  "phone": "+886 3 493 8523",
  "temporarilyClosed": false,
  "permanentlyClosed": false,
  "rank": 66,
  "placeId": "ChIJNSf3bK8jaDQRHl48Q4VEOqk",
  "url": "https://www.google.com/maps/place/%E7%BE%8E%E7%94%9F%E5%8B%95%E7%89%A9%E9%86%AB%E9%99%A2/@24.947041,121.2044783,17z/data=!3m1!4b1!4m5!3m4!1s0x346823af6cf72735:0xa93a4485433c5e1e!8m2!3d24.947041!4d121.206667",
  "location": {
    "lat": 24.947041,
    "lng": 121.206667
  },
  "searchString": "桃園市的動物醫院",
  "openingHours": [
    {
      "day": "Tuesday,",
      "hours": "10AM to 9PM"
    },
    {
      "day": "Wednesday,",
      "hours": "10AM to 9PM"
    },
    {
      "day": "Thursday",
      "hours": "(Mid-Autumn Festival), Closed, Hours might differ"
    },
    {
      "day": "Friday,",
      "hours": "10AM to 9PM"
    },
    {
      "day": "Saturday,",
      "hours": "10AM to 9PM"
    },
    {
      "day": "Sunday,",
      "hours": "Closed"
    },
    {
      "day": "Monday,",
      "hours": "10AM to 9PM"
    }
  ],
  "reviewsCount": 21
},
{
  "title": "林獸醫動物診所",
  "totalScore": 4.7,
  "categoryName": "Animal hospital",
  "address": "No. 75巷14號, Zhongshan South Road, Dayuan District, Taoyuan City, Taiwan 337             337桃園市大園區中山南路75巷14號",
  "locatedIn": null,
  "plusCode": "356X+X7 Dayuan District, Taoyuan City, Taiwan",
  "website": null,
  "phone": "+886 3 386 7960",
  "temporarilyClosed": false,
  "permanentlyClosed": false,
  "rank": 54,
  "placeId": "ChIJuWXNEpkgaDQRdhA8xcQg6Ts",
  "url": "https://www.google.com/maps/place/%E6%9E%97%E7%8D%B8%E9%86%AB%E5%8B%95%E7%89%A9%E8%A8%BA%E6%89%80/@25.0624684,121.1959684,17z/data=!3m1!4b1!4m5!3m4!1s0x3468209912cd65b9:0x3be920c4c53c1076!8m2!3d25.0624684!4d121.1981571",
  "location": {
    "lat": 25.0624684,
    "lng": 121.1981571
  },
  "searchString": "桃園市的動物醫院",
  "openingHours": [
    {
      "day": "Tuesday,",
      "hours": "12 to 9PM"
    },
    {
      "day": "Wednesday,",
      "hours": "12 to 9PM"
    },
    {
      "day": "Thursday",
      "hours": "(Mid-Autumn Festival), 12 to 9PM, Hours might differ"
    },
    {
      "day": "Friday,",
      "hours": "12 to 9PM"
    },
    {
      "day": "Saturday,",
      "hours": "12 to 5PM"
    },
    {
      "day": "Sunday,",
      "hours": "Closed"
    },
    {
      "day": "Monday,",
      "hours": "12 to 9PM"
    }
  ],
  "reviewsCount": 108
}]