[{
  "title": "Shang Shiun Animal Hospital",
  "totalScore": 4.2,
  "categoryName": "Animal hospital",
  "address": "No. 318, Dongning Road, East District, Tainan City, Taiwan 701             701台南市東區東寧路318號",
  "locatedIn": null,
  "plusCode": "X6RG+3W East District, Tainan City, Taiwan",
  "website": null,
  "phone": "+886 6 274 6648",
  "temporarilyClosed": false,
  "permanentlyClosed": false,
  "rank": 12,
  "placeId": "ChIJrV5gEJZ2bjQRYcTUXSF8k_c",
  "url": "https://www.google.com/maps/place/Shang+Shiun+Animal+Hospital/@22.990147,120.2251277,17z/data=!3m1!4b1!4m5!3m4!1s0x346e769610605ead:0xf7937c215dd4c461!8m2!3d22.990147!4d120.2273164",
  "location": {
    "lat": 22.990147,
    "lng": 120.2273164
  },
  "searchString": "臺南市的寵物醫院",
  "openingHours": [
    {
      "day": "Tuesday,",
      "hours": "10AM to 9:30PM"
    },
    {
      "day": "Wednesday,",
      "hours": "10AM to 9:30PM"
    },
    {
      "day": "Thursday",
      "hours": "(Mid-Autumn Festival), 10AM to 9:30PM, Hours might differ"
    },
    {
      "day": "Friday,",
      "hours": "10AM to 9:30PM"
    },
    {
      "day": "Saturday,",
      "hours": "10AM to 9:30PM"
    },
    {
      "day": "Sunday,",
      "hours": "Closed"
    },
    {
      "day": "Monday,",
      "hours": "10AM to 9:30PM"
    }
  ],
  "reviewsCount": 120
},
{
  "title": "馬汀動物醫院",
  "totalScore": 4.6,
  "categoryName": "Animal hospital",
  "address": "No. 8-2, Zhonghua Road, Yongkang District, Tainan City, Taiwan 710             710台南市永康區中華路8-2號",
  "locatedIn": null,
  "plusCode": "X6XP+Q2 Yongkang District, Tainan City, Taiwan",
  "website": null,
  "phone": "+886 6 312 5594",
  "temporarilyClosed": false,
  "permanentlyClosed": false,
  "rank": 16,
  "placeId": "ChIJDWVVu8Z2bjQRNS0KMifvVEA",
  "url": "https://www.google.com/maps/place/%E9%A6%AC%E6%B1%80%E5%8B%95%E7%89%A9%E9%86%AB%E9%99%A2/@22.9994841,120.2328543,17z/data=!3m1!4b1!4m5!3m4!1s0x346e76c6bb55650d:0x4054ef27320a2d35!8m2!3d22.9994841!4d120.235043",
  "location": {
    "lat": 22.9994841,
    "lng": 120.235043
  },
  "searchString": "臺南市的寵物醫院",
  "openingHours": [
    {
      "day": "Tuesday,",
      "hours": "9AM to 12:30PM, 2:30 to 9PM"
    },
    {
      "day": "Wednesday,",
      "hours": "Closed"
    },
    {
      "day": "Thursday",
      "hours": "(Mid-Autumn Festival), 9AM to 12:30PM, 2:30 to 9PM, Hours might differ"
    },
    {
      "day": "Friday,",
      "hours": "9AM to 12:30PM, 2:30 to 9PM"
    },
    {
      "day": "Saturday,",
      "hours": "9AM to 12:30PM, 2:30 to 9PM"
    },
    {
      "day": "Sunday,",
      "hours": "9AM to 12:30PM, 2:30 to 5PM"
    },
    {
      "day": "Monday,",
      "hours": "9AM to 12:30PM, 2:30 to 9PM"
    }
  ],
  "reviewsCount": 59
},
{
  "title": "強生動物醫院",
  "totalScore": 4.6,
  "categoryName": "Animal hospital",
  "address": "No. 237號, Section 1, Lin'an Road, West Central District, Tainan City, Taiwan 700             700台南市中西區臨安路一段237號",
  "locatedIn": null,
  "plusCode": "252V+M9 West Central District, Tainan City, Taiwan",
  "website": null,
  "phone": "+886 6 358 6008",
  "temporarilyClosed": false,
  "permanentlyClosed": false,
  "rank": 42,
  "placeId": "ChIJ7WV2Mmd2bjQRBpuV7mp9oVQ",
  "url": "https://www.google.com/maps/place/%E5%BC%B7%E7%94%9F%E5%8B%95%E7%89%A9%E9%86%AB%E9%99%A2/@23.001632,120.1912073,17z/data=!3m1!4b1!4m5!3m4!1s0x346e7667327665ed:0x54a17d6aee959b06!8m2!3d23.001632!4d120.193396",
  "location": {
    "lat": 23.001632,
    "lng": 120.193396
  },
  "searchString": "臺南市的寵物醫院",
  "openingHours": [
    {
      "day": "Tuesday,",
      "hours": "9AM to 1:30PM, 4 to 9PM"
    },
    {
      "day": "Wednesday,",
      "hours": "9AM to 1:30PM, 4 to 9PM"
    },
    {
      "day": "Thursday",
      "hours": "(Mid-Autumn Festival), 9AM to 1:30PM, 4 to 9PM, Hours might differ"
    },
    {
      "day": "Friday,",
      "hours": "9AM to 1:30PM, 4 to 9PM"
    },
    {
      "day": "Saturday,",
      "hours": "9AM to 1:30PM, 4 to 9PM"
    },
    {
      "day": "Sunday,",
      "hours": "Closed"
    },
    {
      "day": "Monday,",
      "hours": "9AM to 1:30PM, 4 to 9PM"
    }
  ],
  "reviewsCount": 55
},
{
  "title": "遠東動物醫院",
  "totalScore": "",
  "categoryName": "Animal hospital",
  "address": "No. 83號, Zhongzheng South Road, Yongkang District, Tainan City, Taiwan 710             710台南市永康區中正南路83號",
  "locatedIn": null,
  "plusCode": "26C8+J8 Yongkang District, Tainan City, Taiwan",
  "website": null,
  "phone": "+886 6 251 2415",
  "temporarilyClosed": false,
  "permanentlyClosed": false,
  "rank": 88,
  "placeId": "ChIJme9OuAJ3bjQRTT5rRTMbA_U",
  "url": "https://www.google.com/maps/place/%E9%81%A0%E6%9D%B1%E5%8B%95%E7%89%A9%E9%86%AB%E9%99%A2/@23.0215046,120.2136307,17z/data=!3m1!4b1!4m5!3m4!1s0x346e7702b84eef99:0xf5031b33456b3e4d!8m2!3d23.0215046!4d120.2158194",
  "location": {
    "lat": 23.0215046,
    "lng": 120.2158194
  },
  "searchString": "臺南市的寵物醫院"
},
{
  "title": "My Animal Hospital",
  "totalScore": 4.6,
  "categoryName": "Animal hospital",
  "address": "No. 235, Section 5, Hewei Road, West Central District, Tainan City, Taiwan 700             700台南市中西區和緯路五段235號",
  "locatedIn": null,
  "plusCode": "253J+X6 West Central District, Tainan City, Taiwan",
  "website": "facebook.com",
  "phone": "+886 6 250 1567",
  "temporarilyClosed": false,
  "permanentlyClosed": false,
  "rank": 1,
  "placeId": "ChIJMbCTahV2bjQRc8DCG9tmJJ4",
  "url": "https://www.google.com/maps/place/My+Animal+Hospital/@23.004985,120.1783143,17z/data=!3m1!4b1!4m5!3m4!1s0x346e76156a93b031:0x9e2466db1bc2c073!8m2!3d23.004985!4d120.180503",
  "location": {
    "lat": 23.004985,
    "lng": 120.180503
  },
  "searchString": "臺南市的寵物醫院",
  "openingHours": [
    {
      "day": "Tuesday,",
      "hours": "10AM to 10PM"
    },
    {
      "day": "Wednesday,",
      "hours": "10AM to 10PM"
    },
    {
      "day": "Thursday",
      "hours": "(Mid-Autumn Festival), 10AM to 10PM, Hours might differ"
    },
    {
      "day": "Friday,",
      "hours": "10AM to 10PM"
    },
    {
      "day": "Saturday,",
      "hours": "10AM to 10PM"
    },
    {
      "day": "Sunday,",
      "hours": "10AM to 6PM"
    },
    {
      "day": "Monday,",
      "hours": "Closed"
    }
  ],
  "reviewsCount": 101
},
{
  "title": "愛欣動物醫院",
  "totalScore": 3.6,
  "categoryName": "",
  "address": "No. 3, Section 3, Dongmen Road, East District, Taiwan 701             701東區東門路三段3號",
  "locatedIn": null,
  "plusCode": "X6JH+9W East District, Tainan City, Taiwan",
  "website": null,
  "phone": "+886 6 267 8285",
  "temporarilyClosed": false,
  "permanentlyClosed": false,
  "rank": 149,
  "placeId": "ChIJI5eaQKJ2bjQRcUPpRVdvsNM",
  "url": "https://www.google.com/maps/place/%E6%84%9B%E6%AC%A3%E5%8B%95%E7%89%A9%E9%86%AB%E9%99%A2/@22.9809995,120.2275826,17z/data=!3m1!4b1!4m5!3m4!1s0x346e76a2409a9723:0xd3b06f5745e94371!8m2!3d22.9809995!4d120.2297713",
  "location": {
    "lat": 22.9809995,
    "lng": 120.2297713
  },
  "searchString": "臺南市的寵物醫院",
  "openingHours": [
    {
      "day": "Tuesday,",
      "hours": "9AM to 12:30PM, 2 to 9:30PM"
    },
    {
      "day": "Wednesday,",
      "hours": "9AM to 12:30PM, 2 to 9:30PM"
    },
    {
      "day": "Thursday",
      "hours": "(Mid-Autumn Festival), 9AM to 12:30PM, 2 to 9:30PM, Hours might differ"
    },
    {
      "day": "Friday,",
      "hours": "9AM to 12:30PM, 2 to 9:30PM"
    },
    {
      "day": "Saturday,",
      "hours": "9AM to 12:30PM, 2 to 9:30PM"
    },
    {
      "day": "Sunday,",
      "hours": "Closed"
    },
    {
      "day": "Monday,",
      "hours": "9AM to 12:30PM, 2 to 9:30PM"
    }
  ],
  "reviewsCount": 22
},
{
  "title": "豪斯動物醫院",
  "totalScore": 3.7,
  "categoryName": "Hospital",
  "address": "No. 387號, Chenggong Rd, West Central District, Tainan City, Taiwan 704             704台南市中西區成功路387號",
  "locatedIn": null,
  "plusCode": "252X+65 West Central District, Tainan City, Taiwan",
  "website": null,
  "phone": "+886 6 358 1999",
  "temporarilyClosed": false,
  "permanentlyClosed": false,
  "rank": 144,
  "placeId": "ChIJAfY9HlB2bjQRy-x4LS1vwYs",
  "url": "https://www.google.com/maps/place/%E8%B1%AA%E6%96%AF%E5%8B%95%E7%89%A9%E9%86%AB%E9%99%A2/@23.0006159,120.1958076,17z/data=!3m1!4b1!4m5!3m4!1s0x346e76501e3df601:0x8bc16f2d2d78eccb!8m2!3d23.0006159!4d120.1979963",
  "location": {
    "lat": 23.0006159,
    "lng": 120.1979963
  },
  "searchString": "臺南市的寵物醫院",
  "openingHours": [
    {
      "day": "Tuesday,",
      "hours": "9AM to 9PM"
    },
    {
      "day": "Wednesday,",
      "hours": "9AM to 9PM"
    },
    {
      "day": "Thursday",
      "hours": "(Mid-Autumn Festival), 9AM to 9PM, Hours might differ"
    },
    {
      "day": "Friday,",
      "hours": "9AM to 9PM"
    },
    {
      "day": "Saturday,",
      "hours": "9AM to 9PM"
    },
    {
      "day": "Sunday,",
      "hours": "9AM to 5PM"
    },
    {
      "day": "Monday,",
      "hours": "9AM to 9PM"
    }
  ],
  "reviewsCount": 16
},
{
  "title": "樂仁動物醫院",
  "totalScore": 2.8,
  "categoryName": "",
  "address": "號, No. 6-43, Minzhi Road, Xinying District, Tainan City, Taiwan 730             號, No. 6-43民治路新營區台南市730",
  "locatedIn": null,
  "plusCode": "886C+FF Xinying District, Tainan City, Taiwan",
  "website": null,
  "phone": "+886 6 632 5807",
  "temporarilyClosed": false,
  "permanentlyClosed": false,
  "rank": 141,
  "placeId": "ChIJR98aT-iFbjQR4OIMdd6Zutw",
  "url": "https://www.google.com/maps/place/%E6%A8%82%E4%BB%81%E5%8B%95%E7%89%A9%E9%86%AB%E9%99%A2/@23.3112069,120.3189833,17z/data=!3m1!4b1!4m5!3m4!1s0x346e85e84f1adf47:0xdcba99de750ce2e0!8m2!3d23.3112069!4d120.321172",
  "location": {
    "lat": 23.3112069,
    "lng": 120.321172
  },
  "searchString": "臺南市的寵物醫院",
  "openingHours": [
    {
      "day": "Tuesday,",
      "hours": "9:30AM to 9PM"
    },
    {
      "day": "Wednesday,",
      "hours": "9:30AM to 9PM"
    },
    {
      "day": "Thursday",
      "hours": "(Mid-Autumn Festival), 9:30AM to 9PM, Hours might differ"
    },
    {
      "day": "Friday,",
      "hours": "9:30AM to 9PM"
    },
    {
      "day": "Saturday,",
      "hours": "9:30AM to 9PM"
    },
    {
      "day": "Sunday,",
      "hours": "Closed"
    },
    {
      "day": "Monday,",
      "hours": "9:30AM to 9PM"
    }
  ],
  "reviewsCount": 24
},
{
  "title": "躍犬動物醫院",
  "totalScore": 4.4,
  "categoryName": "",
  "address": "No. 523, Section 4, Minquan Road, West Central District, Tainan City, Taiwan 70849             70849台南市中西區民權路四段523號",
  "locatedIn": null,
  "plusCode": "252C+2R West Central District, Tainan City, Taiwan",
  "website": null,
  "phone": "+886 6 226 4281",
  "temporarilyClosed": false,
  "permanentlyClosed": false,
  "rank": 145,
  "placeId": "ChIJYTtR9BB2bjQRqhosJ3_Y2_c",
  "url": "https://www.google.com/maps/place/%E8%BA%8D%E7%8A%AC%E5%8B%95%E7%89%A9%E9%86%AB%E9%99%A2/@23.0000966,120.1698983,17z/data=!3m1!4b1!4m5!3m4!1s0x346e7610f4513b61:0xf7dbd87f272c1aaa!8m2!3d23.0000966!4d120.172087",
  "location": {
    "lat": 23.0000966,
    "lng": 120.172087
  },
  "searchString": "臺南市的寵物醫院",
  "openingHours": [
    {
      "day": "Tuesday,",
      "hours": "9AM to 12PM, 2 to 8PM"
    },
    {
      "day": "Wednesday,",
      "hours": "9AM to 12PM, 2 to 8PM"
    },
    {
      "day": "Thursday",
      "hours": "(Mid-Autumn Festival), 9AM to 12PM, 2 to 8PM, Hours might differ"
    },
    {
      "day": "Friday,",
      "hours": "9AM to 12PM, 2 to 8PM"
    },
    {
      "day": "Saturday,",
      "hours": "9AM to 4PM"
    },
    {
      "day": "Sunday,",
      "hours": "Closed"
    },
    {
      "day": "Monday,",
      "hours": "9AM to 12PM, 2 to 8PM"
    }
  ],
  "reviewsCount": 37
},
{
  "title": "歸仁動物醫院",
  "totalScore": 1,
  "categoryName": "",
  "address": "No. 7號, Lane 73, Section 1, Zhongzheng South Road, Guiren District, Tainan City, Taiwan 711             711台南市歸仁區中正南路一段73巷7號",
  "locatedIn": null,
  "plusCode": "X77V+RM Guiren District, Tainan City, Taiwan",
  "website": null,
  "phone": "+886 6 230 5834",
  "temporarilyClosed": false,
  "permanentlyClosed": false,
  "rank": 146,
  "placeId": "ChIJTeDi435xbjQRxjT82JzsFFI",
  "url": "https://www.google.com/maps/place/%E6%AD%B8%E4%BB%81%E5%8B%95%E7%89%A9%E9%86%AB%E9%99%A2/@22.96459,120.2920383,17z/data=!3m1!4b1!4m5!3m4!1s0x346e717ee3e2e04d:0x5214ec9cd8fc34c6!8m2!3d22.96459!4d120.294227",
  "location": {
    "lat": 22.96459,
    "lng": 120.294227
  },
  "searchString": "臺南市的寵物醫院",
  "openingHours": [
    {
      "day": "Tuesday,",
      "hours": "7:30AM to 12PM, 3 to 4PM, 7 to 9:30PM"
    },
    {
      "day": "Wednesday,",
      "hours": "7:30AM to 12PM, 3 to 4PM, 7 to 9:30PM"
    },
    {
      "day": "Thursday",
      "hours": "(Mid-Autumn Festival), 7:30AM to 12PM, 3 to 4PM, 7 to 9:30PM, Hours might differ"
    },
    {
      "day": "Friday,",
      "hours": "7:30AM to 12PM, 3 to 4PM, 7 to 9:30PM"
    },
    {
      "day": "Saturday,",
      "hours": "7:30AM to 12PM, 3 to 4PM, 7 to 9:30PM"
    },
    {
      "day": "Sunday,",
      "hours": "7:30AM to 12PM, 3 to 4PM, 7 to 9:30PM"
    },
    {
      "day": "Monday,",
      "hours": "7:30AM to 12PM, 3 to 4PM, 7 to 9:30PM"
    }
  ],
  "reviewsCount": 2
},
{
  "title": "都嘟動物醫院",
  "totalScore": "",
  "categoryName": "",
  "address": "No. 146號, Beizhong Street, North District, Tainan City, Taiwan 704             704台南市北區北忠街146號",
  "locatedIn": null,
  "plusCode": "2624+3V North District, Tainan City, Taiwan",
  "website": null,
  "phone": "+886 6 222 0536",
  "temporarilyClosed": false,
  "permanentlyClosed": false,
  "rank": 147,
  "placeId": "ChIJyeVCzop2bjQR8FYTnbT8GNQ",
  "url": "https://www.google.com/maps/place/%E9%83%BD%E5%98%9F%E5%8B%95%E7%89%A9%E9%86%AB%E9%99%A2/@23.00021,120.2049573,17z/data=!3m1!4b1!4m5!3m4!1s0x346e768ace42e5c9:0xd418fcb49d1356f0!8m2!3d23.00021!4d120.207146",
  "location": {
    "lat": 23.00021,
    "lng": 120.207146
  },
  "searchString": "臺南市的寵物醫院"
},
{
  "title": "全能動物醫院",
  "totalScore": 4.5,
  "categoryName": "",
  "address": "Taiwan, 台南市將軍區忠嘉里忠興187之22號",
  "locatedIn": null,
  "plusCode": "6525+3G Jiangjun District, Tainan City, Taiwan",
  "website": null,
  "phone": "+886 6 794 4117",
  "temporarilyClosed": false,
  "permanentlyClosed": false,
  "rank": 151,
  "placeId": "ChIJ_8zIn4DVbTQRTD-3-Z5zXYE",
  "url": "https://www.google.com/maps/place/%E5%85%A8%E8%83%BD%E5%8B%95%E7%89%A9%E9%86%AB%E9%99%A2/@23.200221,120.1566733,17z/data=!3m1!4b1!4m5!3m4!1s0x346dd5809fc8ccff:0x815d739ef9b73f4c!8m2!3d23.200221!4d120.158862",
  "location": {
    "lat": 23.200221,
    "lng": 120.158862
  },
  "searchString": "臺南市的寵物醫院",
  "reviewsCount": 2
},
{
  "title": "博泰動物醫院",
  "totalScore": "",
  "categoryName": "Hospital",
  "address": "號, No. 65, Dean Street, Annan District, Tainan City, Taiwan 709             號, No. 65德安街安南區台南市709",
  "locatedIn": null,
  "plusCode": "26G4+76 Annan District, Tainan City, Taiwan",
  "website": null,
  "phone": "+886 6 283 1981",
  "temporarilyClosed": false,
  "permanentlyClosed": false,
  "rank": 150,
  "placeId": "ChIJ0c7rhAB3bjQR9I-ZlQ7eh48",
  "url": "https://www.google.com/maps/place/%E5%8D%9A%E6%B3%B0%E5%8B%95%E7%89%A9%E9%86%AB%E9%99%A2/@23.025706,120.2033903,17z/data=!3m1!4b1!4m5!3m4!1s0x346e770084ebced1:0x8f87de0e95998ff4!8m2!3d23.025706!4d120.205579",
  "location": {
    "lat": 23.025706,
    "lng": 120.205579
  },
  "searchString": "臺南市的寵物醫院"
},
{
  "title": "永勤動物醫院",
  "totalScore": 4.7,
  "categoryName": "Pharmacy",
  "address": "No. 641, Section 3, Zhongzheng Road, Rende District, Tainan City, Taiwan 717             717台南市仁德區中正路三段641號",
  "locatedIn": null,
  "plusCode": "X7Q4+PM Rende District, Tainan City, Taiwan",
  "website": null,
  "phone": "+886 6 271 8896",
  "temporarilyClosed": false,
  "permanentlyClosed": false,
  "rank": 142,
  "placeId": "ChIJgSyVBUpxbjQRarn2BSq73JE",
  "url": "https://www.google.com/maps/place/%E6%B0%B8%E5%8B%A4%E5%8B%95%E7%89%A9%E9%86%AB%E9%99%A2/@22.9893616,120.2545033,17z/data=!3m1!4b1!4m5!3m4!1s0x346e714a05952c81:0x91dcbb2a05f6b96a!8m2!3d22.9893616!4d120.256692",
  "location": {
    "lat": 22.9893616,
    "lng": 120.256692
  },
  "searchString": "臺南市的寵物醫院",
  "openingHours": [
    {
      "day": "Tuesday,",
      "hours": "9AM to 1PM, 2 to 7PM"
    },
    {
      "day": "Wednesday,",
      "hours": "9AM to 1PM, 2 to 7PM"
    },
    {
      "day": "Thursday",
      "hours": "(Mid-Autumn Festival), 9AM to 1PM, 2 to 7PM, Hours might differ"
    },
    {
      "day": "Friday,",
      "hours": "9AM to 1PM, 2 to 7PM"
    },
    {
      "day": "Saturday,",
      "hours": "9AM to 1PM, 2 to 7PM"
    },
    {
      "day": "Sunday,",
      "hours": "Closed"
    },
    {
      "day": "Monday,",
      "hours": "9AM to 1PM, 2 to 7PM"
    }
  ],
  "reviewsCount": 12
},
{
  "title": "慈愛動物醫院仁德分院",
  "totalScore": "",
  "categoryName": "Doctor",
  "address": "Zhongshan Road, Rende District, Tainan City, Taiwan 717             717台南市仁德區中山路",
  "locatedIn": null,
  "plusCode": "X6GQ+58 Rende District, Tainan City, Taiwan",
  "website": null,
  "phone": null,
  "temporarilyClosed": false,
  "permanentlyClosed": false,
  "rank": 143,
  "placeId": "ChIJ6dx_NaZ2bjQRoAdyPwXI0TU",
  "url": "https://www.google.com/maps/place/%E6%85%88%E6%84%9B%E5%8B%95%E7%89%A9%E9%86%AB%E9%99%A2%E4%BB%81%E5%BE%B7%E5%88%86%E9%99%A2/@22.9754833,120.2361048,17z/data=!3m1!4b1!4m5!3m4!1s0x346e76a6357fdce9:0x35d1c8053f7207a0!8m2!3d22.9754833!4d120.2382935",
  "location": {
    "lat": 22.9754833,
    "lng": 120.2382935
  },
  "searchString": "臺南市的寵物醫院"
},
{
  "title": "迦美動物醫院",
  "totalScore": 5,
  "categoryName": "",
  "address": "No. 202-1號, Daren Street, Yongkang District, Tainan City, Taiwan 710             710台南市永康區大仁街202-1號",
  "locatedIn": null,
  "plusCode": "2745+56 Yongkang District, Tainan City, Taiwan",
  "website": null,
  "phone": "+886 6 205 7200",
  "temporarilyClosed": false,
  "permanentlyClosed": false,
  "rank": 148,
  "placeId": "ChIJPwUTeyhxbjQRHKKGIZu9T_A",
  "url": "https://www.google.com/maps/place/%E8%BF%A6%E7%BE%8E%E5%8B%95%E7%89%A9%E9%86%AB%E9%99%A2/@23.0054689,120.2559244,17z/data=!3m1!4b1!4m5!3m4!1s0x346e71287b13053f:0xf04fbd9b2186a21c!8m2!3d23.0054689!4d120.2581131",
  "location": {
    "lat": 23.0054689,
    "lng": 120.2581131
  },
  "searchString": "臺南市的寵物醫院",
  "reviewsCount": 1
},
{
  "title": "勝安家畜診所",
  "totalScore": 3.1,
  "categoryName": "Animal hospital",
  "address": "No. 96號, Fuxing Street, Liujia District, Tainan City, Taiwan 734             734台南市六甲區復興街96號",
  "locatedIn": null,
  "plusCode": "69J2+6W Liujia District, Tainan City, Taiwan",
  "website": null,
  "phone": "+886 6 698 2640",
  "temporarilyClosed": false,
  "permanentlyClosed": false,
  "rank": 134,
  "placeId": "ChIJF6n0VHKIbjQRAEqusB_P1aE",
  "url": "https://www.google.com/maps/place/%E5%8B%9D%E5%AE%89%E5%AE%B6%E7%95%9C%E8%A8%BA%E6%89%80/@23.2305858,120.3501719,17z/data=!3m1!4b1!4m5!3m4!1s0x346e887254f4a917:0xa1d5cf1fb0ae4a00!8m2!3d23.2305858!4d120.3523606",
  "location": {
    "lat": 23.2305858,
    "lng": 120.3523606
  },
  "searchString": "臺南市的寵物醫院",
  "reviewsCount": 9
},
{
  "title": "上揚動物醫院",
  "totalScore": 4.7,
  "categoryName": "Hospital",
  "address": "700, Taiwan, Tainan City, West Central District, Section 3, Minzu Road, 48號號             700台南市中西區民族路三段48號號",
  "locatedIn": null,
  "plusCode": "X5XX+6C West Central District, Tainan City, Taiwan",
  "website": null,
  "phone": "+886 6 224 7536",
  "temporarilyClosed": false,
  "permanentlyClosed": false,
  "rank": 131,
  "placeId": "ChIJL8zYuWZ2bjQRDKMNIJjMVVI",
  "url": "https://www.google.com/maps/place/%E4%B8%8A%E6%8F%9A%E5%8B%95%E7%89%A9%E9%86%AB%E9%99%A2/@22.9980019,120.196411,17z/data=!3m1!4b1!4m5!3m4!1s0x346e7666b9d8cc2f:0x5255cc98200da30c!8m2!3d22.9980019!4d120.1985997",
  "location": {
    "lat": 22.9980019,
    "lng": 120.1985997
  },
  "searchString": "臺南市的寵物醫院",
  "openingHours": [
    {
      "day": "Tuesday,",
      "hours": "9AM to 9PM"
    },
    {
      "day": "Wednesday,",
      "hours": "9AM to 9PM"
    },
    {
      "day": "Thursday",
      "hours": "(Mid-Autumn Festival), 9AM to 9PM, Hours might differ"
    },
    {
      "day": "Friday,",
      "hours": "9AM to 9PM"
    },
    {
      "day": "Saturday,",
      "hours": "9AM to 9PM"
    },
    {
      "day": "Sunday,",
      "hours": "Closed"
    },
    {
      "day": "Monday,",
      "hours": "9AM to 9PM"
    }
  ],
  "reviewsCount": 18
},
{
  "title": "亞洲動物醫院",
  "totalScore": 5,
  "categoryName": "Hospital",
  "address": "No. 8號, Section 2, Zhonghua North Road, North District, Tainan City, Taiwan 704             704台南市北區中華北路二段8號",
  "locatedIn": null,
  "plusCode": "259V+7F North District, Tainan City, Taiwan",
  "website": "m.facebook.com",
  "phone": "+886 6 250 5323",
  "temporarilyClosed": false,
  "permanentlyClosed": false,
  "rank": 128,
  "placeId": "ChIJ15DIwv92bjQRL3kwK6B2ASU",
  "url": "https://www.google.com/maps/place/%E4%BA%9E%E6%B4%B2%E5%8B%95%E7%89%A9%E9%86%AB%E9%99%A2/@23.01818,120.1915523,17z/data=!3m1!4b1!4m5!3m4!1s0x346e76ffc2c890d7:0x250176a02b30792f!8m2!3d23.01818!4d120.193741",
  "location": {
    "lat": 23.01818,
    "lng": 120.193741
  },
  "searchString": "臺南市的寵物醫院",
  "openingHours": [
    {
      "day": "Tuesday,",
      "hours": "11AM to 10:30PM"
    },
    {
      "day": "Wednesday,",
      "hours": "11AM to 10:30PM"
    },
    {
      "day": "Thursday",
      "hours": "(Mid-Autumn Festival), 11AM to 10:30PM, Hours might differ"
    },
    {
      "day": "Friday,",
      "hours": "11AM to 10:30PM"
    },
    {
      "day": "Saturday,",
      "hours": "11AM to 10:30PM"
    },
    {
      "day": "Sunday,",
      "hours": "Closed"
    },
    {
      "day": "Monday,",
      "hours": "11AM to 10:30PM"
    }
  ],
  "reviewsCount": 4
},
{
  "title": "飛揚動物醫院",
  "totalScore": 3.8,
  "categoryName": "Animal hospital",
  "address": "No. 2-10, Zhongshan Road, Baihe District, Tainan City, Taiwan 732             732台南市白河區中山路2-10號",
  "locatedIn": null,
  "plusCode": "8CW7+95 Baihe District, Tainan City, Taiwan",
  "website": null,
  "phone": "+886 6 685 1110",
  "temporarilyClosed": false,
  "permanentlyClosed": false,
  "rank": 126,
  "placeId": "ChIJDdJVfhWObjQR66QrDqFdQn8",
  "url": "https://www.google.com/maps/place/%E9%A3%9B%E6%8F%9A%E5%8B%95%E7%89%A9%E9%86%AB%E9%99%A2/@23.3459453,120.4106973,17z/data=!3m1!4b1!4m5!3m4!1s0x346e8e157e55d20d:0x7f425da10e2ba4eb!8m2!3d23.3459453!4d120.412886",
  "location": {
    "lat": 23.3459453,
    "lng": 120.412886
  },
  "searchString": "臺南市的寵物醫院",
  "openingHours": [
    {
      "day": "Tuesday,",
      "hours": "9AM to 8PM"
    },
    {
      "day": "Wednesday,",
      "hours": "9AM to 8PM"
    },
    {
      "day": "Thursday",
      "hours": "(Mid-Autumn Festival), 9AM to 8PM, Hours might differ"
    },
    {
      "day": "Friday,",
      "hours": "9AM to 8PM"
    },
    {
      "day": "Saturday,",
      "hours": "9AM to 6PM"
    },
    {
      "day": "Sunday,",
      "hours": "Closed"
    },
    {
      "day": "Monday,",
      "hours": "9AM to 8PM"
    }
  ],
  "reviewsCount": 24
},
{
  "title": "美光醫院",
  "totalScore": 4.3,
  "categoryName": "Animal hospital",
  "address": "No. 4號, Alley 35, Lane 323, Nangong St, Yongkang District, Tainan City, Taiwan 710             710台南市永康區南工街323巷35弄4號",
  "locatedIn": null,
  "plusCode": "267P+7P Yongkang District, Tainan City, Taiwan",
  "website": null,
  "phone": null,
  "temporarilyClosed": false,
  "permanentlyClosed": false,
  "rank": 124,
  "placeId": "ChIJ5XEBANl2bjQRVsdwVzgvMeo",
  "url": "https://www.google.com/maps/place/%E7%BE%8E%E5%85%89%E9%86%AB%E9%99%A2/@23.013197,120.2346412,17z/data=!3m1!4b1!4m5!3m4!1s0x346e76d9000171e5:0xea312f385770c756!8m2!3d23.013197!4d120.2368299",
  "location": {
    "lat": 23.013197,
    "lng": 120.2368299
  },
  "searchString": "臺南市的寵物醫院",
  "reviewsCount": 6
},
{
  "title": "長裕家畜診所",
  "totalScore": 5,
  "categoryName": "Animal hospital",
  "address": "Taiwan, Tainan City, Xiaying District, 1087號             台南市下營區1087號",
  "locatedIn": null,
  "plusCode": "678G+7F Xiaying District, Tainan City, Taiwan",
  "website": null,
  "phone": "+886 6 689 4055",
  "temporarilyClosed": false,
  "permanentlyClosed": false,
  "rank": 140,
  "placeId": "ChIJ495kk4x9bjQRgUEbos1pVxM",
  "url": "https://www.google.com/maps/place/%E9%95%B7%E8%A3%95%E5%AE%B6%E7%95%9C%E8%A8%BA%E6%89%80/@23.2157289,120.2739952,17z/data=!3m1!4b1!4m5!3m4!1s0x346e7d8c9364dee3:0x135769cda21b4181!8m2!3d23.2157289!4d120.2761839",
  "location": {
    "lat": 23.2157289,
    "lng": 120.2761839
  },
  "searchString": "臺南市的寵物醫院",
  "reviewsCount": 1
},
{
  "title": "信宏動物醫院",
  "totalScore": "",
  "categoryName": "Hospital",
  "address": "710, Taiwan, 台南市 永康區勝利街1巷56號",
  "locatedIn": null,
  "plusCode": "262H+FH North District, Tainan City, Taiwan",
  "website": null,
  "phone": "+886 6 312 2799",
  "temporarilyClosed": false,
  "permanentlyClosed": false,
  "rank": 132,
  "placeId": "ChIJs4XQ-cF2bjQRRTLWIOQ24zE",
  "url": "https://www.google.com/maps/place/%E4%BF%A1%E5%AE%8F%E5%8B%95%E7%89%A9%E9%86%AB%E9%99%A2/@23.0012461,120.2266939,17z/data=!3m1!4b1!4m5!3m4!1s0x346e76c1f9d085b3:0x31e336e420d63245!8m2!3d23.0012461!4d120.2288826",
  "location": {
    "lat": 23.0012461,
    "lng": 120.2288826
  },
  "searchString": "臺南市的寵物醫院"
},
{
  "title": "東平動物醫院",
  "totalScore": "",
  "categoryName": "",
  "address": "No. 458號, Section 2, Datong Road, South District, Tainan City, Taiwan 702             702台南市南區大同路二段458號",
  "locatedIn": null,
  "plusCode": "X6F7+CP South District, Tainan City, Taiwan",
  "website": null,
  "phone": "+886 6 215 6989",
  "temporarilyClosed": false,
  "permanentlyClosed": false,
  "rank": 136,
  "placeId": "ChIJA-kP3Sh0bjQRGd8UiL8uxO0",
  "url": "https://www.google.com/maps/place/%E6%9D%B1%E5%B9%B3%E5%8B%95%E7%89%A9%E9%86%AB%E9%99%A2/@22.973502,120.2121603,17z/data=!3m1!4b1!4m5!3m4!1s0x346e7428dd0fe903:0xedc42ebf8814df19!8m2!3d22.973502!4d120.214349",
  "location": {
    "lat": 22.973502,
    "lng": 120.214349
  },
  "searchString": "臺南市的寵物醫院"
},
{
  "title": "歐逗動物醫院",
  "totalScore": 3.7,
  "categoryName": "Doctor",
  "address": "No. 5, Huaxing Street, Xinshi District, Tainan City, Taiwan 744             744台南市新市區華興街5號",
  "locatedIn": null,
  "plusCode": "37GW+R5 Xinshi District, Tainan City, Taiwan",
  "website": null,
  "phone": "+886 6 589 3455",
  "temporarilyClosed": false,
  "permanentlyClosed": false,
  "rank": 138,
  "placeId": "ChIJq3eFRlh6bjQRguXi7NJf2P4",
  "url": "https://www.google.com/maps/place/%E6%AD%90%E9%80%97%E5%8B%95%E7%89%A9%E9%86%AB%E9%99%A2/@23.0770745,120.2932831,17z/data=!3m1!4b1!4m5!3m4!1s0x346e7a58468577ab:0xfed85fd2ece2e582!8m2!3d23.0770745!4d120.2954718",
  "location": {
    "lat": 23.0770745,
    "lng": 120.2954718
  },
  "searchString": "臺南市的寵物醫院",
  "openingHours": [
    {
      "day": "Tuesday,",
      "hours": "9AM to 1PM, 3 to 9PM"
    },
    {
      "day": "Wednesday,",
      "hours": "9AM to 1PM, 3 to 9PM"
    },
    {
      "day": "Thursday",
      "hours": "(Mid-Autumn Festival), 9AM to 1PM, 3 to 9PM, Hours might differ"
    },
    {
      "day": "Friday,",
      "hours": "9AM to 1PM, 3 to 9PM"
    },
    {
      "day": "Saturday,",
      "hours": "9AM to 1PM, 3 to 9PM"
    },
    {
      "day": "Sunday,",
      "hours": "9AM to 1PM, 3 to 9PM"
    },
    {
      "day": "Monday,",
      "hours": "Closed"
    }
  ],
  "reviewsCount": 13
},
{
  "title": "弘光動物醫院",
  "totalScore": 4.7,
  "categoryName": "Animal hospital",
  "address": "號, No. 192, Section 1, Jinhua Road, South District, Tainan City, Taiwan 702             號, No. 192金華路一段南區台南市702",
  "locatedIn": null,
  "plusCode": "X58R+C2 South District, Tainan City, Taiwan",
  "website": null,
  "phone": "+886 6 261 8477",
  "temporarilyClosed": false,
  "permanentlyClosed": false,
  "rank": 123,
  "placeId": "ChIJOdVyhcZ1bjQR6kEaQAKD-94",
  "url": "https://www.google.com/maps/place/%E5%BC%98%E5%85%89%E5%8B%95%E7%89%A9%E9%86%AB%E9%99%A2/@22.9660232,120.1879163,17z/data=!3m1!4b1!4m5!3m4!1s0x346e75c68572d539:0xdefb8302401a41ea!8m2!3d22.9660232!4d120.190105",
  "location": {
    "lat": 22.9660232,
    "lng": 120.190105
  },
  "searchString": "臺南市的寵物醫院",
  "openingHours": [
    {
      "day": "Tuesday,",
      "hours": "11AM to 10PM"
    },
    {
      "day": "Wednesday,",
      "hours": "11AM to 10PM"
    },
    {
      "day": "Thursday",
      "hours": "(Mid-Autumn Festival), 11AM to 10PM, Hours might differ"
    },
    {
      "day": "Friday,",
      "hours": "11AM to 10PM"
    },
    {
      "day": "Saturday,",
      "hours": "11AM to 10PM"
    },
    {
      "day": "Sunday,",
      "hours": "Closed"
    },
    {
      "day": "Monday,",
      "hours": "11AM to 10PM"
    }
  ],
  "reviewsCount": 42
},
{
  "title": "高生動物醫院",
  "totalScore": 4.1,
  "categoryName": "Hospital",
  "address": "709, Taiwan, Tainan City, Annan District, Section 3, Anzhong Road, 228號709 號             709台南市安南區安中路三段228號709 號",
  "locatedIn": null,
  "plusCode": "25XH+8P Annan District, Tainan City, Taiwan",
  "website": "m.facebook.com",
  "phone": "+886 6 256 5399",
  "temporarilyClosed": false,
  "permanentlyClosed": false,
  "rank": 121,
  "placeId": "ChIJbzRVNMB3bjQR2-SoRUOJ10A",
  "url": "https://www.google.com/maps/place/%E9%AB%98%E7%94%9F%E5%8B%95%E7%89%A9%E9%86%AB%E9%99%A2/@23.048255,120.1771343,17z/data=!3m1!4b1!4m5!3m4!1s0x346e77c03455346f:0x40d7894345a8e4db!8m2!3d23.048255!4d120.179323",
  "location": {
    "lat": 23.048255,
    "lng": 120.179323
  },
  "searchString": "臺南市的寵物醫院",
  "openingHours": [
    {
      "day": "Tuesday,",
      "hours": "9AM to 9PM"
    },
    {
      "day": "Wednesday,",
      "hours": "9AM to 9PM"
    },
    {
      "day": "Thursday",
      "hours": "(Mid-Autumn Festival), 9AM to 9PM, Hours might differ"
    },
    {
      "day": "Friday,",
      "hours": "9AM to 9PM"
    },
    {
      "day": "Saturday,",
      "hours": "9AM to 9PM"
    },
    {
      "day": "Sunday,",
      "hours": "Closed"
    },
    {
      "day": "Monday,",
      "hours": "9AM to 9PM"
    }
  ],
  "reviewsCount": 7
},
{
  "title": "王中蘭動物醫院",
  "totalScore": 3.1,
  "categoryName": "Hospital",
  "address": "No. 27-1, Jianguo Road, Xuejia District, Taiwan 726             726學甲區建國路27-1號",
  "locatedIn": null,
  "plusCode": "65HM+X2 Xuejia District, Tainan City, Taiwan",
  "website": null,
  "phone": "+886 6 782 0906",
  "temporarilyClosed": false,
  "permanentlyClosed": false,
  "rank": 137,
  "placeId": "ChIJzzTzmMJ_bjQRQi-1eATmEK4",
  "url": "https://www.google.com/maps/place/%E7%8E%8B%E4%B8%AD%E8%98%AD%E5%8B%95%E7%89%A9%E9%86%AB%E9%99%A2/@23.229894,120.1803513,17z/data=!3m1!4b1!4m5!3m4!1s0x346e7fc298f334cf:0xae10e60478b52f42!8m2!3d23.229894!4d120.18254",
  "location": {
    "lat": 23.229894,
    "lng": 120.18254
  },
  "searchString": "臺南市的寵物醫院",
  "reviewsCount": 12
},
{
  "title": "Let’s go 那隻狗動物醫院",
  "totalScore": 5,
  "categoryName": "Medical Center",
  "address": "No. 3號, Alley 21, Lane 399, Section 3, Zhonghua East Road, East District, Tainan City, Taiwan 701             701台南市東區中華東路三段399巷21弄3號",
  "locatedIn": null,
  "plusCode": "X6FC+49 East District, Tainan City, Taiwan",
  "website": "business.site",
  "phone": "+886 6 290 7513",
  "temporarilyClosed": false,
  "permanentlyClosed": false,
  "rank": 133,
  "placeId": "ChIJMRAMF9Z1bjQResT_th2SjeM",
  "url": "https://www.google.com/maps/place/Let%E2%80%99s+go+%E9%82%A3%E9%9A%BB%E7%8B%97%E5%8B%95%E7%89%A9%E9%86%AB%E9%99%A2/@22.9728147,120.2187788,17z/data=!3m1!4b1!4m5!3m4!1s0x346e75d6170c1031:0xe38d921db6ffc47a!8m2!3d22.9728147!4d120.2209675",
  "location": {
    "lat": 22.9728147,
    "lng": 120.2209675
  },
  "searchString": "臺南市的寵物醫院",
  "openingHours": [
    {
      "day": "Tuesday,",
      "hours": "9:30AM to 1PM, 3 to 9:30PM"
    },
    {
      "day": "Wednesday,",
      "hours": "Closed"
    },
    {
      "day": "Thursday",
      "hours": "(Mid-Autumn Festival), 9:30AM to 1PM, 3 to 9:30PM, Hours might differ"
    },
    {
      "day": "Friday,",
      "hours": "9:30AM to 1PM, 3 to 9:30PM"
    },
    {
      "day": "Saturday,",
      "hours": "Closed"
    },
    {
      "day": "Sunday,",
      "hours": "9:30AM to 1PM, 3 to 9:30PM"
    },
    {
      "day": "Monday,",
      "hours": "9:30AM to 1PM, 3 to 9:30PM"
    }
  ],
  "reviewsCount": 11
},
{
  "title": "新市愛心動物醫院",
  "totalScore": 5,
  "categoryName": "",
  "address": "No. 168號, Zhongxiao Street, Xinshi District, Tainan City, Taiwan 744             744台南市新市區忠孝街168號",
  "locatedIn": null,
  "plusCode": "37FV+XV Xinshi District, Tainan City, Taiwan",
  "website": null,
  "phone": "+886 6 589 6027",
  "temporarilyClosed": false,
  "permanentlyClosed": false,
  "rank": 139,
  "placeId": "ChIJKVpy4Fh6bjQRH6CkpN1L0y4",
  "url": "https://www.google.com/maps/place/%E6%96%B0%E5%B8%82%E6%84%9B%E5%BF%83%E5%8B%95%E7%89%A9%E9%86%AB%E9%99%A2/@23.074898,120.2924503,17z/data=!3m1!4b1!4m5!3m4!1s0x346e7a58e0725a29:0x2ed34bdda4a4a01f!8m2!3d23.074898!4d120.294639",
  "location": {
    "lat": 23.074898,
    "lng": 120.294639
  },
  "searchString": "臺南市的寵物醫院",
  "reviewsCount": 1
},
{
  "title": "佳里動物醫院",
  "totalScore": 4.7,
  "categoryName": "Animal hospital",
  "address": "No. 628, Yanping Road, Jiali District, Tainan City, Taiwan 722             No. 628, 延平路佳里區台南市722",
  "locatedIn": null,
  "plusCode": "559H+JJ Jiali District, Tainan City, Taiwan",
  "website": null,
  "phone": "+886 6 721 1929",
  "temporarilyClosed": false,
  "permanentlyClosed": false,
  "rank": 129,
  "placeId": "ChIJtSqkSKx_bjQReGzSKekp_g4",
  "url": "https://www.google.com/maps/place/%E4%BD%B3%E9%87%8C%E5%8B%95%E7%89%A9%E9%86%AB%E9%99%A2/@23.1690019,120.1768234,17z/data=!3m1!4b1!4m5!3m4!1s0x346e7fac48a42ab5:0xefe29e929d26c78!8m2!3d23.1690019!4d120.1790121",
  "location": {
    "lat": 23.1690019,
    "lng": 120.1790121
  },
  "searchString": "臺南市的寵物醫院",
  "openingHours": [
    {
      "day": "Tuesday,",
      "hours": "2:30 to 9PM"
    },
    {
      "day": "Wednesday,",
      "hours": "2:30 to 9PM"
    },
    {
      "day": "Thursday",
      "hours": "(Mid-Autumn Festival), Closed, Hours might differ"
    },
    {
      "day": "Friday,",
      "hours": "2:30 to 9PM"
    },
    {
      "day": "Saturday,",
      "hours": "9AM to 9PM"
    },
    {
      "day": "Sunday,",
      "hours": "2:30 to 6PM"
    },
    {
      "day": "Monday,",
      "hours": "2:30 to 9PM"
    }
  ],
  "reviewsCount": 97
},
{
  "title": "麻豆動物醫院",
  "totalScore": 5,
  "categoryName": "Hospital",
  "address": "號, No. 16-10, Xingguo Road, Madou District, Tainan City, Taiwan 721             號, No. 16-10興國路麻豆區台南市721",
  "locatedIn": null,
  "plusCode": "56JX+R4 Madou District, Tainan City, Taiwan",
  "website": null,
  "phone": "+886 6 571 7829",
  "temporarilyClosed": false,
  "permanentlyClosed": false,
  "rank": 135,
  "placeId": "ChIJzR9dBYF-bjQRFQi9RZ1yVF0",
  "url": "https://www.google.com/maps/place/%E9%BA%BB%E8%B1%86%E5%8B%95%E7%89%A9%E9%86%AB%E9%99%A2/@23.1820169,120.2456667,17z/data=!3m1!4b1!4m5!3m4!1s0x346e7e81055d1fcd:0x5d54729d45bd0815!8m2!3d23.1820169!4d120.2478554",
  "location": {
    "lat": 23.1820169,
    "lng": 120.2478554
  },
  "searchString": "臺南市的寵物醫院",
  "reviewsCount": 4
},
{
  "title": "慈恩動物醫院",
  "totalScore": 3.3,
  "categoryName": "Hospital",
  "address": "No. 388號, Section 1, Zhongshan Road, Guiren District, Tainan City, Taiwan 711             711台南市歸仁區中山路一段388號",
  "locatedIn": null,
  "plusCode": "X78X+FW Guiren District, Tainan City, Taiwan",
  "website": null,
  "phone": "+886 6 239 2643",
  "temporarilyClosed": false,
  "permanentlyClosed": false,
  "rank": 130,
  "placeId": "ChIJmYbyNoJxbjQRj5hVdsXdEEc",
  "url": "https://www.google.com/maps/place/%E6%85%88%E6%81%A9%E5%8B%95%E7%89%A9%E9%86%AB%E9%99%A2/@22.9662483,120.2976656,17z/data=!3m1!4b1!4m5!3m4!1s0x346e718236f28699:0x4710ddc57655988f!8m2!3d22.9662483!4d120.2998543",
  "location": {
    "lat": 22.9662483,
    "lng": 120.2998543
  },
  "searchString": "臺南市的寵物醫院",
  "reviewsCount": 4
},
{
  "title": "大群動物醫院",
  "totalScore": 4.3,
  "categoryName": "Hospital",
  "address": "No. 17-5號, Wenchang Road, Madou District, Tainan City, Taiwan 721             721台南市麻豆區文昌路17-5號",
  "locatedIn": null,
  "plusCode": "57M2+WV Madou District, Tainan City, Taiwan",
  "website": null,
  "phone": "+886 6 571 2351",
  "temporarilyClosed": false,
  "permanentlyClosed": false,
  "rank": 125,
  "placeId": "ChIJ54QNT9V9bjQRGvyZZGEiN9I",
  "url": "https://www.google.com/maps/place/%E5%A4%A7%E7%BE%A4%E5%8B%95%E7%89%A9%E9%86%AB%E9%99%A2/@23.1848328,120.2499837,17z/data=!3m1!4b1!4m5!3m4!1s0x346e7dd54f0d84e7:0xd23722616499fc1a!8m2!3d23.1848328!4d120.2521724",
  "location": {
    "lat": 23.1848328,
    "lng": 120.2521724
  },
  "searchString": "臺南市的寵物醫院",
  "openingHours": [
    {
      "day": "Tuesday,",
      "hours": "9:30AM to 12:30PM, 3 to 6PM, 7 to 8:30PM"
    },
    {
      "day": "Wednesday,",
      "hours": "9:30AM to 12:30PM, 3 to 6PM, 7 to 8:30PM"
    },
    {
      "day": "Thursday",
      "hours": "(Mid-Autumn Festival), 9:30AM to 12:30PM, 3 to 6PM, 7 to 8:30PM, Hours might differ"
    },
    {
      "day": "Friday,",
      "hours": "9:30AM to 12:30PM, 3 to 6PM, 7 to 8:30PM"
    },
    {
      "day": "Saturday,",
      "hours": "9:30AM to 12:30PM, 3 to 4:30PM"
    },
    {
      "day": "Sunday,",
      "hours": "Closed"
    },
    {
      "day": "Monday,",
      "hours": "9:30AM to 12:30PM, 3 to 6PM, 7 to 8:30PM"
    }
  ],
  "reviewsCount": 26
},
{
  "title": "向芯動物醫院（心臟醫學及外科中心）",
  "totalScore": 4.7,
  "categoryName": "Veterinarian",
  "address": "No. 218號, Fuxing Road, Yongkang District, Tainan City, Taiwan 710             710台南市永康區復興路218號",
  "locatedIn": null,
  "plusCode": "X6XV+GM Yongkang District, Tainan City, Taiwan",
  "website": null,
  "phone": "+886 6 313 0119",
  "temporarilyClosed": false,
  "permanentlyClosed": false,
  "rank": 122,
  "placeId": "ChIJ-2YqfB53bjQRNORZW3b1Ix0",
  "url": "https://www.google.com/maps/place/%E5%90%91%E8%8A%AF%E5%8B%95%E7%89%A9%E9%86%AB%E9%99%A2%EF%BC%88%E5%BF%83%E8%87%9F%E9%86%AB%E5%AD%B8%E5%8F%8A%E5%A4%96%E7%A7%91%E4%B8%AD%E5%BF%83%EF%BC%89/@22.9987873,120.2419486,17z/data=!3m1!4b1!4m5!3m4!1s0x346e771e7c2a66fb:0x1d23f5765b59e434!8m2!3d22.9987873!4d120.2441373",
  "location": {
    "lat": 22.9987873,
    "lng": 120.2441373
  },
  "searchString": "臺南市的寵物醫院",
  "openingHours": [
    {
      "day": "Tuesday,",
      "hours": "10AM to 12PM, 2 to 9PM"
    },
    {
      "day": "Wednesday,",
      "hours": "10AM to 12PM, 2 to 9PM"
    },
    {
      "day": "Thursday",
      "hours": "(Mid-Autumn Festival), 10AM to 12PM, 2 to 9PM, Hours might differ"
    },
    {
      "day": "Friday,",
      "hours": "10AM to 12PM, 2 to 9PM"
    },
    {
      "day": "Saturday,",
      "hours": "10AM to 12PM, 2 to 9PM"
    },
    {
      "day": "Sunday,",
      "hours": "Closed"
    },
    {
      "day": "Monday,",
      "hours": "10AM to 12PM, 2 to 9PM"
    }
  ],
  "reviewsCount": 41
},
{
  "title": "百利動物醫院",
  "totalScore": 4.8,
  "categoryName": "Hospital",
  "address": "No. 46號, Jianzhong Street, Jiali District, Tainan City, Taiwan 710             710台南市佳里區建中街46號",
  "locatedIn": null,
  "plusCode": "555H+G9 Jiali District, Tainan City, Taiwan",
  "website": null,
  "phone": "+886 6 723 5899",
  "temporarilyClosed": false,
  "permanentlyClosed": false,
  "rank": 127,
  "placeId": "ChIJF9CA6i5xbjQRyE1Uyf0D00s",
  "url": "https://www.google.com/maps/place/%E7%99%BE%E5%88%A9%E5%8B%95%E7%89%A9%E9%86%AB%E9%99%A2/@23.1587558,120.1762247,17z/data=!3m1!4b1!4m5!3m4!1s0x346e712eea80d017:0x4bd303fdc9544dc8!8m2!3d23.1587558!4d120.1784134",
  "location": {
    "lat": 23.1587558,
    "lng": 120.1784134
  },
  "searchString": "臺南市的寵物醫院",
  "reviewsCount": 4
},
{
  "title": "芥菜種動物醫院＆芥菜籽寵物輕旅店",
  "totalScore": 4.6,
  "categoryName": "Animal hospital",
  "address": "No. 32號, Dongqiao 10th Street, Yongkang District, Tainan City, Taiwan 710             710台南市永康區東橋十街32號",
  "locatedIn": null,
  "plusCode": "26CJ+MR Yongkang District, Tainan City, Taiwan",
  "website": "facebook.com",
  "phone": "+886 6 302 7620",
  "temporarilyClosed": false,
  "permanentlyClosed": false,
  "rank": 105,
  "placeId": "ChIJw02KsiZ3bjQR6kgZLQ5btUM",
  "url": "https://www.google.com/maps/place/%E8%8A%A5%E8%8F%9C%E7%A8%AE%E5%8B%95%E7%89%A9%E9%86%AB%E9%99%A2%EF%BC%86%E8%8A%A5%E8%8F%9C%E7%B1%BD%E5%AF%B5%E7%89%A9%E8%BC%95%E6%97%85%E5%BA%97/@23.0217064,120.2299056,17z/data=!3m1!4b1!4m5!3m4!1s0x346e7726b28a4dc3:0x43b55b0e2d1948ea!8m2!3d23.0217064!4d120.2320943",
  "location": {
    "lat": 23.0217064,
    "lng": 120.2320943
  },
  "searchString": "臺南市的寵物醫院",
  "openingHours": [
    {
      "day": "Tuesday,",
      "hours": "9AM to 12PM, 2 to 5PM, 6PM to 12AM"
    },
    {
      "day": "Wednesday,",
      "hours": "9AM to 12PM, 2 to 5PM, 6PM to 12AM"
    },
    {
      "day": "Thursday",
      "hours": "(Mid-Autumn Festival), 9AM to 12PM, 2 to 5PM, 6PM to 12AM, Hours might differ"
    },
    {
      "day": "Friday,",
      "hours": "9AM to 12PM, 2 to 5PM, 6PM to 12AM"
    },
    {
      "day": "Saturday,",
      "hours": "9AM to 12PM, 2 to 5PM"
    },
    {
      "day": "Sunday,",
      "hours": "Closed"
    },
    {
      "day": "Monday,",
      "hours": "9AM to 12PM, 2 to 5PM, 6PM to 12AM"
    }
  ],
  "reviewsCount": 48
},
{
  "title": "泰安家畜診所",
  "totalScore": 4.3,
  "categoryName": "Animal hospital",
  "address": "No. 140號, Zhongzheng Road, Xuejia District, Tainan City, Taiwan 726             726台南市學甲區中正路140號",
  "locatedIn": null,
  "plusCode": "65JH+3V Xuejia District, Tainan City, Taiwan",
  "website": null,
  "phone": "+886 6 783 2945",
  "temporarilyClosed": false,
  "permanentlyClosed": false,
  "rank": 115,
  "placeId": "ChIJu3OZW-h_bjQRyYvMIPhKiQo",
  "url": "https://www.google.com/maps/place/%E6%B3%B0%E5%AE%89%E5%AE%B6%E7%95%9C%E8%A8%BA%E6%89%80/@23.230219,120.1774562,17z/data=!3m1!4b1!4m5!3m4!1s0x346e7fe85b9973bb:0xa894af820cc8bc9!8m2!3d23.230219!4d120.1796449",
  "location": {
    "lat": 23.230219,
    "lng": 120.1796449
  },
  "searchString": "臺南市的寵物醫院",
  "reviewsCount": 8
},
{
  "title": "奇美動物醫院",
  "totalScore": 5,
  "categoryName": "Animal hospital",
  "address": "No. 89, Section 1, Beian Road, North District, Taiwan 704             704北區北安路一段89號",
  "locatedIn": null,
  "plusCode": "2686+9C North District, Tainan City, Taiwan",
  "website": null,
  "phone": "+886 6 282 5889",
  "temporarilyClosed": false,
  "permanentlyClosed": false,
  "rank": 114,
  "placeId": "ChIJD2uKAPx2bjQRHO09AGMM_4o",
  "url": "https://www.google.com/maps/place/%E5%A5%87%E7%BE%8E%E5%8B%95%E7%89%A9%E9%86%AB%E9%99%A2/@23.0159672,120.2088681,17z/data=!3m1!4b1!4m5!3m4!1s0x346e76fc008a6b0f:0x8aff0c63003ded1c!8m2!3d23.0159672!4d120.2110568",
  "location": {
    "lat": 23.0159672,
    "lng": 120.2110568
  },
  "searchString": "臺南市的寵物醫院",
  "reviewsCount": 6
},
{
  "title": "亞太動物醫院",
  "totalScore": 4.5,
  "categoryName": "Animal hospital",
  "address": "No. 361, Section 1, Fuqian Road, West Central District, Taiwan 700             700中西區府前路一段361號",
  "locatedIn": null,
  "plusCode": "X5RX+2M West Central District, Tainan City, Taiwan",
  "website": null,
  "phone": "+886 6 214 5884",
  "temporarilyClosed": false,
  "permanentlyClosed": false,
  "rank": 107,
  "placeId": "ChIJf8V0YXt2bjQR6a7e4BuBXFU",
  "url": "https://www.google.com/maps/place/%E4%BA%9E%E5%A4%AA%E5%8B%95%E7%89%A9%E9%86%AB%E9%99%A2/@22.9900413,120.1969709,17z/data=!3m1!4b1!4m5!3m4!1s0x346e767b6174c57f:0x555c811be0deaee9!8m2!3d22.9900413!4d120.1991596",
  "location": {
    "lat": 22.9900413,
    "lng": 120.1991596
  },
  "searchString": "臺南市的寵物醫院",
  "openingHours": [
    {
      "day": "Tuesday,",
      "hours": "9AM to 1PM, 2 to 9:30PM"
    },
    {
      "day": "Wednesday,",
      "hours": "9AM to 1PM, 2 to 9:30PM"
    },
    {
      "day": "Thursday",
      "hours": "(Mid-Autumn Festival), 9AM to 1PM, 2 to 9:30PM, Hours might differ"
    },
    {
      "day": "Friday,",
      "hours": "9AM to 1PM, 2 to 9:30PM"
    },
    {
      "day": "Saturday,",
      "hours": "9AM to 1PM, 2 to 9:30PM"
    },
    {
      "day": "Sunday,",
      "hours": "Closed"
    },
    {
      "day": "Monday,",
      "hours": "9AM to 1PM, 2 to 9:30PM"
    }
  ],
  "reviewsCount": 39
},
{
  "title": "親寶寵物醫院",
  "totalScore": "",
  "categoryName": "Animal hospital",
  "address": "Section 2, Hewei Road, North District, Tainan City, Taiwan 704             704台南市北區和緯路二段",
  "locatedIn": null,
  "plusCode": "2664+V4 North District, Tainan City, Taiwan",
  "website": null,
  "phone": null,
  "temporarilyClosed": false,
  "permanentlyClosed": false,
  "rank": 104,
  "placeId": "ChIJTW0kB_h2bjQRcwAyT9hvC1M",
  "url": "https://www.google.com/maps/place/%E8%A6%AA%E5%AF%B6%E5%AF%B5%E7%89%A9%E9%86%AB%E9%99%A2/@23.0121682,120.2030731,17z/data=!3m1!4b1!4m5!3m4!1s0x346e76f807246d4d:0x530b6fd84f320073!8m2!3d23.0121682!4d120.2052618",
  "location": {
    "lat": 23.0121682,
    "lng": 120.2052618
  },
  "searchString": "臺南市的寵物醫院"
},
{
  "title": "友愛動物醫院",
  "totalScore": 4.7,
  "categoryName": "Animal hospital",
  "address": "No. 277, You'ai Street, West Central District, Taiwan 700             700中西區友愛街277號",
  "locatedIn": null,
  "plusCode": "X5RW+RC West Central District, Tainan City, Taiwan",
  "website": null,
  "phone": "+886 6 222 2510",
  "temporarilyClosed": false,
  "permanentlyClosed": false,
  "rank": 108,
  "placeId": "ChIJxbyc1Hp2bjQRYOBpUWTuRCY",
  "url": "https://www.google.com/maps/place/%E5%8F%8B%E6%84%9B%E5%8B%95%E7%89%A9%E9%86%AB%E9%99%A2/@22.9920591,120.1938898,17z/data=!3m1!4b1!4m5!3m4!1s0x346e767ad49cbcc5:0x2644ee645169e060!8m2!3d22.9920591!4d120.1960785",
  "location": {
    "lat": 22.9920591,
    "lng": 120.1960785
  },
  "searchString": "臺南市的寵物醫院",
  "openingHours": [
    {
      "day": "Tuesday,",
      "hours": "9:30AM to 9PM"
    },
    {
      "day": "Wednesday,",
      "hours": "9:30AM to 9PM"
    },
    {
      "day": "Thursday",
      "hours": "(Mid-Autumn Festival), 9:30AM to 9PM, Hours might differ"
    },
    {
      "day": "Friday,",
      "hours": "9:30AM to 9PM"
    },
    {
      "day": "Saturday,",
      "hours": "9:30AM to 9PM"
    },
    {
      "day": "Sunday,",
      "hours": "Closed"
    },
    {
      "day": "Monday,",
      "hours": "9:30AM to 9PM"
    }
  ],
  "reviewsCount": 64
},
{
  "title": "長和獸醫院",
  "totalScore": "",
  "categoryName": "Animal hospital",
  "address": "No. 7號, Lane 11, Guoguangba Street, Yongkang District, Tainan City, Taiwan 710             710台南市永康區國光八街11巷7號",
  "locatedIn": null,
  "plusCode": "2767+F3 Yongkang District, Tainan City, Taiwan",
  "website": null,
  "phone": null,
  "temporarilyClosed": false,
  "permanentlyClosed": false,
  "rank": 106,
  "placeId": "ChIJUfuT99dwbjQRO5rwUhEGA0k",
  "url": "https://www.google.com/maps/place/%E9%95%B7%E5%92%8C%E7%8D%B8%E9%86%AB%E9%99%A2/@23.011197,120.2605112,17z/data=!3m1!4b1!4m5!3m4!1s0x346e70d7f793fb51:0x4903061152f09a3b!8m2!3d23.011197!4d120.2626999",
  "location": {
    "lat": 23.011197,
    "lng": 120.2626999
  },
  "searchString": "臺南市的寵物醫院"
},
{
  "title": "力晨動物醫院",
  "totalScore": 4.6,
  "categoryName": "Animal hospital",
  "address": "No. 78號, Section 2, Dongguang Road, East District, Tainan City, Taiwan 701             701台南市東區東光路二段78號",
  "locatedIn": null,
  "plusCode": "X6WJ+RM East District, Tainan City, Taiwan",
  "website": "facebook.com",
  "phone": "+886 6 275 8830",
  "temporarilyClosed": false,
  "permanentlyClosed": false,
  "rank": 103,
  "placeId": "ChIJ9eUT8sB2bjQRXvFw4fJbodE",
  "url": "https://www.google.com/maps/place/%E5%8A%9B%E6%99%A8%E5%8B%95%E7%89%A9%E9%86%AB%E9%99%A2/@22.9970991,120.2295473,17z/data=!3m1!4b1!4m5!3m4!1s0x346e76c0f213e5f5:0xd1a15bf2e170f15e!8m2!3d22.9970991!4d120.231736",
  "location": {
    "lat": 22.9970991,
    "lng": 120.231736
  },
  "searchString": "臺南市的寵物醫院",
  "openingHours": [
    {
      "day": "Tuesday,",
      "hours": "9:30AM to 12PM, 2 to 5PM, 6 to 8PM"
    },
    {
      "day": "Wednesday,",
      "hours": "9:30AM to 12PM, 2 to 5PM, 6 to 8PM"
    },
    {
      "day": "Thursday",
      "hours": "(Mid-Autumn Festival), 9:30AM to 12PM, 2 to 5PM, 6 to 8PM, Hours might differ"
    },
    {
      "day": "Friday,",
      "hours": "9:30AM to 12PM, 2 to 5PM, 6 to 8PM"
    },
    {
      "day": "Saturday,",
      "hours": "9:30AM to 12PM, 2 to 5PM, 6 to 8PM"
    },
    {
      "day": "Sunday,",
      "hours": "9:30AM to 12PM, 2 to 5PM, 6 to 8PM"
    },
    {
      "day": "Monday,",
      "hours": "9:30AM to 12PM, 2 to 5PM, 6 to 8PM"
    }
  ],
  "reviewsCount": 99
},
{
  "title": "嘉陞動物醫院",
  "totalScore": 3.7,
  "categoryName": "Animal hospital",
  "address": "No. 100, Section 1, Yonghua Road, West Central District, Taiwan 700             700中西區永華路一段100號",
  "locatedIn": null,
  "plusCode": "X5QV+4P West Central District, Tainan City, Taiwan",
  "website": null,
  "phone": "+886 6 224 0867",
  "temporarilyClosed": false,
  "permanentlyClosed": false,
  "rank": 112,
  "placeId": "ChIJUSJOBXp2bjQR48_qD7znfKo",
  "url": "https://www.google.com/maps/place/%E5%98%89%E9%99%9E%E5%8B%95%E7%89%A9%E9%86%AB%E9%99%A2/@22.987852,120.1920703,17z/data=!3m1!4b1!4m5!3m4!1s0x346e767a054e2251:0xaa7ce7bc0feacfe3!8m2!3d22.987852!4d120.194259",
  "location": {
    "lat": 22.987852,
    "lng": 120.194259
  },
  "searchString": "臺南市的寵物醫院",
  "openingHours": [
    {
      "day": "Tuesday,",
      "hours": "9AM to 9PM"
    },
    {
      "day": "Wednesday,",
      "hours": "9AM to 9PM"
    },
    {
      "day": "Thursday",
      "hours": "(Mid-Autumn Festival), 9AM to 9PM, Hours might differ"
    },
    {
      "day": "Friday,",
      "hours": "9AM to 9PM"
    },
    {
      "day": "Saturday,",
      "hours": "9AM to 9PM"
    },
    {
      "day": "Sunday,",
      "hours": "9AM to 12PM"
    },
    {
      "day": "Monday,",
      "hours": "9AM to 9PM"
    }
  ],
  "reviewsCount": 7
},
{
  "title": "人愛動物醫院",
  "totalScore": 4.4,
  "categoryName": "Animal hospital",
  "address": "No. 155, Chongxue Road, East District, Taiwan 701             701東區崇學路155號",
  "locatedIn": null,
  "plusCode": "X6JF+28 East District, Tainan City, Taiwan",
  "website": null,
  "phone": "+886 6 269 2028",
  "temporarilyClosed": false,
  "permanentlyClosed": false,
  "rank": 113,
  "placeId": "ChIJGyspvZ52bjQRoZ-qiDPq84U",
  "url": "https://www.google.com/maps/place/%E4%BA%BA%E6%84%9B%E5%8B%95%E7%89%A9%E9%86%AB%E9%99%A2/@22.9800071,120.2211567,17z/data=!3m1!4b1!4m5!3m4!1s0x346e769ebd292b1b:0x85f3ea3388aa9fa1!8m2!3d22.9800071!4d120.2233454",
  "location": {
    "lat": 22.9800071,
    "lng": 120.2233454
  },
  "searchString": "臺南市的寵物醫院",
  "openingHours": [
    {
      "day": "Tuesday,",
      "hours": "9AM to 9PM"
    },
    {
      "day": "Wednesday,",
      "hours": "9AM to 9PM"
    },
    {
      "day": "Thursday",
      "hours": "(Mid-Autumn Festival), 9AM to 9PM, Hours might differ"
    },
    {
      "day": "Friday,",
      "hours": "9AM to 9PM"
    },
    {
      "day": "Saturday,",
      "hours": "9AM to 9PM"
    },
    {
      "day": "Sunday,",
      "hours": "Closed"
    },
    {
      "day": "Monday,",
      "hours": "9AM to 9PM"
    }
  ],
  "reviewsCount": 78
},
{
  "title": "英山動物醫院",
  "totalScore": 5,
  "categoryName": "Animal hospital",
  "address": "No. 15之3號, Section 1, Maxue Road, Madou District, Tainan City, Taiwan 72152             72152台南市麻豆區麻學路一段15之3號",
  "locatedIn": null,
  "plusCode": "56PR+54 Madou District, Tainan City, Taiwan",
  "website": null,
  "phone": "+886 6 571 5908",
  "temporarilyClosed": false,
  "permanentlyClosed": false,
  "rank": 109,
  "placeId": "ChIJUSkO3Yd-bjQRBGJwuhwkEoI",
  "url": "https://www.google.com/maps/place/%E8%8B%B1%E5%B1%B1%E5%8B%95%E7%89%A9%E9%86%AB%E9%99%A2/@23.1854969,120.2381312,17z/data=!3m1!4b1!4m5!3m4!1s0x346e7e87dd0e2951:0x8212241cba706204!8m2!3d23.1854969!4d120.2403199",
  "location": {
    "lat": 23.1854969,
    "lng": 120.2403199
  },
  "searchString": "臺南市的寵物醫院",
  "reviewsCount": 1
},
{
  "title": "全鋒動物醫院",
  "totalScore": 4.9,
  "categoryName": "Animal hospital",
  "address": "744, Taiwan, Tainan City, Xinshi District, 豐榮52號北極殿             744台南市新市區豐榮52號北極殿",
  "locatedIn": null,
  "plusCode": "38Q4+83 Xinshi District, Tainan City, Taiwan",
  "website": "facebook.com",
  "phone": "+886 6 589 1618",
  "temporarilyClosed": false,
  "permanentlyClosed": false,
  "rank": 110,
  "placeId": "ChIJE-fxnHV7bjQRnROsJP9SqsQ",
  "url": "https://www.google.com/maps/place/%E5%85%A8%E9%8B%92%E5%8B%95%E7%89%A9%E9%86%AB%E9%99%A2/@23.0882737,120.3030382,17z/data=!3m1!4b1!4m5!3m4!1s0x346e7b759cf1e713:0xc4aa52ff24ac139d!8m2!3d23.0882737!4d120.3052269",
  "location": {
    "lat": 23.0882737,
    "lng": 120.3052269
  },
  "searchString": "臺南市的寵物醫院",
  "openingHours": [
    {
      "day": "Tuesday,",
      "hours": "8:30 to 11:30AM"
    },
    {
      "day": "Wednesday,",
      "hours": "8:30AM to 12AM"
    },
    {
      "day": "Thursday",
      "hours": "(Mid-Autumn Festival), 8:30 to 11:30AM, Hours might differ"
    },
    {
      "day": "Friday,",
      "hours": "8:30AM to 12AM"
    },
    {
      "day": "Saturday,",
      "hours": "8:30 to 11:30AM"
    },
    {
      "day": "Sunday,",
      "hours": "8:30AM to 12AM"
    },
    {
      "day": "Monday,",
      "hours": "8:30AM to 12AM"
    }
  ],
  "reviewsCount": 34
},
{
  "title": "興原家畜診所",
  "totalScore": "",
  "categoryName": "Animal hospital",
  "address": "No. 233號, Xinghua Road, Shanhua District, Tainan City, Taiwan 741             741台南市善化區興華路233號",
  "locatedIn": null,
  "plusCode": "47GW+RP Shanhua District, Tainan City, Taiwan",
  "website": null,
  "phone": "+886 6 585 1667",
  "temporarilyClosed": false,
  "permanentlyClosed": false,
  "rank": 120,
  "placeId": "ChIJ82kl-oF7bjQRcS-DRuaeaWw",
  "url": "https://www.google.com/maps/place/%E8%88%88%E5%8E%9F%E5%AE%B6%E7%95%9C%E8%A8%BA%E6%89%80/@23.127095,120.2946413,17z/data=!3m1!4b1!4m5!3m4!1s0x346e7b81fa2569f3:0x6c699ee646832f71!8m2!3d23.127095!4d120.29683",
  "location": {
    "lat": 23.127095,
    "lng": 120.29683
  },
  "searchString": "臺南市的寵物醫院"
},
{
  "title": "中美獸醫院",
  "totalScore": 4.3,
  "categoryName": "Veterinarian",
  "address": "No. 314, Fulian Road, East District, Taiwan 701             701東區府連路314號",
  "locatedIn": null,
  "plusCode": "X6M8+X4 East District, Tainan City, Taiwan",
  "website": "savh.com.tw",
  "phone": "+886 6 237 9123",
  "temporarilyClosed": false,
  "permanentlyClosed": false,
  "rank": 117,
  "placeId": "ChIJ3UkQ3YR2bjQRTEx4wmDIrG0",
  "url": "https://www.google.com/maps/place/%E4%B8%AD%E7%BE%8E%E7%8D%B8%E9%86%AB%E9%99%A2/@22.984958,120.2131289,17z/data=!3m1!4b1!4m5!3m4!1s0x346e7684dd1049dd:0x6dacc860c2784c4c!8m2!3d22.984958!4d120.2153176",
  "location": {
    "lat": 22.984958,
    "lng": 120.2153176
  },
  "searchString": "臺南市的寵物醫院",
  "openingHours": [
    {
      "day": "Tuesday,",
      "hours": "9AM to 9PM"
    },
    {
      "day": "Wednesday,",
      "hours": "9AM to 9PM"
    },
    {
      "day": "Thursday",
      "hours": "(Mid-Autumn Festival), 9AM to 9PM, Hours might differ"
    },
    {
      "day": "Friday,",
      "hours": "9AM to 9PM"
    },
    {
      "day": "Saturday,",
      "hours": "9AM to 9PM"
    },
    {
      "day": "Sunday,",
      "hours": "Closed"
    },
    {
      "day": "Monday,",
      "hours": "9AM to 9PM"
    }
  ],
  "reviewsCount": 110
},
{
  "title": "摩西動物醫院",
  "totalScore": 4.3,
  "categoryName": "Animal hospital",
  "address": "No. 15, Daxin Road, Xinhua District, Taiwan 712             712新化區大新路15號",
  "locatedIn": null,
  "plusCode": "27PX+VR Xinhua District, Tainan City, Taiwan",
  "website": null,
  "phone": "+886 6 598 9922",
  "temporarilyClosed": false,
  "permanentlyClosed": false,
  "rank": 118,
  "placeId": "ChIJI51iD31wbjQRKjfRQyfW4J0",
  "url": "https://www.google.com/maps/place/%E6%91%A9%E8%A5%BF%E5%8B%95%E7%89%A9%E9%86%AB%E9%99%A2/@23.037146,120.2973933,17z/data=!3m1!4b1!4m5!3m4!1s0x346e707d0f629d23:0x9de0d62743d1372a!8m2!3d23.037146!4d120.299582",
  "location": {
    "lat": 23.037146,
    "lng": 120.299582
  },
  "searchString": "臺南市的寵物醫院",
  "openingHours": [
    {
      "day": "Tuesday,",
      "hours": "9AM to 12PM, 2 to 6PM, 7 to 9PM"
    },
    {
      "day": "Wednesday,",
      "hours": "9AM to 12PM"
    },
    {
      "day": "Thursday",
      "hours": "(Mid-Autumn Festival), 9AM to 12PM, 2 to 6PM, 7 to 9PM, Hours might differ"
    },
    {
      "day": "Friday,",
      "hours": "9AM to 12PM, 2 to 6PM, 7 to 9PM"
    },
    {
      "day": "Saturday,",
      "hours": "9AM to 12PM, 2 to 6PM, 7 to 8PM"
    },
    {
      "day": "Sunday,",
      "hours": "Closed"
    },
    {
      "day": "Monday,",
      "hours": "9AM to 12PM, 2 to 6PM, 7 to 9PM"
    }
  ],
  "reviewsCount": 60
},
{
  "title": "黃家畜診所",
  "totalScore": 4.2,
  "categoryName": "Animal hospital",
  "address": "No. 2號, Lane 24, Sanfu Road, Yanshui District, Tainan City, Taiwan 737             737台南市鹽水區三福路24巷2號",
  "locatedIn": null,
  "plusCode": "87C8+FR Yanshui District, Tainan City, Taiwan",
  "website": null,
  "phone": "+886 6 652 1413",
  "temporarilyClosed": false,
  "permanentlyClosed": false,
  "rank": 119,
  "placeId": "ChIJu5K4mBCEbjQRaKnM9oF2UAM",
  "url": "https://www.google.com/maps/place/%E9%BB%83%E5%AE%B6%E7%95%9C%E8%A8%BA%E6%89%80/@23.3212454,120.2649017,17z/data=!3m1!4b1!4m5!3m4!1s0x346e841098b892bb:0x3507681f6cca968!8m2!3d23.3212454!4d120.2670904",
  "location": {
    "lat": 23.3212454,
    "lng": 120.2670904
  },
  "searchString": "臺南市的寵物醫院",
  "openingHours": [
    {
      "day": "Tuesday,",
      "hours": "7AM to 8:30PM"
    },
    {
      "day": "Wednesday,",
      "hours": "7AM to 8:30PM"
    },
    {
      "day": "Thursday",
      "hours": "(Mid-Autumn Festival), 7AM to 8:30PM, Hours might differ"
    },
    {
      "day": "Friday,",
      "hours": "7AM to 8:30PM"
    },
    {
      "day": "Saturday,",
      "hours": "7AM to 8:30PM"
    },
    {
      "day": "Sunday,",
      "hours": "7AM to 8:30PM"
    },
    {
      "day": "Monday,",
      "hours": "7AM to 8:30PM"
    }
  ],
  "reviewsCount": 10
},
{
  "title": "安南啄木鳥動物醫院",
  "totalScore": 4.6,
  "categoryName": "Animal hospital",
  "address": "No. 476號, Section 1, Yian Road, Annan District, Tainan City, Taiwan 709             709台南市安南區怡安路一段476號",
  "locatedIn": null,
  "plusCode": "26V3+3V Annan District, Tainan City, Taiwan",
  "website": "facebook.com",
  "phone": "+886 6 247 9292",
  "temporarilyClosed": false,
  "permanentlyClosed": false,
  "rank": 101,
  "placeId": "ChIJ4xX_HwR3bjQRhct0ScmFGc4",
  "url": "https://www.google.com/maps/place/%E5%AE%89%E5%8D%97%E5%95%84%E6%9C%A8%E9%B3%A5%E5%8B%95%E7%89%A9%E9%86%AB%E9%99%A2/@23.0426707,120.2025601,17z/data=!3m1!4b1!4m5!3m4!1s0x346e77041fff15e3:0xce1985c94974cb85!8m2!3d23.0426707!4d120.2047488",
  "location": {
    "lat": 23.0426707,
    "lng": 120.2047488
  },
  "searchString": "臺南市的寵物醫院",
  "openingHours": [
    {
      "day": "Tuesday,",
      "hours": "10AM to 12:30PM, 3 to 7:30PM"
    },
    {
      "day": "Wednesday,",
      "hours": "10AM to 12:30PM, 3 to 7:30PM"
    },
    {
      "day": "Thursday",
      "hours": "(Mid-Autumn Festival), 10AM to 12:30PM, 3 to 7:30PM, Hours might differ"
    },
    {
      "day": "Friday,",
      "hours": "10AM to 12:30PM, 3 to 7:30PM"
    },
    {
      "day": "Saturday,",
      "hours": "10AM to 12:30PM, 3 to 7:30PM"
    },
    {
      "day": "Sunday,",
      "hours": "Closed"
    },
    {
      "day": "Monday,",
      "hours": "10AM to 12:30PM, 3 to 7:30PM"
    }
  ],
  "reviewsCount": 53
},
{
  "title": "平安動物醫院",
  "totalScore": 4.1,
  "categoryName": "Animal hospital",
  "address": "No. 16號, Zhonghua Road, Yongkang District, Tainan City, Taiwan 710             710台南市永康區中華路16號",
  "locatedIn": null,
  "plusCode": "262P+33 Yongkang District, Tainan City, Taiwan",
  "website": null,
  "phone": "+886 6 313 0333",
  "temporarilyClosed": false,
  "permanentlyClosed": false,
  "rank": 111,
  "placeId": "ChIJWS9GHsR2bjQRu65Nrx8ePYU",
  "url": "https://www.google.com/maps/place/%E5%B9%B3%E5%AE%89%E5%8B%95%E7%89%A9%E9%86%AB%E9%99%A2/@23.000231,120.2329903,17z/data=!3m1!4b1!4m5!3m4!1s0x346e76c41e462f59:0x853d1e1faf4daebb!8m2!3d23.000231!4d120.235179",
  "location": {
    "lat": 23.000231,
    "lng": 120.235179
  },
  "searchString": "臺南市的寵物醫院",
  "openingHours": [
    {
      "day": "Tuesday,",
      "hours": "9AM to 9PM"
    },
    {
      "day": "Wednesday,",
      "hours": "9AM to 9PM"
    },
    {
      "day": "Thursday",
      "hours": "(Mid-Autumn Festival), 9AM to 5PM, Holiday hours"
    },
    {
      "day": "Friday,",
      "hours": "9AM to 9PM"
    },
    {
      "day": "Saturday,",
      "hours": "9AM to 6PM"
    },
    {
      "day": "Sunday,",
      "hours": "Closed"
    },
    {
      "day": "Monday,",
      "hours": "9AM to 9PM"
    }
  ],
  "reviewsCount": 17
},
{
  "title": "汪旺(原佳和) 動物醫院",
  "totalScore": 3.2,
  "categoryName": "Animal hospital",
  "address": "No. 172號, Zhongshan Road, Rende District, Tainan City, Taiwan 717             717台南市仁德區中山路172號",
  "locatedIn": null,
  "plusCode": "X7C7+5F Rende District, Tainan City, Taiwan",
  "website": null,
  "phone": "+886 6 270 6450",
  "temporarilyClosed": false,
  "permanentlyClosed": false,
  "rank": 93,
  "placeId": "ChIJF_GGyVlxbjQR3Atb98DYGok",
  "url": "https://www.google.com/maps/place/%E6%B1%AA%E6%97%BA(%E5%8E%9F%E4%BD%B3%E5%92%8C)+%E5%8B%95%E7%89%A9%E9%86%AB%E9%99%A2/@22.9703895,120.2615511,17z/data=!3m1!4b1!4m5!3m4!1s0x346e7159c986f117:0x891ad8c0f75b0bdc!8m2!3d22.9703895!4d120.2637398",
  "location": {
    "lat": 22.9703895,
    "lng": 120.2637398
  },
  "searchString": "臺南市的寵物醫院",
  "openingHours": [
    {
      "day": "Tuesday,",
      "hours": "9AM to 12PM, 2:30 to 8:30PM"
    },
    {
      "day": "Wednesday,",
      "hours": "9AM to 12PM, 2:30 to 8:30PM"
    },
    {
      "day": "Thursday",
      "hours": "(Mid-Autumn Festival), 9AM to 12PM, 2:30 to 8:30PM, Hours might differ"
    },
    {
      "day": "Friday,",
      "hours": "9AM to 12PM, 2:30 to 8:30PM"
    },
    {
      "day": "Saturday,",
      "hours": "9AM to 12PM, 2:30 to 8:30PM"
    },
    {
      "day": "Sunday,",
      "hours": "Closed"
    },
    {
      "day": "Monday,",
      "hours": "9AM to 12PM, 2:30 to 8:30PM"
    }
  ],
  "reviewsCount": 67
},
{
  "title": "台灣嘉南動物醫院",
  "totalScore": 4.1,
  "categoryName": "Animal hospital",
  "address": "No. 425號, Changrong Rd Section 5, North District, Tainan City, Taiwan 704             704台南市北區長榮路五段425號",
  "locatedIn": null,
  "plusCode": "2677+72 North District, Tainan City, Taiwan",
  "website": null,
  "phone": "+886 6 251 6949",
  "temporarilyClosed": false,
  "permanentlyClosed": false,
  "rank": 102,
  "placeId": "ChIJuX8XtPt2bjQRzjKjWFECxp4",
  "url": "https://www.google.com/maps/place/%E5%8F%B0%E7%81%A3%E5%98%89%E5%8D%97%E5%8B%95%E7%89%A9%E9%86%AB%E9%99%A2/@23.0132121,120.2104173,17z/data=!3m1!4b1!4m5!3m4!1s0x346e76fbb4177fb9:0x9ec6025158a332ce!8m2!3d23.0132121!4d120.212606",
  "location": {
    "lat": 23.0132121,
    "lng": 120.212606
  },
  "searchString": "臺南市的寵物醫院",
  "openingHours": [
    {
      "day": "Tuesday,",
      "hours": "9AM to 12PM, 1:30 to 9PM"
    },
    {
      "day": "Wednesday,",
      "hours": "9AM to 12PM, 1:30 to 6PM"
    },
    {
      "day": "Thursday",
      "hours": "(Mid-Autumn Festival), 9AM to 12PM, 1:30 to 9PM, Hours might differ"
    },
    {
      "day": "Friday,",
      "hours": "9AM to 12PM, 1:30 to 9PM"
    },
    {
      "day": "Saturday,",
      "hours": "9AM to 12PM, 1:30 to 6PM"
    },
    {
      "day": "Sunday,",
      "hours": "Closed"
    },
    {
      "day": "Monday,",
      "hours": "9AM to 12PM, 1:30 to 9PM"
    }
  ],
  "reviewsCount": 43
},
{
  "title": "茂生家畜診所",
  "totalScore": 3.6,
  "categoryName": "Animal hospital",
  "address": "No. 309號, Zhongzheng Road, Xinshi District, Tainan City, Taiwan 744             744台南市新市區中正路309號",
  "locatedIn": null,
  "plusCode": "37HV+QC Xinshi District, Tainan City, Taiwan",
  "website": null,
  "phone": "+886 6 599 5000",
  "temporarilyClosed": false,
  "permanentlyClosed": false,
  "rank": 97,
  "placeId": "ChIJl1ZuZFd6bjQRkXIx8dh-bG4",
  "url": "https://www.google.com/maps/place/%E8%8C%82%E7%94%9F%E5%AE%B6%E7%95%9C%E8%A8%BA%E6%89%80/@23.079499,120.2913883,17z/data=!3m1!4b1!4m5!3m4!1s0x346e7a57646e5697:0x6e6c7ed8f1317291!8m2!3d23.079499!4d120.293577",
  "location": {
    "lat": 23.079499,
    "lng": 120.293577
  },
  "searchString": "臺南市的寵物醫院",
  "openingHours": [
    {
      "day": "Tuesday,",
      "hours": "7AM to 9PM"
    },
    {
      "day": "Wednesday,",
      "hours": "7AM to 9PM"
    },
    {
      "day": "Thursday",
      "hours": "(Mid-Autumn Festival), 7AM to 9PM, Hours might differ"
    },
    {
      "day": "Friday,",
      "hours": "7AM to 9PM"
    },
    {
      "day": "Saturday,",
      "hours": "7 to 11AM"
    },
    {
      "day": "Sunday,",
      "hours": "7 to 11AM"
    },
    {
      "day": "Monday,",
      "hours": "7AM to 9PM"
    }
  ],
  "reviewsCount": 12
},
{
  "title": "郡安動物醫院",
  "totalScore": 4.7,
  "categoryName": "Animal hospital",
  "address": "No. 122, Section 4, Jun'an Road, Annan District, Taiwan 702             702安南區郡安路四段122號",
  "locatedIn": null,
  "plusCode": "26H5+68 Annan District, Tainan City, Taiwan",
  "website": null,
  "phone": "+886 6 283 4990",
  "temporarilyClosed": false,
  "permanentlyClosed": false,
  "rank": 98,
  "placeId": "ChIJm7UM2QZ3bjQRidg4Tapdsjc",
  "url": "https://www.google.com/maps/place/%E9%83%A1%E5%AE%89%E5%8B%95%E7%89%A9%E9%86%AB%E9%99%A2/@23.0281181,120.2060763,17z/data=!3m1!4b1!4m5!3m4!1s0x346e7706d90cb59b:0x37b25daa4d38d889!8m2!3d23.0281181!4d120.208265",
  "location": {
    "lat": 23.0281181,
    "lng": 120.208265
  },
  "searchString": "臺南市的寵物醫院",
  "reviewsCount": 80
},
{
  "title": "中興動物醫院",
  "totalScore": 3.9,
  "categoryName": "Veterinary care",
  "address": "No. 108, Xinjin Road, Xinying District, Tainan City, Taiwan 730             730台南市新營區新進路108號",
  "locatedIn": null,
  "plusCode": "883C+64 Xinying District, Tainan City, Taiwan",
  "website": null,
  "phone": "+886 6 635 0471",
  "temporarilyClosed": false,
  "permanentlyClosed": false,
  "rank": 100,
  "placeId": "ChIJU_K74HeGbjQRbNZXOzVCGgQ",
  "url": "https://www.google.com/maps/place/%E4%B8%AD%E8%88%88%E5%8B%95%E7%89%A9%E9%86%AB%E9%99%A2/@23.303063,120.3181433,17z/data=!3m1!4b1!4m5!3m4!1s0x346e8677e0bbf253:0x41a42353b57d66c!8m2!3d23.303063!4d120.320332",
  "location": {
    "lat": 23.303063,
    "lng": 120.320332
  },
  "searchString": "臺南市的寵物醫院",
  "openingHours": [
    {
      "day": "Tuesday,",
      "hours": "8:30AM to 12PM, 2 to 6PM, 7 to 9PM"
    },
    {
      "day": "Wednesday,",
      "hours": "8:30AM to 12PM, 2 to 6PM, 7 to 9PM"
    },
    {
      "day": "Thursday",
      "hours": "(Mid-Autumn Festival), 8:30AM to 12PM, 2 to 6PM, 7 to 9PM, Hours might differ"
    },
    {
      "day": "Friday,",
      "hours": "8:30AM to 12PM, 2 to 6PM, 7 to 9PM"
    },
    {
      "day": "Saturday,",
      "hours": "8:30AM to 12PM, 2 to 6PM, 7 to 9PM"
    },
    {
      "day": "Sunday,",
      "hours": "Closed"
    },
    {
      "day": "Monday,",
      "hours": "8:30AM to 12PM, 2 to 6PM, 7 to 9PM"
    }
  ],
  "reviewsCount": 39
},
{
  "title": "動物之家獸醫院",
  "totalScore": 4.5,
  "categoryName": "Animal hospital",
  "address": "No. 248-4, Xiaodong Road, East District, Tainan City, Taiwan 701             701台南市東區小東路248-4號",
  "locatedIn": null,
  "plusCode": "X6XH+MV East District, Tainan City, Taiwan",
  "website": null,
  "phone": "+886 6 209 2209",
  "temporarilyClosed": false,
  "permanentlyClosed": false,
  "rank": 84,
  "placeId": "ChIJXcPe9MR2bjQRDVUmpT2IeTM",
  "url": "https://www.google.com/maps/place/%E5%8B%95%E7%89%A9%E4%B9%8B%E5%AE%B6%E7%8D%B8%E9%86%AB%E9%99%A2/@22.9991701,120.2274671,17z/data=!3m1!4b1!4m5!3m4!1s0x346e76c4f4dec35d:0x3379883da526550d!8m2!3d22.9991701!4d120.2296558",
  "location": {
    "lat": 22.9991701,
    "lng": 120.2296558
  },
  "searchString": "臺南市的寵物醫院",
  "openingHours": [
    {
      "day": "Tuesday,",
      "hours": "9AM to 12PM, 2 to 9PM"
    },
    {
      "day": "Wednesday,",
      "hours": "9AM to 12PM, 2 to 9PM"
    },
    {
      "day": "Thursday",
      "hours": "(Mid-Autumn Festival), Closed, Hours might differ"
    },
    {
      "day": "Friday,",
      "hours": "9AM to 12PM, 2 to 9PM"
    },
    {
      "day": "Saturday,",
      "hours": "9AM to 12PM, 2 to 9PM"
    },
    {
      "day": "Sunday,",
      "hours": "9AM to 12PM, 2 to 5PM"
    },
    {
      "day": "Monday,",
      "hours": "9AM to 12PM, 2 to 9PM"
    }
  ],
  "reviewsCount": 97
},
{
  "title": "愛心動物醫院",
  "totalScore": 4,
  "categoryName": "Animal hospital",
  "address": "No. 73號, Zhonghe Street, Jiali District, Tainan City, Taiwan 722             722台南市佳里區中和街73號",
  "locatedIn": null,
  "plusCode": "556G+67 Jiali District, Tainan City, Taiwan",
  "website": null,
  "phone": "+886 6 723 2271",
  "temporarilyClosed": false,
  "permanentlyClosed": false,
  "rank": 86,
  "placeId": "ChIJuzGVfEx_bjQREdf5gUfEWyc",
  "url": "https://www.google.com/maps/place/%E6%84%9B%E5%BF%83%E5%8B%95%E7%89%A9%E9%86%AB%E9%99%A2/@23.160561,120.1734372,17z/data=!3m1!4b1!4m5!3m4!1s0x346e7f4c7c9531bb:0x275bc44781f9d711!8m2!3d23.160561!4d120.1756259",
  "location": {
    "lat": 23.160561,
    "lng": 120.1756259
  },
  "searchString": "臺南市的寵物醫院",
  "openingHours": [
    {
      "day": "Tuesday,",
      "hours": "9AM to 9PM"
    },
    {
      "day": "Wednesday,",
      "hours": "12 to 9PM"
    },
    {
      "day": "Thursday",
      "hours": "(Mid-Autumn Festival), 9AM to 9PM, Hours might differ"
    },
    {
      "day": "Friday,",
      "hours": "9AM to 9PM"
    },
    {
      "day": "Saturday,",
      "hours": "12 to 9PM"
    },
    {
      "day": "Sunday,",
      "hours": "Closed"
    },
    {
      "day": "Monday,",
      "hours": "9AM to 9PM"
    }
  ],
  "reviewsCount": 25
},
{
  "title": "東京動物醫院",
  "totalScore": 4,
  "categoryName": "Animal hospital",
  "address": "No. 99號, Jinxiu St, Xinying District, Tainan City, Taiwan 730             730台南市新營區進修街99號",
  "locatedIn": null,
  "plusCode": "8844+M7 Xinying District, Tainan City, Taiwan",
  "website": null,
  "phone": "+886 6 656 5760",
  "temporarilyClosed": false,
  "permanentlyClosed": false,
  "rank": 90,
  "placeId": "ChIJNzCl0NaFbjQRDlELaxQOigU",
  "url": "https://www.google.com/maps/place/%E6%9D%B1%E4%BA%AC%E5%8B%95%E7%89%A9%E9%86%AB%E9%99%A2/@23.306661,120.3034683,17z/data=!3m1!4b1!4m5!3m4!1s0x346e85d6d0a53037:0x58a0e146b0b510e!8m2!3d23.306661!4d120.305657",
  "location": {
    "lat": 23.306661,
    "lng": 120.305657
  },
  "searchString": "臺南市的寵物醫院",
  "openingHours": [
    {
      "day": "Tuesday,",
      "hours": "9AM to 12PM, 3 to 9PM"
    },
    {
      "day": "Wednesday,",
      "hours": "9AM to 12PM, 3 to 9PM"
    },
    {
      "day": "Thursday",
      "hours": "(Mid-Autumn Festival), 9AM to 12PM, 3 to 9PM, Hours might differ"
    },
    {
      "day": "Friday,",
      "hours": "9AM to 12PM, 3 to 9PM"
    },
    {
      "day": "Saturday,",
      "hours": "9AM to 12PM, 3 to 9PM"
    },
    {
      "day": "Sunday,",
      "hours": "Closed"
    },
    {
      "day": "Monday,",
      "hours": "9AM to 12PM, 3 to 9PM"
    }
  ],
  "reviewsCount": 38
},
{
  "title": "博愛動物醫院",
  "totalScore": 4,
  "categoryName": "Animal hospital",
  "address": "No. 153之2號, Zhongshan Road, Madou District, Tainan City, Taiwan 721             721台南市麻豆區中山路153之2號",
  "locatedIn": null,
  "plusCode": "56MV+CP Madou District, Tainan City, Taiwan",
  "website": null,
  "phone": "+886 6 571 3532",
  "temporarilyClosed": false,
  "permanentlyClosed": false,
  "rank": 96,
  "placeId": "ChIJg_zcIId-bjQRIJtKRDUlf7c",
  "url": "https://www.google.com/maps/place/%E5%8D%9A%E6%84%9B%E5%8B%95%E7%89%A9%E9%86%AB%E9%99%A2/@23.183554,120.2421553,17z/data=!3m1!4b1!4m5!3m4!1s0x346e7e8720dcfc83:0xb77f2535444a9b20!8m2!3d23.183554!4d120.244344",
  "location": {
    "lat": 23.183554,
    "lng": 120.244344
  },
  "searchString": "臺南市的寵物醫院",
  "openingHours": [
    {
      "day": "Tuesday,",
      "hours": "9AM to 7:30PM"
    },
    {
      "day": "Wednesday,",
      "hours": "9AM to 7:30PM"
    },
    {
      "day": "Thursday",
      "hours": "(Mid-Autumn Festival), 9AM to 7:30PM, Hours might differ"
    },
    {
      "day": "Friday,",
      "hours": "9AM to 7:30PM"
    },
    {
      "day": "Saturday,",
      "hours": "9AM to 4PM"
    },
    {
      "day": "Sunday,",
      "hours": "Closed"
    },
    {
      "day": "Monday,",
      "hours": "9AM to 7:30PM"
    }
  ],
  "reviewsCount": 25
},
{
  "title": "圓點動物醫院",
  "totalScore": 5,
  "categoryName": "Animal hospital",
  "address": "No. 102號, Jianan Road, Jiali District, Tainan City, Taiwan 72245             72245台南市佳里區佳南路102號",
  "locatedIn": null,
  "plusCode": "552M+64 Jiali District, Tainan City, Taiwan",
  "website": null,
  "phone": "+886 6 723 7435",
  "temporarilyClosed": false,
  "permanentlyClosed": false,
  "rank": 87,
  "placeId": "ChIJVVVVVaB2bjQRNcFRULaFAgw",
  "url": "https://www.google.com/maps/place/%E5%9C%93%E9%BB%9E%E5%8B%95%E7%89%A9%E9%86%AB%E9%99%A2/@23.1505936,120.1806671,17z/data=!3m1!4b1!4m5!3m4!1s0x346e76a055555555:0xc0285b65051c135!8m2!3d23.1505936!4d120.1828558",
  "location": {
    "lat": 23.1505936,
    "lng": 120.1828558
  },
  "searchString": "臺南市的寵物醫院",
  "openingHours": [
    {
      "day": "Tuesday,",
      "hours": "9AM to 9PM"
    },
    {
      "day": "Wednesday,",
      "hours": "9AM to 9PM"
    },
    {
      "day": "Thursday",
      "hours": "(Mid-Autumn Festival), 9AM to 9PM, Hours might differ"
    },
    {
      "day": "Friday,",
      "hours": "9AM to 9PM"
    },
    {
      "day": "Saturday,",
      "hours": "9AM to 9PM"
    },
    {
      "day": "Sunday,",
      "hours": "Closed"
    },
    {
      "day": "Monday,",
      "hours": "9AM to 9PM"
    }
  ],
  "reviewsCount": 16
},
{
  "title": "惠祥動物醫院",
  "totalScore": 4.3,
  "categoryName": "Store",
  "address": "730, Taiwan, Tainan City, Xinying District, 新進路一段314-1號             730台南市新營區新進路一段314-1號",
  "locatedIn": null,
  "plusCode": "8828+J5 Xinying District, Tainan City, Taiwan",
  "website": null,
  "phone": "+886 6 632 1076",
  "temporarilyClosed": false,
  "permanentlyClosed": false,
  "rank": 85,
  "placeId": "ChIJ8TTlOd-FbjQRluKTTEWGFFc",
  "url": "https://www.google.com/maps/place/%E6%83%A0%E7%A5%A5%E5%8B%95%E7%89%A9%E9%86%AB%E9%99%A2/@23.3015015,120.3132004,17z/data=!3m1!4b1!4m5!3m4!1s0x346e85df39e534f1:0x571486454c93e296!8m2!3d23.3015015!4d120.3153891",
  "location": {
    "lat": 23.3015015,
    "lng": 120.3153891
  },
  "searchString": "臺南市的寵物醫院",
  "openingHours": [
    {
      "day": "Tuesday,",
      "hours": "9AM to 12PM, 3 to 7PM"
    },
    {
      "day": "Wednesday,",
      "hours": "9AM to 12PM, 3 to 7PM"
    },
    {
      "day": "Thursday",
      "hours": "(Mid-Autumn Festival), 9AM to 12PM, 3 to 7PM, Hours might differ"
    },
    {
      "day": "Friday,",
      "hours": "9AM to 12PM, 3 to 7PM"
    },
    {
      "day": "Saturday,",
      "hours": "9AM to 12PM, 3 to 7PM"
    },
    {
      "day": "Sunday,",
      "hours": "Closed"
    },
    {
      "day": "Monday,",
      "hours": "9AM to 12PM, 3 to 7PM"
    }
  ],
  "reviewsCount": 63
},
{
  "title": "慶華動物醫院",
  "totalScore": 4.4,
  "categoryName": "Animal hospital",
  "address": "No. 6, Section 4, Jinhua Road, West Central District, Tainan City, Taiwan 700             700台南市中西區金華路四段6號",
  "locatedIn": null,
  "plusCode": "X5WV+HM West Central District, Tainan City, Taiwan",
  "website": null,
  "phone": "+886 6 223 0440",
  "temporarilyClosed": false,
  "permanentlyClosed": false,
  "rank": 95,
  "placeId": "ChIJ50uvjWV2bjQRF1ScXJehbz0",
  "url": "https://www.google.com/maps/place/%E6%85%B6%E8%8F%AF%E5%8B%95%E7%89%A9%E9%86%AB%E9%99%A2/@22.9964403,120.1919641,17z/data=!3m1!4b1!4m5!3m4!1s0x346e76658daf4be7:0x3d6fa1975c9c5417!8m2!3d22.9964403!4d120.1941528",
  "location": {
    "lat": 22.9964403,
    "lng": 120.1941528
  },
  "searchString": "臺南市的寵物醫院",
  "reviewsCount": 18
},
{
  "title": "寶成動物醫院",
  "totalScore": 4.1,
  "categoryName": "Animal hospital",
  "address": "No. 137, Sanmin Road, Xinying District, Tainan City, Taiwan 730             730台南市新營區三民路137號",
  "locatedIn": null,
  "plusCode": "8835+X9 Xinying District, Tainan City, Taiwan",
  "website": null,
  "phone": "+886 6 632 0525",
  "temporarilyClosed": false,
  "permanentlyClosed": false,
  "rank": 89,
  "placeId": "ChIJ-UchZNeFbjQRutCE_hCqvRA",
  "url": "https://www.google.com/maps/place/%E5%AF%B6%E6%88%90%E5%8B%95%E7%89%A9%E9%86%AB%E9%99%A2/@23.3049783,120.3062847,17z/data=!3m1!4b1!4m5!3m4!1s0x346e85d7642147f9:0x10bdaa10fe84d0ba!8m2!3d23.3049783!4d120.3084734",
  "location": {
    "lat": 23.3049783,
    "lng": 120.3084734
  },
  "searchString": "臺南市的寵物醫院",
  "openingHours": [
    {
      "day": "Tuesday,",
      "hours": "10AM to 9PM"
    },
    {
      "day": "Wednesday,",
      "hours": "10AM to 9PM"
    },
    {
      "day": "Thursday",
      "hours": "(Mid-Autumn Festival), 10AM to 9PM, Hours might differ"
    },
    {
      "day": "Friday,",
      "hours": "10AM to 9PM"
    },
    {
      "day": "Saturday,",
      "hours": "Closed"
    },
    {
      "day": "Sunday,",
      "hours": "10AM to 6PM"
    },
    {
      "day": "Monday,",
      "hours": "10AM to 9PM"
    }
  ],
  "reviewsCount": 76
},
{
  "title": "宏家動物醫院",
  "totalScore": 4.7,
  "categoryName": "Animal hospital",
  "address": "No. 188號, Section 2, Zhonghua South Road, South District, Tainan City, Taiwan 702             702台南市南區中華南路二段188號",
  "locatedIn": null,
  "plusCode": "X56R+H8 South District, Tainan City, Taiwan",
  "website": null,
  "phone": "+886 6 261 1507",
  "temporarilyClosed": false,
  "permanentlyClosed": false,
  "rank": 81,
  "placeId": "ChIJrVsM8dZ1bjQRjNA_OhRcDeg",
  "url": "https://www.google.com/maps/place/%E5%AE%8F%E5%AE%B6%E5%8B%95%E7%89%A9%E9%86%AB%E9%99%A2/@22.9614914,120.188652,17z/data=!3m1!4b1!4m5!3m4!1s0x346e75d6f10c5bad:0xe80d5c143a3fd08c!8m2!3d22.9614914!4d120.1908407",
  "location": {
    "lat": 22.9614914,
    "lng": 120.1908407
  },
  "searchString": "臺南市的寵物醫院",
  "openingHours": [
    {
      "day": "Tuesday,",
      "hours": "9AM to 1:30PM, 3 to 8:30PM"
    },
    {
      "day": "Wednesday,",
      "hours": "9AM to 1:30PM, 3 to 8:30PM"
    },
    {
      "day": "Thursday",
      "hours": "(Mid-Autumn Festival), 9AM to 1:30PM, 3 to 8:30PM, Hours might differ"
    },
    {
      "day": "Friday,",
      "hours": "9AM to 1:30PM, 3 to 8:30PM"
    },
    {
      "day": "Saturday,",
      "hours": "9AM to 8:30PM"
    },
    {
      "day": "Sunday,",
      "hours": "Closed"
    },
    {
      "day": "Monday,",
      "hours": "9AM to 1:30PM, 3 to 8:30PM"
    }
  ],
  "reviewsCount": 199
},
{
  "title": "新生獸醫院",
  "totalScore": 4.5,
  "categoryName": "Animal hospital",
  "address": "No. 126號, Section 1, Guohua St, South District, Tainan City, Taiwan 702             702台南市南區國華街一段126號",
  "locatedIn": null,
  "plusCode": "X5PW+PH South District, Tainan City, Taiwan",
  "website": null,
  "phone": "+886 6 226 6031",
  "temporarilyClosed": false,
  "permanentlyClosed": false,
  "rank": 83,
  "placeId": "ChIJl5v_f3l2bjQRf5JzWnRvyaY",
  "url": "https://www.google.com/maps/place/%E6%96%B0%E7%94%9F%E7%8D%B8%E9%86%AB%E9%99%A2/@22.986756,120.1942673,17z/data=!3m1!4b1!4m5!3m4!1s0x346e76797fff9b97:0xa6c96f745a73927f!8m2!3d22.986756!4d120.196456",
  "location": {
    "lat": 22.986756,
    "lng": 120.196456
  },
  "searchString": "臺南市的寵物醫院",
  "openingHours": [
    {
      "day": "Tuesday,",
      "hours": "9:30AM to 12PM, 3 to 8PM"
    },
    {
      "day": "Wednesday,",
      "hours": "9:30AM to 12PM, 3 to 8PM"
    },
    {
      "day": "Thursday",
      "hours": "(Mid-Autumn Festival), Closed, Hours might differ"
    },
    {
      "day": "Friday,",
      "hours": "9:30AM to 12PM, 3 to 8PM"
    },
    {
      "day": "Saturday,",
      "hours": "9:30AM to 12PM, 3 to 8PM"
    },
    {
      "day": "Sunday,",
      "hours": "9:30AM to 12PM, 3 to 6PM"
    },
    {
      "day": "Monday,",
      "hours": "9:30AM to 12PM, 3 to 8PM"
    }
  ],
  "reviewsCount": 258
},
{
  "title": "庭美動物醫院",
  "totalScore": 4.2,
  "categoryName": "Animal hospital",
  "address": "No. 205號, Section 3, Beian Road, Annan District, Tainan City, Taiwan 709             709台南市安南區北安路三段205號",
  "locatedIn": null,
  "plusCode": "26R3+X6 Annan District, Tainan City, Taiwan",
  "website": null,
  "phone": "+886 6 247 8942",
  "temporarilyClosed": false,
  "permanentlyClosed": false,
  "rank": 94,
  "placeId": "ChIJk4i-WqB3bjQRzVM2QvL2E-M",
  "url": "https://www.google.com/maps/place/%E5%BA%AD%E7%BE%8E%E5%8B%95%E7%89%A9%E9%86%AB%E9%99%A2/@23.0423769,120.2008274,17z/data=!3m1!4b1!4m5!3m4!1s0x346e77a05abe8893:0xe313f6f2423653cd!8m2!3d23.0423769!4d120.2030161",
  "location": {
    "lat": 23.0423769,
    "lng": 120.2030161
  },
  "searchString": "臺南市的寵物醫院",
  "reviewsCount": 6
},
{
  "title": "瑞慶動物醫院",
  "totalScore": 4.2,
  "categoryName": "Animal hospital",
  "address": "No. 31, Fulian Road, West Central District, Tainan City, Taiwan 700             700台南市中西區府連路31號",
  "locatedIn": null,
  "plusCode": "X6J5+VR West Central District, Tainan City, Taiwan",
  "website": "facebook.com",
  "phone": "+886 6 214 6651",
  "temporarilyClosed": false,
  "permanentlyClosed": false,
  "rank": 82,
  "placeId": "ChIJdyUcbYF2bjQR2X9wvd7XIr8",
  "url": "https://www.google.com/maps/place/%E7%91%9E%E6%85%B6%E5%8B%95%E7%89%A9%E9%86%AB%E9%99%A2/@22.9821945,120.2073869,17z/data=!3m1!4b1!4m5!3m4!1s0x346e76816d1c2577:0xbf22d7debd707fd9!8m2!3d22.9821945!4d120.2095756",
  "location": {
    "lat": 22.9821945,
    "lng": 120.2095756
  },
  "searchString": "臺南市的寵物醫院",
  "openingHours": [
    {
      "day": "Tuesday,",
      "hours": "9AM to 12PM, 3 to 9PM"
    },
    {
      "day": "Wednesday,",
      "hours": "9AM to 12PM, 3 to 9PM"
    },
    {
      "day": "Thursday",
      "hours": "(Mid-Autumn Festival), 9AM to 12PM, 3 to 9PM, Hours might differ"
    },
    {
      "day": "Friday,",
      "hours": "9AM to 12PM, 3 to 9PM"
    },
    {
      "day": "Saturday,",
      "hours": "9AM to 12PM, 3 to 9PM"
    },
    {
      "day": "Sunday,",
      "hours": "Closed"
    },
    {
      "day": "Monday,",
      "hours": "9AM to 12PM, 3 to 9PM"
    }
  ],
  "reviewsCount": 34
},
{
  "title": "中美獸醫院 和緯院",
  "totalScore": 3.7,
  "categoryName": "Veterinary care",
  "address": "No. 231, Section 2, Hewei Road, North District, Tainan City, Taiwan 704             704台南市北區和緯路二段231號",
  "locatedIn": null,
  "plusCode": "2663+VX North District, Tainan City, Taiwan",
  "website": "savh.com.tw",
  "phone": "+886 6 281 2233",
  "temporarilyClosed": false,
  "permanentlyClosed": false,
  "rank": 92,
  "placeId": "ChIJnftp_Vd2bjQRYRgDxN3N8Qk",
  "url": "https://www.google.com/maps/place/%E4%B8%AD%E7%BE%8E%E7%8D%B8%E9%86%AB%E9%99%A2+%E5%92%8C%E7%B7%AF%E9%99%A2/@23.0121481,120.2027225,17z/data=!3m1!4b1!4m5!3m4!1s0x346e7657fd69fb9d:0x9f1cdddc4031861!8m2!3d23.0121481!4d120.2049112",
  "location": {
    "lat": 23.0121481,
    "lng": 120.2049112
  },
  "searchString": "臺南市的寵物醫院",
  "openingHours": [
    {
      "day": "Tuesday,",
      "hours": "10AM to 12AM"
    },
    {
      "day": "Wednesday,",
      "hours": "10AM to 12AM"
    },
    {
      "day": "Thursday",
      "hours": "(Mid-Autumn Festival), 10AM to 12AM, Hours might differ"
    },
    {
      "day": "Friday,",
      "hours": "10AM to 12AM"
    },
    {
      "day": "Saturday,",
      "hours": "10AM to 12AM"
    },
    {
      "day": "Sunday,",
      "hours": "10AM to 12AM"
    },
    {
      "day": "Monday,",
      "hours": "10AM to 12AM"
    }
  ],
  "reviewsCount": 267
},
{
  "title": "山豬動物醫院",
  "totalScore": 4.9,
  "categoryName": "Animal hospital",
  "address": "No. 525號, Pingtong Road, Anping District, Tainan City, Taiwan 70842             70842台南市安平區平通路525號",
  "locatedIn": null,
  "plusCode": "X5VC+8P Anping District, Tainan City, Taiwan",
  "website": "business.site",
  "phone": "+886 6 299 1006",
  "temporarilyClosed": false,
  "permanentlyClosed": false,
  "rank": 91,
  "placeId": "ChIJURP4KCZ3bjQRS8c_vX2GgbI",
  "url": "https://www.google.com/maps/place/%E5%B1%B1%E8%B1%AC%E5%8B%95%E7%89%A9%E9%86%AB%E9%99%A2/@22.9933356,120.1696077,17z/data=!3m1!4b1!4m5!3m4!1s0x346e772628f81351:0xb281867dbd3fc74b!8m2!3d22.9933356!4d120.1717964",
  "location": {
    "lat": 22.9933356,
    "lng": 120.1717964
  },
  "searchString": "臺南市的寵物醫院",
  "openingHours": [
    {
      "day": "Tuesday,",
      "hours": "10AM to 1PM, 2 to 5PM, 6 to 9PM"
    },
    {
      "day": "Wednesday,",
      "hours": "10AM to 1PM, 2 to 5PM, 6 to 9PM"
    },
    {
      "day": "Thursday",
      "hours": "(Mid-Autumn Festival), Closed, Hours might differ"
    },
    {
      "day": "Friday,",
      "hours": "10AM to 1PM, 2 to 5PM, 6 to 9PM"
    },
    {
      "day": "Saturday,",
      "hours": "10AM to 1PM, 2 to 5PM, 6 to 9PM"
    },
    {
      "day": "Sunday,",
      "hours": "10AM to 1PM, 2 to 5PM, 6 to 9PM"
    },
    {
      "day": "Monday,",
      "hours": "10AM to 1PM, 2 to 5PM, 6 to 9PM"
    }
  ],
  "reviewsCount": 93
},
{
  "title": "惠馨動物醫院",
  "totalScore": 4.6,
  "categoryName": "Animal hospital",
  "address": "No. 397號, Minsheng Road, Shanhua District, Tainan City, Taiwan 741             741台南市善化區民生路397號",
  "locatedIn": null,
  "plusCode": "47JW+3F Shanhua District, Tainan City, Taiwan",
  "website": "business.site",
  "phone": "+886 6 585 4119",
  "temporarilyClosed": false,
  "permanentlyClosed": false,
  "rank": 66,
  "placeId": "ChIJQ4ZK9MIFbjQRqE85-rXQsvY",
  "url": "https://www.google.com/maps/place/%E6%83%A0%E9%A6%A8%E5%8B%95%E7%89%A9%E9%86%AB%E9%99%A2/@23.1301738,120.2939717,17z/data=!3m1!4b1!4m5!3m4!1s0x346e05c2f44a8643:0xf6b2d0b5fa394fa8!8m2!3d23.1301738!4d120.2961604",
  "location": {
    "lat": 23.1301738,
    "lng": 120.2961604
  },
  "searchString": "臺南市的寵物醫院",
  "openingHours": [
    {
      "day": "Tuesday,",
      "hours": "9AM to 12PM, 2 to 8:30PM"
    },
    {
      "day": "Wednesday,",
      "hours": "Closed"
    },
    {
      "day": "Thursday",
      "hours": "(Mid-Autumn Festival), 9AM to 12PM, 2 to 8:30PM, Hours might differ"
    },
    {
      "day": "Friday,",
      "hours": "9AM to 12PM, 2 to 8:30PM"
    },
    {
      "day": "Saturday,",
      "hours": "9AM to 12PM, 2 to 8:30PM"
    },
    {
      "day": "Sunday,",
      "hours": "9AM to 8:30PM"
    },
    {
      "day": "Monday,",
      "hours": "9AM to 12PM, 2 to 8:30PM"
    }
  ],
  "reviewsCount": 87
},
{
  "title": "啟仁動物醫院",
  "totalScore": 4.4,
  "categoryName": "Animal hospital",
  "address": "No. 338號, Dacheng Road, Shanhua District, Tainan City, Taiwan 741             741台南市善化區大成路338號",
  "locatedIn": null,
  "plusCode": "47HX+W2 Shanhua District, Tainan City, Taiwan",
  "website": null,
  "phone": "+886 6 583 2313",
  "temporarilyClosed": false,
  "permanentlyClosed": false,
  "rank": 76,
  "placeId": "ChIJHVfEG357bjQRTJdZhxQL3u8",
  "url": "https://www.google.com/maps/place/%E5%95%9F%E4%BB%81%E5%8B%95%E7%89%A9%E9%86%AB%E9%99%A2/@23.1298032,120.295343,17z/data=!3m1!4b1!4m5!3m4!1s0x346e7b7e1bc4571d:0xefde0b148759974c!8m2!3d23.1298032!4d120.2975317",
  "location": {
    "lat": 23.1298032,
    "lng": 120.2975317
  },
  "searchString": "臺南市的寵物醫院",
  "openingHours": [
    {
      "day": "Tuesday,",
      "hours": "9AM to 9PM"
    },
    {
      "day": "Wednesday,",
      "hours": "9AM to 9PM"
    },
    {
      "day": "Thursday",
      "hours": "(Mid-Autumn Festival), 9AM to 9PM, Hours might differ"
    },
    {
      "day": "Friday,",
      "hours": "9AM to 9PM"
    },
    {
      "day": "Saturday,",
      "hours": "9AM to 9PM"
    },
    {
      "day": "Sunday,",
      "hours": "Closed"
    },
    {
      "day": "Monday,",
      "hours": "9AM to 9PM"
    }
  ],
  "reviewsCount": 89
},
{
  "title": "陽光動物醫院",
  "totalScore": 5,
  "categoryName": "Hospital",
  "address": "No. 565號, Chongshan Road, East District, Tainan City, Taiwan 701             701台南市東區崇善路565號",
  "locatedIn": null,
  "plusCode": "X6FH+3W East District, Tainan City, Taiwan",
  "website": null,
  "phone": "+886 6 290 0838",
  "temporarilyClosed": false,
  "permanentlyClosed": false,
  "rank": 99,
  "placeId": "ChIJod6HjEp1bjQRHWe1fN3LIWc",
  "url": "https://www.google.com/maps/place/%E9%99%BD%E5%85%89%E5%8B%95%E7%89%A9%E9%86%AB%E9%99%A2/@22.9727072,120.2275816,17z/data=!3m1!4b1!4m5!3m4!1s0x346e754a8c87dea1:0x6721cbdd7cb5671d!8m2!3d22.9727072!4d120.2297703",
  "location": {
    "lat": 22.9727072,
    "lng": 120.2297703
  },
  "searchString": "臺南市的寵物醫院",
  "openingHours": [
    {
      "day": "Tuesday,",
      "hours": "10:30AM to 12:30PM, 3 to 9PM"
    },
    {
      "day": "Wednesday,",
      "hours": "10:30AM to 12:30PM, 3 to 9PM"
    },
    {
      "day": "Thursday",
      "hours": "(Mid-Autumn Festival), Closed, Hours might differ"
    },
    {
      "day": "Friday,",
      "hours": "10:30AM to 12:30PM, 3 to 9PM"
    },
    {
      "day": "Saturday,",
      "hours": "10:30AM to 12:30PM, 3 to 9PM"
    },
    {
      "day": "Sunday,",
      "hours": "10:30AM to 12:30PM, 3 to 9PM"
    },
    {
      "day": "Monday,",
      "hours": "10:30AM to 12:30PM, 3 to 9PM"
    }
  ],
  "reviewsCount": 31
},
{
  "title": "慈愛動物醫院-金華院",
  "totalScore": 4.3,
  "categoryName": "Animal hospital",
  "address": "No. 3號, Lane 39, Section 2, Jinhua Road, South District, Tainan City, Taiwan 70241             70241台南市南區金華路二段39巷3號",
  "locatedIn": null,
  "plusCode": "X5GR+WC South District, Tainan City, Taiwan",
  "website": "lkah.com.tw",
  "phone": "+886 6 264 1220",
  "temporarilyClosed": false,
  "permanentlyClosed": false,
  "rank": 74,
  "placeId": "ChIJ1wO8gNl1bjQRBoPoU_rzNfs",
  "url": "https://www.google.com/maps/place/%E6%85%88%E6%84%9B%E5%8B%95%E7%89%A9%E9%86%AB%E9%99%A2-%E9%87%91%E8%8F%AF%E9%99%A2/@22.977273,120.1888624,17z/data=!3m1!4b1!4m5!3m4!1s0x346e75d980bc03d7:0xfb35f3fa53e88306!8m2!3d22.977273!4d120.1910511",
  "location": {
    "lat": 22.977273,
    "lng": 120.1910511
  },
  "searchString": "臺南市的寵物醫院",
  "openingHours": [
    {
      "day": "Tuesday,",
      "hours": "9AM to 9PM"
    },
    {
      "day": "Wednesday,",
      "hours": "Closed"
    },
    {
      "day": "Thursday",
      "hours": "(Mid-Autumn Festival), 9AM to 9PM, Hours might differ"
    },
    {
      "day": "Friday,",
      "hours": "9AM to 9PM"
    },
    {
      "day": "Saturday,",
      "hours": "9AM to 9PM"
    },
    {
      "day": "Sunday,",
      "hours": "9AM to 9PM"
    },
    {
      "day": "Monday,",
      "hours": "9AM to 9PM"
    }
  ],
  "reviewsCount": 174
},
{
  "title": "歸仁大愛動物醫院",
  "totalScore": 4.6,
  "categoryName": "Animal hospital",
  "address": "711, Taiwan, Tainan City, Guiren District, Section 3, Zhongshan Road, 146號 No             711台南市歸仁區中山路三段146號 No",
  "locatedIn": null,
  "plusCode": "X79M+6Q Guiren District, Tainan City, Taiwan",
  "website": "hospital-1676.business.site",
  "phone": "+886 6 330 0599",
  "temporarilyClosed": false,
  "permanentlyClosed": false,
  "rank": 67,
  "placeId": "ChIJQbkPemNxbjQRCEXrw5xI8NI",
  "url": "https://www.google.com/maps/place/%E6%AD%B8%E4%BB%81%E5%A4%A7%E6%84%9B%E5%8B%95%E7%89%A9%E9%86%AB%E9%99%A2/@22.9680179,120.2822185,17z/data=!3m1!4b1!4m5!3m4!1s0x346e71637a0fb941:0xd2f0489cc3eb4508!8m2!3d22.9680179!4d120.2844072",
  "location": {
    "lat": 22.9680179,
    "lng": 120.2844072
  },
  "searchString": "臺南市的寵物醫院",
  "openingHours": [
    {
      "day": "Tuesday,",
      "hours": "10AM to 1PM, 3 to 8PM"
    },
    {
      "day": "Wednesday,",
      "hours": "10AM to 1PM, 3 to 8PM"
    },
    {
      "day": "Thursday",
      "hours": "(Mid-Autumn Festival), Closed, Holiday hours"
    },
    {
      "day": "Friday,",
      "hours": "10AM to 1PM"
    },
    {
      "day": "Saturday,",
      "hours": "10AM to 1PM"
    },
    {
      "day": "Sunday,",
      "hours": "10AM to 12PM"
    },
    {
      "day": "Monday,",
      "hours": "10AM to 1PM, 3 to 8PM"
    }
  ],
  "reviewsCount": 127
},
{
  "title": "家樂動物醫院",
  "totalScore": 3.3,
  "categoryName": "Animal hospital",
  "address": "No. 24, Yongfu Street, Xinshi District, Tainan City, Taiwan 744             744台南市新市區永福街24號",
  "locatedIn": null,
  "plusCode": "37FW+P3 Xinshi District, Tainan City, Taiwan",
  "website": null,
  "phone": "+886 6 599 8378",
  "temporarilyClosed": false,
  "permanentlyClosed": false,
  "rank": 77,
  "placeId": "ChIJw1Xh21h6bjQRwW0IB09mjE8",
  "url": "https://www.google.com/maps/place/%E5%AE%B6%E6%A8%82%E5%8B%95%E7%89%A9%E9%86%AB%E9%99%A2/@23.074349,120.2930173,17z/data=!3m1!4b1!4m5!3m4!1s0x346e7a58dbe155c3:0x4f8c664f07086dc1!8m2!3d23.074349!4d120.295206",
  "location": {
    "lat": 23.074349,
    "lng": 120.295206
  },
  "searchString": "臺南市的寵物醫院",
  "reviewsCount": 7
},
{
  "title": "上博寵物醫院",
  "totalScore": "",
  "categoryName": "Animal hospital",
  "address": "No. 7號, Jianguo Street, Xinhua District, Tainan City, Taiwan 712             712台南市新化區建國街7號",
  "locatedIn": null,
  "plusCode": "28P5+JQ Xinhua District, Tainan City, Taiwan",
  "website": null,
  "phone": "+886 6 590 3591",
  "temporarilyClosed": false,
  "permanentlyClosed": false,
  "rank": 79,
  "placeId": "ChIJNdnem3BwbjQR5r_g247w4Qs",
  "url": "https://www.google.com/maps/place/%E4%B8%8A%E5%8D%9A%E5%AF%B5%E7%89%A9%E9%86%AB%E9%99%A2/@23.0365229,120.3072343,17z/data=!3m1!4b1!4m5!3m4!1s0x346e70709bded935:0xbe1f08edbe0bfe6!8m2!3d23.0365229!4d120.309423",
  "location": {
    "lat": 23.0365229,
    "lng": 120.309423
  },
  "searchString": "臺南市的寵物醫院"
},
{
  "title": "艾蒙動物醫院",
  "totalScore": 4.9,
  "categoryName": "Animal hospital",
  "address": "No. 507號, Wenping Road, Anping District, Tainan City, Taiwan 708             708台南市安平區文平路507號",
  "locatedIn": null,
  "plusCode": "X5WH+4G Anping District, Tainan City, Taiwan",
  "website": "facebook.com",
  "phone": "+886 6 295 0590",
  "temporarilyClosed": false,
  "permanentlyClosed": false,
  "rank": 72,
  "placeId": "ChIJN_j6fOZ3bjQRcam8FHWOxn4",
  "url": "https://www.google.com/maps/place/%E8%89%BE%E8%92%99%E5%8B%95%E7%89%A9%E9%86%AB%E9%99%A2/@22.9952952,120.1766099,17z/data=!3m1!4b1!4m5!3m4!1s0x346e77e67cfaf837:0x7ec68e7514bca971!8m2!3d22.9952952!4d120.1787986",
  "location": {
    "lat": 22.9952952,
    "lng": 120.1787986
  },
  "searchString": "臺南市的寵物醫院",
  "openingHours": [
    {
      "day": "Tuesday,",
      "hours": "9AM to 1PM, 3 to 8:30PM"
    },
    {
      "day": "Wednesday,",
      "hours": "9AM to 1PM, 3 to 8:30PM"
    },
    {
      "day": "Thursday",
      "hours": "(Mid-Autumn Festival), 9AM to 1PM, 3 to 8:30PM, Holiday hours"
    },
    {
      "day": "Friday,",
      "hours": "9AM to 1PM, 3 to 8:30PM"
    },
    {
      "day": "Saturday,",
      "hours": "9AM to 1PM, 3 to 8:30PM"
    },
    {
      "day": "Sunday,",
      "hours": "Closed"
    },
    {
      "day": "Monday,",
      "hours": "9AM to 1PM, 3 to 8:30PM"
    }
  ],
  "reviewsCount": 57
},
{
  "title": "泰興動物醫院",
  "totalScore": 4.4,
  "categoryName": "Animal hospital",
  "address": "No. 101號, Dashun Street, Guiren District, Tainan City, Taiwan 711             711台南市歸仁區大順街101號",
  "locatedIn": null,
  "plusCode": "X78Q+3Q Guiren District, Tainan City, Taiwan",
  "website": "veterinarydermatologist.idv.tw",
  "phone": "+886 6 239 7781",
  "temporarilyClosed": false,
  "permanentlyClosed": false,
  "rank": 64,
  "placeId": "ChIJPbzvT3xxbjQRz-hZ4WiIrBY",
  "url": "https://www.google.com/maps/place/%E6%B3%B0%E8%88%88%E5%8B%95%E7%89%A9%E9%86%AB%E9%99%A2/@22.965166,120.2872882,17z/data=!3m1!4b1!4m5!3m4!1s0x346e717c4fefbc3d:0x16ac8868e159e8cf!8m2!3d22.965166!4d120.2894769",
  "location": {
    "lat": 22.965166,
    "lng": 120.2894769
  },
  "searchString": "臺南市的寵物醫院",
  "reviewsCount": 8
},
{
  "title": "阿山動物醫院",
  "totalScore": 1.7,
  "categoryName": "Animal hospital",
  "address": "No. 211號, Section 1, Zhongshan Road, Guanmiao District, Tainan City, Taiwan 718             718台南市關廟區中山路一段211號",
  "locatedIn": null,
  "plusCode": "X85J+GJ Guanmiao District, Tainan City, Taiwan",
  "website": null,
  "phone": null,
  "temporarilyClosed": false,
  "permanentlyClosed": false,
  "rank": 75,
  "placeId": "ChIJ8ViZrvBxbjQRZUei92h76Ow",
  "url": "https://www.google.com/maps/place/%E9%98%BF%E5%B1%B1%E5%8B%95%E7%89%A9%E9%86%AB%E9%99%A2/@22.958799,120.3293583,17z/data=!3m1!4b1!4m5!3m4!1s0x346e71f0ae9958f1:0xece87b68f7a24765!8m2!3d22.958799!4d120.331547",
  "location": {
    "lat": 22.958799,
    "lng": 120.331547
  },
  "searchString": "臺南市的寵物醫院",
  "reviewsCount": 3
},
{
  "title": "慈愛動物醫院-大灣院",
  "totalScore": 3.8,
  "categoryName": "Animal hospital",
  "address": "No. 770-2, Dawan Road, Yongkang District, Tainan City, Taiwan 71087             71087台南市永康區大灣路770-2號",
  "locatedIn": null,
  "plusCode": "2725+5W Yongkang District, Tainan City, Taiwan",
  "website": "lkah.com.tw",
  "phone": "+886 6 205 4702",
  "temporarilyClosed": false,
  "permanentlyClosed": false,
  "rank": 71,
  "placeId": "ChIJ1TpVKi5xbjQRkUP0UM8PESA",
  "url": "https://www.google.com/maps/place/%E6%85%88%E6%84%9B%E5%8B%95%E7%89%A9%E9%86%AB%E9%99%A2-%E5%A4%A7%E7%81%A3%E9%99%A2/@23.0004436,120.257565,17z/data=!3m1!4b1!4m5!3m4!1s0x346e712e2a553ad5:0x20110fcf50f44391!8m2!3d23.0004436!4d120.2597537",
  "location": {
    "lat": 23.0004436,
    "lng": 120.2597537
  },
  "searchString": "臺南市的寵物醫院",
  "openingHours": [
    {
      "day": "Tuesday,",
      "hours": "9AM to 9PM"
    },
    {
      "day": "Wednesday,",
      "hours": "9AM to 9PM"
    },
    {
      "day": "Thursday",
      "hours": "(Mid-Autumn Festival), Closed, Hours might differ"
    },
    {
      "day": "Friday,",
      "hours": "9AM to 9PM"
    },
    {
      "day": "Saturday,",
      "hours": "9AM to 9PM"
    },
    {
      "day": "Sunday,",
      "hours": "9AM to 9PM"
    },
    {
      "day": "Monday,",
      "hours": "9AM to 9PM"
    }
  ],
  "reviewsCount": 95
},
{
  "title": "喬巴動物醫院",
  "totalScore": 4.6,
  "categoryName": "Animal hospital",
  "address": "No. 156, Section 3, Zhonghua E Rd, East District, Tainan City, Taiwan 701             701台南市東區中華東路三段156號",
  "locatedIn": null,
  "plusCode": "X6HG+7M East District, Tainan City, Taiwan",
  "website": null,
  "phone": "+886 6 289 5300",
  "temporarilyClosed": false,
  "permanentlyClosed": false,
  "rank": 69,
  "placeId": "ChIJAQHdDJ92bjQRTrGiRXTBCRw",
  "url": "https://www.google.com/maps/place/%E5%96%AC%E5%B7%B4%E5%8B%95%E7%89%A9%E9%86%AB%E9%99%A2/@22.9782282,120.2244587,17z/data=!3m1!4b1!4m5!3m4!1s0x346e769f0cdd0101:0x1c09c17445a2b14e!8m2!3d22.9782282!4d120.2266474",
  "location": {
    "lat": 22.9782282,
    "lng": 120.2266474
  },
  "searchString": "臺南市的寵物醫院",
  "openingHours": [
    {
      "day": "Tuesday,",
      "hours": "9:30AM to 9PM"
    },
    {
      "day": "Wednesday,",
      "hours": "9:30AM to 9PM"
    },
    {
      "day": "Thursday",
      "hours": "(Mid-Autumn Festival), 9:30AM to 9PM, Hours might differ"
    },
    {
      "day": "Friday,",
      "hours": "9:30AM to 9PM"
    },
    {
      "day": "Saturday,",
      "hours": "9:30AM to 8PM"
    },
    {
      "day": "Sunday,",
      "hours": "Closed"
    },
    {
      "day": "Monday,",
      "hours": "9:30AM to 9PM"
    }
  ],
  "reviewsCount": 143
},
{
  "title": "慈愛動物醫院-小北院",
  "totalScore": 4.2,
  "categoryName": "Animal hospital",
  "address": "No. 440, Section 4, Ximen Road, North District, Tainan City, Taiwan 704             704台南市北區西門路四段440號",
  "locatedIn": null,
  "plusCode": "2686+86 North District, Tainan City, Taiwan",
  "website": "lkah.com.tw",
  "phone": "+886 6 283 3213",
  "temporarilyClosed": false,
  "permanentlyClosed": false,
  "rank": 63,
  "placeId": "ChIJ9aLevvl2bjQR9-bNXJhfEtw",
  "url": "https://www.google.com/maps/place/%E6%85%88%E6%84%9B%E5%8B%95%E7%89%A9%E9%86%AB%E9%99%A2-%E5%B0%8F%E5%8C%97%E9%99%A2/@23.015804,120.2084104,17z/data=!3m1!4b1!4m5!3m4!1s0x346e76f9bedea2f5:0xdc125f985ccde6f7!8m2!3d23.015804!4d120.2105991",
  "location": {
    "lat": 23.015804,
    "lng": 120.2105991
  },
  "searchString": "臺南市的寵物醫院",
  "openingHours": [
    {
      "day": "Tuesday,",
      "hours": "9AM to 9PM"
    },
    {
      "day": "Wednesday,",
      "hours": "9AM to 9PM"
    },
    {
      "day": "Thursday",
      "hours": "(Mid-Autumn Festival), Closed, Hours might differ"
    },
    {
      "day": "Friday,",
      "hours": "9AM to 9PM"
    },
    {
      "day": "Saturday,",
      "hours": "9AM to 9PM"
    },
    {
      "day": "Sunday,",
      "hours": "9AM to 9PM"
    },
    {
      "day": "Monday,",
      "hours": "9AM to 9PM"
    }
  ],
  "reviewsCount": 74
},
{
  "title": "Bunny Animal Hospital",
  "totalScore": 4.6,
  "categoryName": "Animal hospital",
  "address": "No. 399, Yonger Street, Yongkang District, Tainan City, Taiwan 710             710台南市永康區永二街399號",
  "locatedIn": null,
  "plusCode": "269W+RW Yongkang District, Tainan City, Taiwan",
  "website": null,
  "phone": "+886 6 202 8112",
  "temporarilyClosed": false,
  "permanentlyClosed": false,
  "rank": 70,
  "placeId": "ChIJSYKLcSx3bjQRLMNsn82BhpY",
  "url": "https://www.google.com/maps/place/Bunny+Animal+Hospital/@23.0195992,120.2451333,17z/data=!3m1!4b1!4m5!3m4!1s0x346e772c718b8249:0x968681cd9f6cc32c!8m2!3d23.0195992!4d120.247322",
  "location": {
    "lat": 23.0195992,
    "lng": 120.247322
  },
  "searchString": "臺南市的寵物醫院",
  "openingHours": [
    {
      "day": "Tuesday,",
      "hours": "10AM to 9PM"
    },
    {
      "day": "Wednesday,",
      "hours": "10AM to 9PM"
    },
    {
      "day": "Thursday",
      "hours": "(Mid-Autumn Festival), Closed, Hours might differ"
    },
    {
      "day": "Friday,",
      "hours": "10AM to 9PM"
    },
    {
      "day": "Saturday,",
      "hours": "10AM to 9PM"
    },
    {
      "day": "Sunday,",
      "hours": "Closed"
    },
    {
      "day": "Monday,",
      "hours": "10AM to 9PM"
    }
  ],
  "reviewsCount": 194
},
{
  "title": "全國動物醫院 五期分院",
  "totalScore": 4.4,
  "categoryName": "Animal hospital",
  "address": "No. 310號, Section 1, Zhonghua West Road, South District, Tainan City, Taiwan 702             702台南市南區中華西路一段310號",
  "locatedIn": null,
  "plusCode": "X5MP+CH South District, Tainan City, Taiwan",
  "website": null,
  "phone": "+886 6 265 5757",
  "temporarilyClosed": false,
  "permanentlyClosed": false,
  "rank": 78,
  "placeId": "ChIJv1VmURZ1bjQRhTj4Do6u-I8",
  "url": "https://www.google.com/maps/place/%E5%85%A8%E5%9C%8B%E5%8B%95%E7%89%A9%E9%86%AB%E9%99%A2+%E4%BA%94%E6%9C%9F%E5%88%86%E9%99%A2/@22.9835277,120.1843034,17z/data=!3m1!4b1!4m5!3m4!1s0x346e7516516655bf:0x8ff8ae8e0ef83885!8m2!3d22.9835277!4d120.1864921",
  "location": {
    "lat": 22.9835277,
    "lng": 120.1864921
  },
  "searchString": "臺南市的寵物醫院",
  "openingHours": [
    {
      "day": "Tuesday,",
      "hours": "10:30AM to 8:45PM"
    },
    {
      "day": "Wednesday,",
      "hours": "10:30AM to 8:45PM"
    },
    {
      "day": "Thursday",
      "hours": "(Mid-Autumn Festival), 10:30AM to 8:45PM, Hours might differ"
    },
    {
      "day": "Friday,",
      "hours": "10:30AM to 8:45PM"
    },
    {
      "day": "Saturday,",
      "hours": "10:30AM to 8:45PM"
    },
    {
      "day": "Sunday,",
      "hours": "10:30AM to 8:45PM"
    },
    {
      "day": "Monday,",
      "hours": "10:30AM to 8:45PM"
    }
  ],
  "reviewsCount": 18
},
{
  "title": "聯心動物醫院",
  "totalScore": 4.6,
  "categoryName": "Animal hospital",
  "address": "No. 714, Zhonghua Road, Yongkang District, Tainan City, Taiwan 710             710台南市永康區中華路714號",
  "locatedIn": null,
  "plusCode": "268H+GJ Yongkang District, Tainan City, Taiwan",
  "website": null,
  "phone": "+886 6 302 6658",
  "temporarilyClosed": false,
  "permanentlyClosed": false,
  "rank": 61,
  "placeId": "ChIJXYXe6N92bjQROEm19tzSr5Q",
  "url": "https://www.google.com/maps/place/%E8%81%AF%E5%BF%83%E5%8B%95%E7%89%A9%E9%86%AB%E9%99%A2/@23.0163542,120.2268447,17z/data=!3m1!4b1!4m5!3m4!1s0x346e76dfe8de855d:0x94afd2dcf6b54938!8m2!3d23.0163542!4d120.2290334",
  "location": {
    "lat": 23.0163542,
    "lng": 120.2290334
  },
  "searchString": "臺南市的寵物醫院",
  "openingHours": [
    {
      "day": "Tuesday,",
      "hours": "9AM to 9PM"
    },
    {
      "day": "Wednesday,",
      "hours": "9AM to 9PM"
    },
    {
      "day": "Thursday",
      "hours": "(Mid-Autumn Festival), 9AM to 9PM, Hours might differ"
    },
    {
      "day": "Friday,",
      "hours": "9AM to 9PM"
    },
    {
      "day": "Saturday,",
      "hours": "9AM to 6PM"
    },
    {
      "day": "Sunday,",
      "hours": "Closed"
    },
    {
      "day": "Monday,",
      "hours": "9AM to 9PM"
    }
  ],
  "reviewsCount": 32
},
{
  "title": "府城動物醫院",
  "totalScore": 3.8,
  "categoryName": "Animal hospital",
  "address": "No. 418, Chenggong Rd, North District, Tainan City, Taiwan 70458             70458台南市北區成功路418號",
  "locatedIn": null,
  "plusCode": "252X+89 North District, Tainan City, Taiwan",
  "website": null,
  "phone": "+886 6 222 9911",
  "temporarilyClosed": false,
  "permanentlyClosed": false,
  "rank": 68,
  "placeId": "ChIJZ8vGO2d2bjQR5THa7n2wFPM",
  "url": "https://www.google.com/maps/place/%E5%BA%9C%E5%9F%8E%E5%8B%95%E7%89%A9%E9%86%AB%E9%99%A2/@23.0007836,120.1961896,17z/data=!3m1!4b1!4m5!3m4!1s0x346e76673bc6cb67:0xf314b07deeda31e5!8m2!3d23.0007836!4d120.1983783",
  "location": {
    "lat": 23.0007836,
    "lng": 120.1983783
  },
  "searchString": "臺南市的寵物醫院",
  "openingHours": [
    {
      "day": "Tuesday,",
      "hours": "9AM to 10PM"
    },
    {
      "day": "Wednesday,",
      "hours": "9AM to 10PM"
    },
    {
      "day": "Thursday",
      "hours": "(Mid-Autumn Festival), 9AM to 10PM, Hours might differ"
    },
    {
      "day": "Friday,",
      "hours": "9AM to 10PM"
    },
    {
      "day": "Saturday,",
      "hours": "9AM to 10PM"
    },
    {
      "day": "Sunday,",
      "hours": "Closed"
    },
    {
      "day": "Monday,",
      "hours": "9AM to 10PM"
    }
  ],
  "reviewsCount": 70
},
{
  "title": "凱旋動物醫院",
  "totalScore": 4.2,
  "categoryName": "Animal hospital",
  "address": "No. 591號之34號, Gongyuan Road, North District, Tainan City, Taiwan 704             704台南市北區公園路591號之34號",
  "locatedIn": null,
  "plusCode": "2676+2C North District, Tainan City, Taiwan",
  "website": null,
  "phone": "+886 6 251 4727",
  "temporarilyClosed": false,
  "permanentlyClosed": false,
  "rank": 62,
  "placeId": "ChIJQxe_zvt2bjQRUrNFOkVS8lE",
  "url": "https://www.google.com/maps/place/%E5%87%B1%E6%97%8B%E5%8B%95%E7%89%A9%E9%86%AB%E9%99%A2/@23.012584,120.2088364,17z/data=!3m1!4b1!4m5!3m4!1s0x346e76fbcebf1743:0x51f252453a45b352!8m2!3d23.012584!4d120.2110251",
  "location": {
    "lat": 23.012584,
    "lng": 120.2110251
  },
  "searchString": "臺南市的寵物醫院",
  "openingHours": [
    {
      "day": "Tuesday,",
      "hours": "9AM to 9PM"
    },
    {
      "day": "Wednesday,",
      "hours": "9AM to 9PM"
    },
    {
      "day": "Thursday",
      "hours": "(Mid-Autumn Festival), 9AM to 9PM, Hours might differ"
    },
    {
      "day": "Friday,",
      "hours": "9AM to 9PM"
    },
    {
      "day": "Saturday,",
      "hours": "9AM to 9PM"
    },
    {
      "day": "Sunday,",
      "hours": "Closed"
    },
    {
      "day": "Monday,",
      "hours": "9AM to 9PM"
    }
  ],
  "reviewsCount": 47
},
{
  "title": "新長庚動物醫院",
  "totalScore": 4.3,
  "categoryName": "Animal hospital",
  "address": "No. 445號, Zhongxiao Road, Yongkang District, Tainan City, Taiwan 710             710台南市永康區忠孝路445號",
  "locatedIn": null,
  "plusCode": "269V+H9 Yongkang District, Tainan City, Taiwan",
  "website": null,
  "phone": "+886 6 231 1753",
  "temporarilyClosed": false,
  "permanentlyClosed": false,
  "rank": 80,
  "placeId": "ChIJZUWfOyl3bjQRzzu-uEjrzP8",
  "url": "https://www.google.com/maps/place/%E6%96%B0%E9%95%B7%E5%BA%9A%E5%8B%95%E7%89%A9%E9%86%AB%E9%99%A2/@23.018897,120.2412333,17z/data=!3m1!4b1!4m5!3m4!1s0x346e77293b9f4565:0xffcceb48b8be3bcf!8m2!3d23.018897!4d120.243422",
  "location": {
    "lat": 23.018897,
    "lng": 120.243422
  },
  "searchString": "臺南市的寵物醫院",
  "openingHours": [
    {
      "day": "Tuesday,",
      "hours": "10AM to 8PM"
    },
    {
      "day": "Wednesday,",
      "hours": "10AM to 8PM"
    },
    {
      "day": "Thursday",
      "hours": "(Mid-Autumn Festival), 10AM to 8PM, Hours might differ"
    },
    {
      "day": "Friday,",
      "hours": "10AM to 8PM"
    },
    {
      "day": "Saturday,",
      "hours": "10AM to 8PM"
    },
    {
      "day": "Sunday,",
      "hours": "Closed"
    },
    {
      "day": "Monday,",
      "hours": "10AM to 8PM"
    }
  ],
  "reviewsCount": 42
},
{
  "title": "民生動物醫院",
  "totalScore": 4.8,
  "categoryName": "Animal hospital",
  "address": "No. 56號, Jiankang 2nd Street, Anping District, Tainan City, Taiwan 708             708台南市安平區健康二街56號",
  "locatedIn": null,
  "plusCode": "X5PF+44 Anping District, Tainan City, Taiwan",
  "website": null,
  "phone": "+886 6 299 0992",
  "temporarilyClosed": false,
  "permanentlyClosed": false,
  "rank": 73,
  "placeId": "ChIJ75zRjeJ1bjQRzkQpzcQu-Oc",
  "url": "https://www.google.com/maps/place/%E6%B0%91%E7%94%9F%E5%8B%95%E7%89%A9%E9%86%AB%E9%99%A2/@22.9853021,120.1706073,17z/data=!3m1!4b1!4m5!3m4!1s0x346e75e28dd19cef:0xe7f82ec4cd2944ce!8m2!3d22.9853021!4d120.172796",
  "location": {
    "lat": 22.9853021,
    "lng": 120.172796
  },
  "searchString": "臺南市的寵物醫院",
  "reviewsCount": 28
},
{
  "title": "Sheng Li Cat Hospital",
  "totalScore": 4.6,
  "categoryName": "Animal hospital",
  "address": "700, Taiwan, Tainan City, West Central District, Lane 84, Gongyuan Road, 4號1樓             700台南市中西區公園路84巷4號1樓",
  "locatedIn": null,
  "plusCode": "X6W4+FG West Central District, Tainan City, Taiwan",
  "website": "facebook.com",
  "phone": "+886 6 222 8318",
  "temporarilyClosed": false,
  "permanentlyClosed": false,
  "rank": 65,
  "placeId": "ChIJRyNQcO52bjQRIHGa5tMDVE8",
  "url": "https://www.google.com/maps/place/Sheng+Li+Cat+Hospital/@22.996194,120.2040903,17z/data=!3m1!4b1!4m5!3m4!1s0x346e76ee70502347:0x4f5403d3e69a7120!8m2!3d22.996194!4d120.206279",
  "location": {
    "lat": 22.996194,
    "lng": 120.206279
  },
  "searchString": "臺南市的寵物醫院",
  "openingHours": [
    {
      "day": "Tuesday,",
      "hours": "9:30AM to 12:30PM, 1:30 to 9PM"
    },
    {
      "day": "Wednesday,",
      "hours": "9:30AM to 12:30PM, 1:30 to 9PM"
    },
    {
      "day": "Thursday",
      "hours": "(Mid-Autumn Festival), 9:30AM to 12:30PM, 1:30 to 9PM, Hours might differ"
    },
    {
      "day": "Friday,",
      "hours": "9:30AM to 12:30PM, 1:30 to 9PM"
    },
    {
      "day": "Saturday,",
      "hours": "9:30AM to 12:30PM, 1:30 to 6PM"
    },
    {
      "day": "Sunday,",
      "hours": "Closed"
    },
    {
      "day": "Monday,",
      "hours": "9:30AM to 12:30PM, 1:30 to 9PM"
    }
  ],
  "reviewsCount": 134
},
{
  "title": "華生動物醫院",
  "totalScore": 4.7,
  "categoryName": "Animal hospital",
  "address": "No. 528, Chongde Road, East District, Tainan City, Taiwan 701             701台南市東區崇德路528號",
  "locatedIn": null,
  "plusCode": "X6FG+7W East District, Tainan City, Taiwan",
  "website": "facebook.com",
  "phone": "+886 6 290 1547",
  "temporarilyClosed": false,
  "permanentlyClosed": false,
  "rank": 47,
  "placeId": "ChIJdWLAOiB0bjQRjDIltdYQ_0I",
  "url": "https://www.google.com/maps/place/%E8%8F%AF%E7%94%9F%E5%8B%95%E7%89%A9%E9%86%AB%E9%99%A2/@22.973162,120.2251723,17z/data=!3m1!4b1!4m5!3m4!1s0x346e74203ac06275:0x42ff10d6b525328c!8m2!3d22.973162!4d120.227361",
  "location": {
    "lat": 22.973162,
    "lng": 120.227361
  },
  "searchString": "臺南市的寵物醫院",
  "openingHours": [
    {
      "day": "Tuesday,",
      "hours": "11AM to 8:30PM"
    },
    {
      "day": "Wednesday,",
      "hours": "11AM to 8:30PM"
    },
    {
      "day": "Thursday",
      "hours": "(Mid-Autumn Festival), 11AM to 8:30PM, Hours might differ"
    },
    {
      "day": "Friday,",
      "hours": "11AM to 8:30PM"
    },
    {
      "day": "Saturday,",
      "hours": "11AM to 8:30PM"
    },
    {
      "day": "Sunday,",
      "hours": "Closed"
    },
    {
      "day": "Monday,",
      "hours": "11AM to 8:30PM"
    }
  ],
  "reviewsCount": 49
},
{
  "title": "An-Yi Animal Hospital",
  "totalScore": 4.1,
  "categoryName": "Animal hospital",
  "address": "No. 242, Section 2, Dongmen Road, East District, Tainan City, Taiwan 701             701台南市東區東門路二段242號",
  "locatedIn": null,
  "plusCode": "X6MF+RR East District, Tainan City, Taiwan",
  "website": "anyi.com.tw",
  "phone": "+886 6 267 6655      phone3",
  "temporarilyClosed": false,
  "permanentlyClosed": false,
  "rank": 48,
  "placeId": "ChIJpRgQupl2bjQRWa4LUzcSUgQ",
  "url": "https://www.google.com/maps/place/An-Yi+Animal+Hospital/@22.9845067,120.2223389,17z/data=!3m1!4b1!4m5!3m4!1s0x346e7699ba1018a5:0x4521237530bae59!8m2!3d22.9845067!4d120.2245276",
  "location": {
    "lat": 22.9845067,
    "lng": 120.2245276
  },
  "searchString": "臺南市的寵物醫院",
  "openingHours": [
    {
      "day": "Tuesday,",
      "hours": "9AM to 12PM, 3 to 7PM"
    },
    {
      "day": "Wednesday,",
      "hours": "9AM to 12PM, 3 to 7PM"
    },
    {
      "day": "Thursday",
      "hours": "(Mid-Autumn Festival), 9AM to 12PM, 3 to 7PM, Hours might differ"
    },
    {
      "day": "Friday,",
      "hours": "9AM to 12PM, 3 to 7PM"
    },
    {
      "day": "Saturday,",
      "hours": "9AM to 12PM, 3 to 6PM"
    },
    {
      "day": "Sunday,",
      "hours": "Closed"
    },
    {
      "day": "Monday,",
      "hours": "9AM to 12PM, 3 to 7PM"
    }
  ],
  "reviewsCount": 122
},
{
  "title": "慈愛動物醫院-海佃院",
  "totalScore": 4,
  "categoryName": "Animal hospital",
  "address": "No. 64-1, Section 1, Haidian Road, Annan District, Tainan City, Taiwan 709             709台南市安南區海佃路一段64-1號",
  "locatedIn": null,
  "plusCode": "25CR+MW Annan District, Tainan City, Taiwan",
  "website": "lkah.com.tw",
  "phone": "+886 6 358 4100",
  "temporarilyClosed": false,
  "permanentlyClosed": false,
  "rank": 55,
  "placeId": "ChIJPdPtl012bjQRHt93vaWgngw",
  "url": "https://www.google.com/maps/place/%E6%85%88%E6%84%9B%E5%8B%95%E7%89%A9%E9%86%AB%E9%99%A2-%E6%B5%B7%E4%BD%83%E9%99%A2/@23.0216435,120.1900672,17z/data=!3m1!4b1!4m5!3m4!1s0x346e764d97edd33d:0xc9ea0a5bd77df1e!8m2!3d23.0216435!4d120.1922559",
  "location": {
    "lat": 23.0216435,
    "lng": 120.1922559
  },
  "searchString": "臺南市的寵物醫院",
  "openingHours": [
    {
      "day": "Tuesday,",
      "hours": "Closed"
    },
    {
      "day": "Wednesday,",
      "hours": "9AM to 9PM"
    },
    {
      "day": "Thursday",
      "hours": "(Mid-Autumn Festival), 9AM to 9PM, Hours might differ"
    },
    {
      "day": "Friday,",
      "hours": "9AM to 9PM"
    },
    {
      "day": "Saturday,",
      "hours": "9AM to 9PM"
    },
    {
      "day": "Sunday,",
      "hours": "9AM to 9PM"
    },
    {
      "day": "Monday,",
      "hours": "9AM to 9PM"
    }
  ],
  "reviewsCount": 65
},
{
  "title": "慈愛動物醫院-仁德店",
  "totalScore": 4.2,
  "categoryName": "Animal hospital",
  "address": "No. 701號, Zhongshan Road, Rende District, Tainan City, Taiwan 71742             71742台南市仁德區中山路701號",
  "locatedIn": null,
  "plusCode": "X6CX+X6 Rende District, Tainan City, Taiwan",
  "website": "lkah.com.tw",
  "phone": "+886 6 279 2159      phone3",
  "temporarilyClosed": false,
  "permanentlyClosed": false,
  "rank": 41,
  "placeId": "ChIJjeWQqFVxbjQRbRJOx0eTnjs",
  "url": "https://www.google.com/maps/place/%E6%85%88%E6%84%9B%E5%8B%95%E7%89%A9%E9%86%AB%E9%99%A2-%E4%BB%81%E5%BE%B7%E5%BA%97/@22.9724195,120.245825,17z/data=!3m1!4b1!4m5!3m4!1s0x346e7155a890e58d:0x3b9e9347c74e126d!8m2!3d22.9724195!4d120.2480137",
  "location": {
    "lat": 22.9724195,
    "lng": 120.2480137
  },
  "searchString": "臺南市的寵物醫院",
  "openingHours": [
    {
      "day": "Tuesday,",
      "hours": "10AM to 9PM"
    },
    {
      "day": "Wednesday,",
      "hours": "10AM to 9PM"
    },
    {
      "day": "Thursday",
      "hours": "(Mid-Autumn Festival), 10AM to 9PM, Hours might differ"
    },
    {
      "day": "Friday,",
      "hours": "10AM to 9PM"
    },
    {
      "day": "Saturday,",
      "hours": "10AM to 9PM"
    },
    {
      "day": "Sunday,",
      "hours": "10AM to 9PM"
    },
    {
      "day": "Monday,",
      "hours": "10AM to 9PM"
    }
  ],
  "reviewsCount": 161
},
{
  "title": "迦美動物醫院",
  "totalScore": 4.7,
  "categoryName": "Animal hospital",
  "address": "No. 202-1號, Daren Street, Yongkang District, Tainan City, Taiwan 71087             71087台南市永康區大仁街202-1號",
  "locatedIn": null,
  "plusCode": "2745+57 Yongkang District, Tainan City, Taiwan",
  "website": "facebook.com",
  "phone": "+886 6 273 1681",
  "temporarilyClosed": false,
  "permanentlyClosed": false,
  "rank": 44,
  "placeId": "ChIJ71LXcyhxbjQR7eaQ8ZrbIKM",
  "url": "https://www.google.com/maps/place/%E8%BF%A6%E7%BE%8E%E5%8B%95%E7%89%A9%E9%86%AB%E9%99%A2/@23.005428,120.2559828,17z/data=!3m1!4b1!4m5!3m4!1s0x346e712873d752ef:0xa320db9af190e6ed!8m2!3d23.005428!4d120.2581715",
  "location": {
    "lat": 23.005428,
    "lng": 120.2581715
  },
  "searchString": "臺南市的寵物醫院",
  "openingHours": [
    {
      "day": "Tuesday,",
      "hours": "Closed"
    },
    {
      "day": "Wednesday,",
      "hours": "9AM to 9PM"
    },
    {
      "day": "Thursday",
      "hours": "(Mid-Autumn Festival), 9AM to 9PM, Hours might differ"
    },
    {
      "day": "Friday,",
      "hours": "9AM to 9PM"
    },
    {
      "day": "Saturday,",
      "hours": "9AM to 9PM"
    },
    {
      "day": "Sunday,",
      "hours": "9AM to 6PM"
    },
    {
      "day": "Monday,",
      "hours": "9AM to 9PM"
    }
  ],
  "reviewsCount": 94
},
{
  "title": "快樂動物醫院",
  "totalScore": 4.2,
  "categoryName": "Animal hospital",
  "address": "No. 378號, Fuxing Road, Yongkang District, Tainan City, Taiwan 710             710台南市永康區復興路378號",
  "locatedIn": null,
  "plusCode": "X6XR+F8 Yongkang District, Tainan City, Taiwan",
  "website": null,
  "phone": "+886 6 313 1300",
  "temporarilyClosed": false,
  "permanentlyClosed": false,
  "rank": 50,
  "placeId": "ChIJh0-Es8h2bjQRZcYmGwt_Bg4",
  "url": "https://www.google.com/maps/place/%E5%BF%AB%E6%A8%82%E5%8B%95%E7%89%A9%E9%86%AB%E9%99%A2/@22.9986994,120.2386326,17z/data=!3m1!4b1!4m5!3m4!1s0x346e76c8b3844f87:0xe067f0b1b26c665!8m2!3d22.9986994!4d120.2408213",
  "location": {
    "lat": 22.9986994,
    "lng": 120.2408213
  },
  "searchString": "臺南市的寵物醫院",
  "openingHours": [
    {
      "day": "Tuesday,",
      "hours": "10AM to 12PM, 2 to 8PM"
    },
    {
      "day": "Wednesday,",
      "hours": "10AM to 12PM, 2 to 8PM"
    },
    {
      "day": "Thursday",
      "hours": "(Mid-Autumn Festival), 10AM to 12PM, 2 to 6PM, Hours might differ"
    },
    {
      "day": "Friday,",
      "hours": "10AM to 12PM, 2 to 8PM"
    },
    {
      "day": "Saturday,",
      "hours": "10AM to 12PM, 2 to 7PM"
    },
    {
      "day": "Sunday,",
      "hours": "Closed"
    },
    {
      "day": "Monday,",
      "hours": "10AM to 12PM, 2 to 8PM"
    }
  ],
  "reviewsCount": 79
},
{
  "title": "佳幼動物醫院",
  "totalScore": 4.7,
  "categoryName": "Animal hospital",
  "address": "No. 128, Guangfu Road, Shanhua District, Tainan City, Taiwan 741             741台南市善化區光復路128號",
  "locatedIn": null,
  "plusCode": "47HR+8H Shanhua District, Tainan City, Taiwan",
  "website": "facebook.com",
  "phone": "+886 6 581 7171",
  "temporarilyClosed": false,
  "permanentlyClosed": false,
  "rank": 49,
  "placeId": "ChIJ-52KrIZ7bjQRxNkeW90LKVU",
  "url": "https://www.google.com/maps/place/%E4%BD%B3%E5%B9%BC%E5%8B%95%E7%89%A9%E9%86%AB%E9%99%A2/@23.1282664,120.2892836,17z/data=!3m1!4b1!4m5!3m4!1s0x346e7b86ac8a9dfb:0x55290bdd5b1ed9c4!8m2!3d23.1282664!4d120.2914723",
  "location": {
    "lat": 23.1282664,
    "lng": 120.2914723
  },
  "searchString": "臺南市的寵物醫院",
  "openingHours": [
    {
      "day": "Tuesday,",
      "hours": "9:30AM to 1PM, 3 to 9PM"
    },
    {
      "day": "Wednesday,",
      "hours": "9:30AM to 1PM, 3 to 9PM"
    },
    {
      "day": "Thursday",
      "hours": "(Mid-Autumn Festival), Closed, Hours might differ"
    },
    {
      "day": "Friday,",
      "hours": "9:30AM to 1PM, 3 to 9PM"
    },
    {
      "day": "Saturday,",
      "hours": "9:30AM to 1PM, 3 to 9PM"
    },
    {
      "day": "Sunday,",
      "hours": "Closed"
    },
    {
      "day": "Monday,",
      "hours": "9:30AM to 1PM, 3 to 9PM"
    }
  ],
  "reviewsCount": 160
},
{
  "title": "James Animal Hospital",
  "totalScore": 4.6,
  "categoryName": "Animal hospital",
  "address": "No. 179-4號, Nanmen Road, West Central District, Tainan City, Taiwan 700             700台南市中西區南門路179-4號",
  "locatedIn": null,
  "plusCode": "X6P3+FQ West Central District, Tainan City, Taiwan",
  "website": null,
  "phone": "+886 6 215 7057",
  "temporarilyClosed": false,
  "permanentlyClosed": false,
  "rank": 46,
  "placeId": "ChIJIX6J8X12bjQRl5UZzolbZk4",
  "url": "https://www.google.com/maps/place/James+Animal+Hospital/@22.9862225,120.2021992,17z/data=!3m1!4b1!4m5!3m4!1s0x346e767df1897e21:0x4e665b89ce199597!8m2!3d22.9862225!4d120.2043879",
  "location": {
    "lat": 22.9862225,
    "lng": 120.2043879
  },
  "searchString": "臺南市的寵物醫院",
  "openingHours": [
    {
      "day": "Tuesday,",
      "hours": "10AM to 12PM, 1:30 to 7:30PM"
    },
    {
      "day": "Wednesday,",
      "hours": "10AM to 12PM, 1:30 to 7:30PM"
    },
    {
      "day": "Thursday",
      "hours": "(Mid-Autumn Festival), 10AM to 12PM, 1:30 to 7:30PM, Hours might differ"
    },
    {
      "day": "Friday,",
      "hours": "10AM to 12PM, 1:30 to 7:30PM"
    },
    {
      "day": "Saturday,",
      "hours": "10AM to 12PM, 1:30 to 7:30PM"
    },
    {
      "day": "Sunday,",
      "hours": "10AM to 5:30PM"
    },
    {
      "day": "Monday,",
      "hours": "Closed"
    }
  ],
  "reviewsCount": 42
},
{
  "title": "心禾動物醫院",
  "totalScore": 4.1,
  "categoryName": "Animal hospital",
  "address": "No. 293號, Section 2, Datong Road, East District, Tainan City, Taiwan 701             701台南市東區大同路二段293號",
  "locatedIn": null,
  "plusCode": "X6F7+QQ East District, Tainan City, Taiwan",
  "website": "facebook.com",
  "phone": "+886 6 214 2725",
  "temporarilyClosed": false,
  "permanentlyClosed": false,
  "rank": 53,
  "placeId": "ChIJDWr_DRh0bjQR_EzmyiXWH2g",
  "url": "https://www.google.com/maps/place/%E5%BF%83%E7%A6%BE%E5%8B%95%E7%89%A9%E9%86%AB%E9%99%A2/@22.9744023,120.2122732,17z/data=!3m1!4b1!4m5!3m4!1s0x346e74180dff6a0d:0x681fd625cae64cfc!8m2!3d22.9744023!4d120.2144619",
  "location": {
    "lat": 22.9744023,
    "lng": 120.2144619
  },
  "searchString": "臺南市的寵物醫院",
  "openingHours": [
    {
      "day": "Tuesday,",
      "hours": "3 to 9:30PM"
    },
    {
      "day": "Wednesday,",
      "hours": "3 to 9:30PM"
    },
    {
      "day": "Thursday",
      "hours": "(Mid-Autumn Festival), 3 to 9:30PM, Hours might differ"
    },
    {
      "day": "Friday,",
      "hours": "3 to 9:30PM"
    },
    {
      "day": "Saturday,",
      "hours": "9:30AM to 12:30PM, 3 to 9:30PM"
    },
    {
      "day": "Sunday,",
      "hours": "9:30AM to 12:30PM"
    },
    {
      "day": "Monday,",
      "hours": "3 to 9:30PM"
    }
  ],
  "reviewsCount": 33
},
{
  "title": "紅琍動物醫院",
  "totalScore": 4.8,
  "categoryName": "Animal hospital",
  "address": "No. 190, Fulian Road, East District, Tainan City, Taiwan 701             701台南市東區府連路190號",
  "locatedIn": null,
  "plusCode": "X6P7+22 East District, Tainan City, Taiwan",
  "website": null,
  "phone": "+886 6 213 0010",
  "temporarilyClosed": false,
  "permanentlyClosed": false,
  "rank": 45,
  "placeId": "ChIJ--Q8QYR2bjQRZbJqLzwWLz8",
  "url": "https://www.google.com/maps/place/%E7%B4%85%E7%90%8D%E5%8B%95%E7%89%A9%E9%86%AB%E9%99%A2/@22.985012,120.2104093,17z/data=!3m1!4b1!4m5!3m4!1s0x346e7684413ce4fb:0x3f2f163c2f6ab265!8m2!3d22.985012!4d120.212598",
  "location": {
    "lat": 22.985012,
    "lng": 120.212598
  },
  "searchString": "臺南市的寵物醫院",
  "openingHours": [
    {
      "day": "Tuesday,",
      "hours": "9AM to 8PM"
    },
    {
      "day": "Wednesday,",
      "hours": "9AM to 8PM"
    },
    {
      "day": "Thursday",
      "hours": "(Mid-Autumn Festival), 9AM to 8PM, Hours might differ"
    },
    {
      "day": "Friday,",
      "hours": "9AM to 8PM"
    },
    {
      "day": "Saturday,",
      "hours": "9AM to 8PM"
    },
    {
      "day": "Sunday,",
      "hours": "Closed"
    },
    {
      "day": "Monday,",
      "hours": "9AM to 8PM"
    }
  ],
  "reviewsCount": 48
},
{
  "title": "大愛動物醫院",
  "totalScore": 4.1,
  "categoryName": "Animal hospital",
  "address": "No. 516, Section 2, Hewei Road, North District, Tainan City, Taiwan 704             704台南市北區和緯路二段516號",
  "locatedIn": null,
  "plusCode": "2662+RG North District, Tainan City, Taiwan",
  "website": null,
  "phone": "+886 6 283 1699",
  "temporarilyClosed": false,
  "permanentlyClosed": false,
  "rank": 60,
  "placeId": "ChIJTW0kB_h2bjQR0tXnW43J1NE",
  "url": "https://www.google.com/maps/place/%E5%A4%A7%E6%84%9B%E5%8B%95%E7%89%A9%E9%86%AB%E9%99%A2/@23.0121103,120.1990669,17z/data=!3m1!4b1!4m5!3m4!1s0x346e76f807246d4d:0xd1d4c98d5be7d5d2!8m2!3d23.0121103!4d120.2012556",
  "location": {
    "lat": 23.0121103,
    "lng": 120.2012556
  },
  "searchString": "臺南市的寵物醫院",
  "openingHours": [
    {
      "day": "Tuesday,",
      "hours": "9AM to 9PM"
    },
    {
      "day": "Wednesday,",
      "hours": "9AM to 9PM"
    },
    {
      "day": "Thursday",
      "hours": "(Mid-Autumn Festival), 9AM to 9PM, Hours might differ"
    },
    {
      "day": "Friday,",
      "hours": "9AM to 9PM"
    },
    {
      "day": "Saturday,",
      "hours": "9AM to 9PM"
    },
    {
      "day": "Sunday,",
      "hours": "9AM to 5PM"
    },
    {
      "day": "Monday,",
      "hours": "9AM to 9PM"
    }
  ],
  "reviewsCount": 119
},
{
  "title": "崇愛動物醫院",
  "totalScore": 4.1,
  "categoryName": "Animal hospital",
  "address": "No. 463, Chongming Road, East District, Tainan City, Taiwan 701             701台南市東區崇明路463號",
  "locatedIn": null,
  "plusCode": "X6FF+6V East District, Tainan City, Taiwan",
  "website": "facebook.com",
  "phone": "+886 6 260 4733",
  "temporarilyClosed": false,
  "permanentlyClosed": false,
  "rank": 57,
  "placeId": "ChIJWxx__CB0bjQR5x3fLbcLSy4",
  "url": "https://www.google.com/maps/place/%E5%B4%87%E6%84%9B%E5%8B%95%E7%89%A9%E9%86%AB%E9%99%A2/@22.9730437,120.2225106,17z/data=!3m1!4b1!4m5!3m4!1s0x346e7420fc7f1c5b:0x2e4b0bb72ddf1de7!8m2!3d22.9730437!4d120.2246993",
  "location": {
    "lat": 22.9730437,
    "lng": 120.2246993
  },
  "searchString": "臺南市的寵物醫院",
  "openingHours": [
    {
      "day": "Tuesday,",
      "hours": "9:30AM to 8PM"
    },
    {
      "day": "Wednesday,",
      "hours": "9:30AM to 8PM"
    },
    {
      "day": "Thursday",
      "hours": "(Mid-Autumn Festival), 9:30AM to 8PM, Hours might differ"
    },
    {
      "day": "Friday,",
      "hours": "9:30AM to 8PM"
    },
    {
      "day": "Saturday,",
      "hours": "9:30AM to 6PM"
    },
    {
      "day": "Sunday,",
      "hours": "Closed"
    },
    {
      "day": "Monday,",
      "hours": "9:30AM to 8PM"
    }
  ],
  "reviewsCount": 39
},
{
  "title": "慈愛動物醫院-中華院",
  "totalScore": 4,
  "categoryName": "Animal hospital",
  "address": "No. 591, Zhonghua Road, Yongkang District, Tainan City, Taiwan 710             710台南市永康區中華路591號",
  "locatedIn": null,
  "plusCode": "267J+68 Yongkang District, Tainan City, Taiwan",
  "website": "lkah.com.tw",
  "phone": "+886 6 233 9650",
  "temporarilyClosed": false,
  "permanentlyClosed": false,
  "rank": 43,
  "placeId": "ChIJgRfAiN52bjQRYgx3CzmMEHk",
  "url": "https://www.google.com/maps/place/%E6%85%88%E6%84%9B%E5%8B%95%E7%89%A9%E9%86%AB%E9%99%A2-%E4%B8%AD%E8%8F%AF%E9%99%A2/@23.013079,120.2286663,17z/data=!3m1!4b1!4m5!3m4!1s0x346e76de88c01781:0x79108c390b770c62!8m2!3d23.013079!4d120.230855",
  "location": {
    "lat": 23.013079,
    "lng": 120.230855
  },
  "searchString": "臺南市的寵物醫院",
  "openingHours": [
    {
      "day": "Tuesday,",
      "hours": "9AM to 9PM"
    },
    {
      "day": "Wednesday,",
      "hours": "Closed"
    },
    {
      "day": "Thursday",
      "hours": "(Mid-Autumn Festival), 9AM to 9PM, Hours might differ"
    },
    {
      "day": "Friday,",
      "hours": "9AM to 9PM"
    },
    {
      "day": "Saturday,",
      "hours": "9AM to 9PM"
    },
    {
      "day": "Sunday,",
      "hours": "9AM to 9PM"
    },
    {
      "day": "Monday,",
      "hours": "9AM to 9PM"
    }
  ],
  "reviewsCount": 107
},
{
  "title": "佳愛動物醫院",
  "totalScore": 3.5,
  "categoryName": "Animal hospital",
  "address": "No. 167號, Chongming Road, East District, Tainan City, Taiwan 701             701台南市東區崇明路167號",
  "locatedIn": null,
  "plusCode": "X6H9+GM East District, Tainan City, Taiwan",
  "website": null,
  "phone": "+886 6 260 7358",
  "temporarilyClosed": false,
  "permanentlyClosed": false,
  "rank": 51,
  "placeId": "ChIJBUQtAZ12bjQRgSK4uNh_1zA",
  "url": "https://www.google.com/maps/place/%E4%BD%B3%E6%84%9B%E5%8B%95%E7%89%A9%E9%86%AB%E9%99%A2/@22.978791,120.21706,17z/data=!3m1!4b1!4m5!3m4!1s0x346e769d012d4405:0x30d77fd8b8b82281!8m2!3d22.978791!4d120.2192487",
  "location": {
    "lat": 22.978791,
    "lng": 120.2192487
  },
  "searchString": "臺南市的寵物醫院",
  "openingHours": [
    {
      "day": "Tuesday,",
      "hours": "9AM to 9PM"
    },
    {
      "day": "Wednesday,",
      "hours": "9AM to 9PM"
    },
    {
      "day": "Thursday",
      "hours": "(Mid-Autumn Festival), 9AM to 9PM, Hours might differ"
    },
    {
      "day": "Friday,",
      "hours": "9AM to 9PM"
    },
    {
      "day": "Saturday,",
      "hours": "9AM to 9PM"
    },
    {
      "day": "Sunday,",
      "hours": "Closed"
    },
    {
      "day": "Monday,",
      "hours": "9AM to 9PM"
    }
  ],
  "reviewsCount": 68
},
{
  "title": "河童動物醫院",
  "totalScore": 4.7,
  "categoryName": "Animal hospital",
  "address": "No. 615, Ziqiang Road, Yongkang District, Tainan City, Taiwan 710             710台南市永康區自強路615號",
  "locatedIn": null,
  "plusCode": "27M6+X4 Yongkang District, Tainan City, Taiwan",
  "website": null,
  "phone": "+886 6 233 0656",
  "temporarilyClosed": false,
  "permanentlyClosed": false,
  "rank": 56,
  "placeId": "ChIJIyB8qbdwbjQR4qtmduQC9pU",
  "url": "https://www.google.com/maps/place/%E6%B2%B3%E7%AB%A5%E5%8B%95%E7%89%A9%E9%86%AB%E9%99%A2/@23.034935,120.2581153,17z/data=!3m1!4b1!4m5!3m4!1s0x346e70b7a97c2023:0x95f602e47666abe2!8m2!3d23.034935!4d120.260304",
  "location": {
    "lat": 23.034935,
    "lng": 120.260304
  },
  "searchString": "臺南市的寵物醫院",
  "openingHours": [
    {
      "day": "Tuesday,",
      "hours": "9AM to 12PM, 2 to 9PM"
    },
    {
      "day": "Wednesday,",
      "hours": "9AM to 12PM, 2 to 9PM"
    },
    {
      "day": "Thursday",
      "hours": "(Mid-Autumn Festival), 9AM to 12PM, 2 to 9PM, Hours might differ"
    },
    {
      "day": "Friday,",
      "hours": "9AM to 12PM, 2 to 9PM"
    },
    {
      "day": "Saturday,",
      "hours": "9AM to 12PM, 2 to 9PM"
    },
    {
      "day": "Sunday,",
      "hours": "Closed"
    },
    {
      "day": "Monday,",
      "hours": "9AM to 12PM, 2 to 9PM"
    }
  ],
  "reviewsCount": 80
},
{
  "title": "愛犬家動物醫院",
  "totalScore": 4.7,
  "categoryName": "Animal hospital",
  "address": "No. 84號, Section 1, Yian Road, Annan District, Tainan City, Taiwan 709             709台南市安南區怡安路一段84號",
  "locatedIn": null,
  "plusCode": "26R7+77 Annan District, Tainan City, Taiwan",
  "website": null,
  "phone": "+886 6 357 1792",
  "temporarilyClosed": false,
  "permanentlyClosed": false,
  "rank": 52,
  "placeId": "ChIJAZRm5gx3bjQRfvv1sHnR0ec",
  "url": "https://www.google.com/maps/place/%E6%84%9B%E7%8A%AC%E5%AE%B6%E5%8B%95%E7%89%A9%E9%86%AB%E9%99%A2/@23.0407173,120.2110072,17z/data=!3m1!4b1!4m5!3m4!1s0x346e770ce6669401:0xe7d1d179b0f5fb7e!8m2!3d23.0407173!4d120.2131959",
  "location": {
    "lat": 23.0407173,
    "lng": 120.2131959
  },
  "searchString": "臺南市的寵物醫院",
  "openingHours": [
    {
      "day": "Tuesday,",
      "hours": "9:30AM to 9PM"
    },
    {
      "day": "Wednesday,",
      "hours": "9:30AM to 9PM"
    },
    {
      "day": "Thursday",
      "hours": "(Mid-Autumn Festival), 9:30AM to 9PM, Hours might differ"
    },
    {
      "day": "Friday,",
      "hours": "9:30AM to 9PM"
    },
    {
      "day": "Saturday,",
      "hours": "9:30AM to 9PM"
    },
    {
      "day": "Sunday,",
      "hours": "9:30AM to 3PM"
    },
    {
      "day": "Monday,",
      "hours": "9:30AM to 9PM"
    }
  ],
  "reviewsCount": 60
},
{
  "title": "諾比諾比動物醫院",
  "totalScore": 4.7,
  "categoryName": "Animal hospital",
  "address": "No. 130號, Daqiao 1st Street, Yongkang District, Tainan City, Taiwan 710             710台南市永康區大橋一街130號",
  "locatedIn": null,
  "plusCode": "268H+P4 Yongkang District, Tainan City, Taiwan",
  "website": "facebook.com",
  "phone": "+886 6 303 6770",
  "temporarilyClosed": false,
  "permanentlyClosed": false,
  "rank": 58,
  "placeId": "ChIJ5S8IuMl3bjQRtaCVWyS6INo",
  "url": "https://www.google.com/maps/place/%E8%AB%BE%E6%AF%94%E8%AB%BE%E6%AF%94%E5%8B%95%E7%89%A9%E9%86%AB%E9%99%A2/@23.0168311,120.2255676,17z/data=!3m1!4b1!4m5!3m4!1s0x346e77c9b8082fe5:0xda20ba245b95a0b5!8m2!3d23.0168311!4d120.2277563",
  "location": {
    "lat": 23.0168311,
    "lng": 120.2277563
  },
  "searchString": "臺南市的寵物醫院",
  "openingHours": [
    {
      "day": "Tuesday,",
      "hours": "10AM to 1PM, 3 to 9PM"
    },
    {
      "day": "Wednesday,",
      "hours": "10AM to 1PM"
    },
    {
      "day": "Thursday",
      "hours": "(Mid-Autumn Festival), 10AM to 1PM, 3 to 7PM, Hours might differ"
    },
    {
      "day": "Friday,",
      "hours": "10AM to 1PM, 3 to 9PM"
    },
    {
      "day": "Saturday,",
      "hours": "10AM to 1PM, 3 to 9PM"
    },
    {
      "day": "Sunday,",
      "hours": "10AM to 1PM"
    },
    {
      "day": "Monday,",
      "hours": "10AM to 1PM, 3 to 9PM"
    }
  ],
  "reviewsCount": 86
},
{
  "title": "怡安動物醫院",
  "totalScore": 4.3,
  "categoryName": "Animal hospital",
  "address": "No. 27, Zhongzheng North Road, Yongkang District, Tainan City, Taiwan 710             710台南市永康區中正北路27號",
  "locatedIn": null,
  "plusCode": "26RQ+M7 Yongkang District, Tainan City, Taiwan",
  "website": null,
  "phone": "+886 6 254 6815",
  "temporarilyClosed": false,
  "permanentlyClosed": false,
  "rank": 54,
  "placeId": "ChIJrR0UbUZ3bjQRryUEjhKUtkQ",
  "url": "https://www.google.com/maps/place/%E6%80%A1%E5%AE%89%E5%8B%95%E7%89%A9%E9%86%AB%E9%99%A2/@23.041679,120.2359933,17z/data=!3m1!4b1!4m5!3m4!1s0x346e77466d141dad:0x44b694128e0425af!8m2!3d23.041679!4d120.238182",
  "location": {
    "lat": 23.041679,
    "lng": 120.238182
  },
  "searchString": "臺南市的寵物醫院",
  "openingHours": [
    {
      "day": "Tuesday,",
      "hours": "9AM to 12PM, 2 to 9PM"
    },
    {
      "day": "Wednesday,",
      "hours": "9AM to 12PM, 2 to 9PM"
    },
    {
      "day": "Thursday",
      "hours": "(Mid-Autumn Festival), 9AM to 12PM, 2 to 9PM, Hours might differ"
    },
    {
      "day": "Friday,",
      "hours": "9AM to 12PM, 2 to 9PM"
    },
    {
      "day": "Saturday,",
      "hours": "9AM to 12PM, 2 to 9PM"
    },
    {
      "day": "Sunday,",
      "hours": "Closed"
    },
    {
      "day": "Monday,",
      "hours": "9AM to 12PM, 2 to 9PM"
    }
  ],
  "reviewsCount": 31
},
{
  "title": "仁美動物醫院",
  "totalScore": 4.8,
  "categoryName": "Animal hospital",
  "address": "No. 196號, Section 2, Beian Road, Annan District, Tainan City, Taiwan 709             709台南市安南區北安路二段196號",
  "locatedIn": null,
  "plusCode": "26J3+5V Annan District, Tainan City, Taiwan",
  "website": null,
  "phone": "+886 6 283 3377",
  "temporarilyClosed": false,
  "permanentlyClosed": false,
  "rank": 59,
  "placeId": "ChIJKSzp4_52bjQRo2sv6qUrQUY",
  "url": "https://www.google.com/maps/place/%E4%BB%81%E7%BE%8E%E5%8B%95%E7%89%A9%E9%86%AB%E9%99%A2/@23.0304892,120.2025055,17z/data=!3m1!4b1!4m5!3m4!1s0x346e76fee3e92c29:0x46412ba5ea2f6ba3!8m2!3d23.0304892!4d120.2046942",
  "location": {
    "lat": 23.0304892,
    "lng": 120.2046942
  },
  "searchString": "臺南市的寵物醫院",
  "openingHours": [
    {
      "day": "Tuesday,",
      "hours": "9AM to 1PM, 3 to 9PM"
    },
    {
      "day": "Wednesday,",
      "hours": "9AM to 1PM, 3 to 9PM"
    },
    {
      "day": "Thursday",
      "hours": "(Mid-Autumn Festival), 9AM to 1PM, 3 to 9PM, Hours might differ"
    },
    {
      "day": "Friday,",
      "hours": "9AM to 1PM, 3 to 9PM"
    },
    {
      "day": "Saturday,",
      "hours": "9AM to 1PM, 3 to 6PM"
    },
    {
      "day": "Sunday,",
      "hours": "Closed"
    },
    {
      "day": "Monday,",
      "hours": "9AM to 1PM, 3 to 9PM"
    }
  ],
  "reviewsCount": 72
},
{
  "title": "長弘動物醫院",
  "totalScore": 4.6,
  "categoryName": "Animal hospital",
  "address": "No. 139, Zhengqiang Street, Yongkang District, Tainan City, Taiwan 710             710台南市永康區正強街139號",
  "locatedIn": null,
  "plusCode": "27G2+VP Yongkang District, Tainan City, Taiwan",
  "website": "facebook.com",
  "phone": "+886 6 232 3377      phone7",
  "temporarilyClosed": false,
  "permanentlyClosed": false,
  "rank": 3,
  "placeId": "ChIJ8U_FzsxwbjQR0N4WEmRIm5M",
  "url": "https://www.google.com/maps/place/%E9%95%B7%E5%BC%98%E5%8B%95%E7%89%A9%E9%86%AB%E9%99%A2/@23.0272027,120.2496747,17z/data=!3m1!4b1!4m5!3m4!1s0x346e70cccec54ff1:0x939b48641216ded0!8m2!3d23.0272027!4d120.2518634",
  "location": {
    "lat": 23.0272027,
    "lng": 120.2518634
  },
  "searchString": "臺南市的寵物醫院",
  "openingHours": [
    {
      "day": "Tuesday,",
      "hours": "9AM to 8:30PM"
    },
    {
      "day": "Wednesday,",
      "hours": "9AM to 8:30PM"
    },
    {
      "day": "Thursday",
      "hours": "(Mid-Autumn Festival), Closed, Holiday hours"
    },
    {
      "day": "Friday,",
      "hours": "9AM to 8:30PM"
    },
    {
      "day": "Saturday,",
      "hours": "9AM to 8:30PM"
    },
    {
      "day": "Sunday,",
      "hours": "Closed"
    },
    {
      "day": "Monday,",
      "hours": "9AM to 8:30PM"
    }
  ],
  "reviewsCount": 283
},
{
  "title": "永明動物醫院",
  "totalScore": 4.5,
  "categoryName": "Animal hospital",
  "address": "No. 65, Yongming Street, Yongkang District, Tainan City, Taiwan 710             710台南市永康區永明街65號",
  "locatedIn": null,
  "plusCode": "27G6+53 Yongkang District, Tainan City, Taiwan",
  "website": "facebook.com",
  "phone": "+886 6 202 8613",
  "temporarilyClosed": false,
  "permanentlyClosed": false,
  "rank": 18,
  "placeId": "ChIJGyEnHM9wbjQRYlXkIlLKvC4",
  "url": "https://www.google.com/maps/place/%E6%B0%B8%E6%98%8E%E5%8B%95%E7%89%A9%E9%86%AB%E9%99%A2/@23.0254133,120.2579811,17z/data=!3m1!4b1!4m5!3m4!1s0x346e70cf1c27211b:0x2ebcca5222e45562!8m2!3d23.0254133!4d120.2601698",
  "location": {
    "lat": 23.0254133,
    "lng": 120.2601698
  },
  "searchString": "臺南市的寵物醫院",
  "openingHours": [
    {
      "day": "Tuesday,",
      "hours": "9AM to 1PM, 3 to 9PM"
    },
    {
      "day": "Wednesday,",
      "hours": "9AM to 1PM, 3 to 9PM"
    },
    {
      "day": "Thursday",
      "hours": "(Mid-Autumn Festival), Closed, Holiday hours"
    },
    {
      "day": "Friday,",
      "hours": "9AM to 1PM, 3 to 9PM"
    },
    {
      "day": "Saturday,",
      "hours": "9AM to 1PM, 3 to 9PM"
    },
    {
      "day": "Sunday,",
      "hours": "9AM to 1PM, 3 to 9PM"
    },
    {
      "day": "Monday,",
      "hours": "Closed"
    }
  ],
  "reviewsCount": 79
},
{
  "title": "杰禾動物醫院",
  "totalScore": 4.4,
  "categoryName": "Animal hospital",
  "address": "No. 133-3, Renhe Road, East District, Tainan City, Taiwan 701             701台南市東區仁和路133-3號",
  "locatedIn": null,
  "plusCode": "X69M+RP East District, Tainan City, Taiwan",
  "website": "facebook.com",
  "phone": "+886 6 290 9119",
  "temporarilyClosed": false,
  "permanentlyClosed": false,
  "rank": 20,
  "placeId": "ChIJH7IZIxx0bjQRoY_NOPWeJBk",
  "url": "https://www.google.com/maps/place/%E6%9D%B0%E7%A6%BE%E5%8B%95%E7%89%A9%E9%86%AB%E9%99%A2/@22.9695086,120.2321472,17z/data=!3m1!4b1!4m5!3m4!1s0x346e741c2319b21f:0x19249ef538cd8fa1!8m2!3d22.9695086!4d120.2343359",
  "location": {
    "lat": 22.9695086,
    "lng": 120.2343359
  },
  "searchString": "臺南市的寵物醫院",
  "openingHours": [
    {
      "day": "Tuesday,",
      "hours": "9:30AM to 12PM, 2 to 9PM"
    },
    {
      "day": "Wednesday,",
      "hours": "9:30AM to 12PM, 2 to 9PM"
    },
    {
      "day": "Thursday",
      "hours": "(Mid-Autumn Festival), 5 to 9PM, Hours might differ"
    },
    {
      "day": "Friday,",
      "hours": "9:30AM to 12PM, 2 to 9PM"
    },
    {
      "day": "Saturday,",
      "hours": "9:30AM to 6PM"
    },
    {
      "day": "Sunday,",
      "hours": "Closed"
    },
    {
      "day": "Monday,",
      "hours": "9:30AM to 12PM, 2 to 9PM"
    }
  ],
  "reviewsCount": 86
},
{
  "title": "全國動物醫院 永康分院",
  "totalScore": 3.7,
  "categoryName": "Animal hospital",
  "address": "710, Taiwan, Tainan City, Yongkang District, Zhonghua Road, 103號2樓             710台南市永康區中華路103號2樓",
  "locatedIn": null,
  "plusCode": "262M+QW Yongkang District, Tainan City, Taiwan",
  "website": "vet.com.tw",
  "phone": "+886 6 313 3116      phone4",
  "temporarilyClosed": false,
  "permanentlyClosed": false,
  "rank": 17,
  "placeId": "ChIJAyUT0St3bjQRbGRrU5s5LM0",
  "url": "https://www.google.com/maps/place/%E5%85%A8%E5%9C%8B%E5%8B%95%E7%89%A9%E9%86%AB%E9%99%A2+%E6%B0%B8%E5%BA%B7%E5%88%86%E9%99%A2/@23.001898,120.2325763,17z/data=!3m1!4b1!4m5!3m4!1s0x346e772bd1132503:0xcd2c399b536b646c!8m2!3d23.001898!4d120.234765",
  "location": {
    "lat": 23.001898,
    "lng": 120.234765
  },
  "searchString": "臺南市的寵物醫院",
  "openingHours": [
    {
      "day": "Tuesday,",
      "hours": "Open 24 hours"
    },
    {
      "day": "Wednesday,",
      "hours": "Open 24 hours"
    },
    {
      "day": "Thursday",
      "hours": "(Mid-Autumn Festival), Open 24 hours, Hours might differ"
    },
    {
      "day": "Friday,",
      "hours": "Open 24 hours"
    },
    {
      "day": "Saturday,",
      "hours": "Open 24 hours"
    },
    {
      "day": "Sunday,",
      "hours": "Open 24 hours"
    },
    {
      "day": "Monday,",
      "hours": "Open 24 hours"
    }
  ],
  "reviewsCount": 78
},
{
  "title": "慈愛動物醫院-台南總院",
  "totalScore": 3.6,
  "categoryName": "Animal hospital",
  "address": "No. 473號, Section 1, Ximen Rd, South District, Tainan City, Taiwan 70245             70245台南市南區西門路一段473號",
  "locatedIn": null,
  "plusCode": "X5JW+QX South District, Tainan City, Taiwan",
  "website": "lkah.com.tw",
  "phone": "+886 6 220 3166",
  "temporarilyClosed": false,
  "permanentlyClosed": false,
  "rank": 2,
  "placeId": "ChIJDTbilnh2bjQR57AnKDfQFxI",
  "url": "https://www.google.com/maps/place/%E6%85%88%E6%84%9B%E5%8B%95%E7%89%A9%E9%86%AB%E9%99%A2-%E5%8F%B0%E5%8D%97%E7%B8%BD%E9%99%A2/@22.9819739,120.1953076,17z/data=!3m1!4b1!4m5!3m4!1s0x346e767896e2360d:0x1217d0372827b0e7!8m2!3d22.9819739!4d120.1974963",
  "location": {
    "lat": 22.9819739,
    "lng": 120.1974963
  },
  "searchString": "臺南市的寵物醫院",
  "openingHours": [
    {
      "day": "Tuesday,",
      "hours": "Open 24 hours"
    },
    {
      "day": "Wednesday,",
      "hours": "Open 24 hours"
    },
    {
      "day": "Thursday",
      "hours": "(Mid-Autumn Festival), Open 24 hours, Hours might differ"
    },
    {
      "day": "Friday,",
      "hours": "Open 24 hours"
    },
    {
      "day": "Saturday,",
      "hours": "Open 24 hours"
    },
    {
      "day": "Sunday,",
      "hours": "Open 24 hours"
    },
    {
      "day": "Monday,",
      "hours": "Open 24 hours"
    }
  ],
  "reviewsCount": 338
},
{
  "title": "成功動物醫院",
  "totalScore": 4.4,
  "categoryName": "Animal hospital",
  "address": "No. 223號, Section 4, Zhangrong Road, North District, Tainan City, Taiwan 704             704台南市北區長榮路四段223號",
  "locatedIn": null,
  "plusCode": "264C+W8 North District, Tainan City, Taiwan",
  "website": null,
  "phone": "+886 6 234 1325",
  "temporarilyClosed": false,
  "permanentlyClosed": false,
  "rank": 11,
  "placeId": "ChIJ212Lau92bjQRJjWvBjlGhFU",
  "url": "https://www.google.com/maps/place/%E6%88%90%E5%8A%9F%E5%8B%95%E7%89%A9%E9%86%AB%E9%99%A2/@23.0072911,120.2186561,17z/data=!3m1!4b1!4m5!3m4!1s0x346e76ef6a8b5ddb:0x5584463906af3526!8m2!3d23.0072911!4d120.2208448",
  "location": {
    "lat": 23.0072911,
    "lng": 120.2208448
  },
  "searchString": "臺南市的寵物醫院",
  "openingHours": [
    {
      "day": "Tuesday,",
      "hours": "9:30AM to 9PM"
    },
    {
      "day": "Wednesday,",
      "hours": "9:30AM to 9PM"
    },
    {
      "day": "Thursday",
      "hours": "(Mid-Autumn Festival), 9:30AM to 9PM, Hours might differ"
    },
    {
      "day": "Friday,",
      "hours": "9:30AM to 9PM"
    },
    {
      "day": "Saturday,",
      "hours": "9:30AM to 9PM"
    },
    {
      "day": "Sunday,",
      "hours": "10AM to 5PM"
    },
    {
      "day": "Monday,",
      "hours": "9:30AM to 9PM"
    }
  ],
  "reviewsCount": 83
},
{
  "title": "祥泰動物醫院",
  "totalScore": 4.7,
  "categoryName": "Animal hospital",
  "address": "No. 340號, Dawan Road, Yongkang District, Tainan City, Taiwan 710             710台南市永康區大灣路340號",
  "locatedIn": null,
  "plusCode": "2748+FQ Yongkang District, Tainan City, Taiwan",
  "website": null,
  "phone": "+886 6 273 1858",
  "temporarilyClosed": false,
  "permanentlyClosed": false,
  "rank": 7,
  "placeId": "ChIJswfA6CZxbjQRj0MjQpBQFWU",
  "url": "https://www.google.com/maps/place/%E7%A5%A5%E6%B3%B0%E5%8B%95%E7%89%A9%E9%86%AB%E9%99%A2/@23.0061792,120.2647032,17z/data=!3m1!4b1!4m5!3m4!1s0x346e7126e8c007b3:0x651550904223438f!8m2!3d23.0061792!4d120.2668919",
  "location": {
    "lat": 23.0061792,
    "lng": 120.2668919
  },
  "searchString": "臺南市的寵物醫院",
  "openingHours": [
    {
      "day": "Tuesday,",
      "hours": "9AM to 9PM"
    },
    {
      "day": "Wednesday,",
      "hours": "9AM to 9PM"
    },
    {
      "day": "Thursday",
      "hours": "(Mid-Autumn Festival), 9AM to 5PM, Holiday hours"
    },
    {
      "day": "Friday,",
      "hours": "9AM to 9PM"
    },
    {
      "day": "Saturday,",
      "hours": "9AM to 9PM"
    },
    {
      "day": "Sunday,",
      "hours": "10AM to 12PM"
    },
    {
      "day": "Monday,",
      "hours": "9AM to 9PM"
    }
  ],
  "reviewsCount": 308
},
{
  "title": "立奇動物醫院",
  "totalScore": 4.8,
  "categoryName": "Animal hospital",
  "address": "No. 34號, Donghe Road, East District, Tainan City, Taiwan 701             701台南市東區東和路34號",
  "locatedIn": null,
  "plusCode": "X6XH+FP East District, Tainan City, Taiwan",
  "website": "facebook.com",
  "phone": "+886 6 200 5797",
  "temporarilyClosed": false,
  "permanentlyClosed": false,
  "rank": 4,
  "placeId": "ChIJC6bfBM5yBxQRvu5XeBCjrpI",
  "url": "https://www.google.com/maps/place/%E7%AB%8B%E5%A5%87%E5%8B%95%E7%89%A9%E9%86%AB%E9%99%A2/@22.9986359,120.2270958,17z/data=!3m1!4b1!4m5!3m4!1s0x140772ce04dfa60b:0x92aea3107857eebe!8m2!3d22.9986359!4d120.2292845",
  "location": {
    "lat": 22.9986359,
    "lng": 120.2292845
  },
  "searchString": "臺南市的寵物醫院",
  "openingHours": [
    {
      "day": "Tuesday,",
      "hours": "10AM to 12PM, 4 to 8:30PM"
    },
    {
      "day": "Wednesday,",
      "hours": "10AM to 12PM, 4 to 8:30PM"
    },
    {
      "day": "Thursday",
      "hours": "(Mid-Autumn Festival), 10AM to 12PM, 4 to 8:30PM, Hours might differ"
    },
    {
      "day": "Friday,",
      "hours": "10AM to 12PM, 4 to 8:30PM"
    },
    {
      "day": "Saturday,",
      "hours": "10AM to 4PM"
    },
    {
      "day": "Sunday,",
      "hours": "Closed"
    },
    {
      "day": "Monday,",
      "hours": "10AM to 12PM, 4 to 8:30PM"
    }
  ],
  "reviewsCount": 229
},
{
  "title": "啄木鳥動物醫院",
  "totalScore": 4.4,
  "categoryName": "Animal hospital",
  "address": "No. 243號, Section 2, Lin'an Road, North District, Tainan City, Taiwan 704             704台南市北區臨安路二段243號",
  "locatedIn": null,
  "plusCode": "2632+Q8 North District, Tainan City, Taiwan",
  "website": "facebook.com",
  "phone": "+886 6 350 5902",
  "temporarilyClosed": false,
  "permanentlyClosed": false,
  "rank": 9,
  "placeId": "ChIJ6yPjjcF3bjQRQg1Gqt-Ioyc",
  "url": "https://www.google.com/maps/place/%E5%95%84%E6%9C%A8%E9%B3%A5%E5%8B%95%E7%89%A9%E9%86%AB%E9%99%A2/@23.0043811,120.1986272,17z/data=!3m1!4b1!4m5!3m4!1s0x346e77c18de323eb:0x27a388dfaa460d42!8m2!3d23.0043811!4d120.2008159",
  "location": {
    "lat": 23.0043811,
    "lng": 120.2008159
  },
  "searchString": "臺南市的寵物醫院",
  "openingHours": [
    {
      "day": "Tuesday,",
      "hours": "9:30 to 11:30AM, 2 to 5:30PM, 6:30 to 8:30PM"
    },
    {
      "day": "Wednesday,",
      "hours": "9:30 to 11:30AM, 2 to 5:30PM, 6:30 to 8:30PM"
    },
    {
      "day": "Thursday",
      "hours": "(Mid-Autumn Festival), 9:30 to 11:30AM, 2 to 5:30PM, 6:30 to 8:30PM, Hours might differ"
    },
    {
      "day": "Friday,",
      "hours": "9:30 to 11:30AM, 2 to 5:30PM, 6:30 to 8:30PM"
    },
    {
      "day": "Saturday,",
      "hours": "9:30 to 11:30AM, 2 to 5:30PM, 6:30 to 8:30PM"
    },
    {
      "day": "Sunday,",
      "hours": "9:30 to 11:30AM, 2 to 5:30PM"
    },
    {
      "day": "Monday,",
      "hours": "9:30 to 11:30AM, 2 to 5:30PM, 6:30 to 8:30PM"
    }
  ],
  "reviewsCount": 94
},
{
  "title": "Lo-ka Animal Hospital",
  "totalScore": 4.6,
  "categoryName": "Animal hospital",
  "address": "701, Taiwan, Tainan City, East District, Chongshan Road, 233-5號號             701台南市東區崇善路233-5號號",
  "locatedIn": null,
  "plusCode": "X6HG+G7 East District, Tainan City, Taiwan",
  "website": null,
  "phone": "+886 6 290 7519",
  "temporarilyClosed": false,
  "permanentlyClosed": false,
  "rank": 8,
  "placeId": "ChIJfQIpHJ92bjQRYHZOZY5jVJc",
  "url": "https://www.google.com/maps/place/Lo-ka+Animal+Hospital/@22.9788045,120.2235338,17z/data=!3m1!4b1!4m5!3m4!1s0x346e769f1c29027d:0x9754638e654e7660!8m2!3d22.9788045!4d120.2257225",
  "location": {
    "lat": 22.9788045,
    "lng": 120.2257225
  },
  "searchString": "臺南市的寵物醫院",
  "openingHours": [
    {
      "day": "Tuesday,",
      "hours": "Closed"
    },
    {
      "day": "Wednesday,",
      "hours": "9:30AM to 1PM, 3 to 9PM"
    },
    {
      "day": "Thursday",
      "hours": "(Mid-Autumn Festival), 9:30AM to 1PM, 3 to 9PM, Hours might differ"
    },
    {
      "day": "Friday,",
      "hours": "9:30AM to 1PM, 3 to 9PM"
    },
    {
      "day": "Saturday,",
      "hours": "9:30AM to 1PM, 3 to 9PM"
    },
    {
      "day": "Sunday,",
      "hours": "9:30AM to 5PM"
    },
    {
      "day": "Monday,",
      "hours": "9:30AM to 1PM, 3 to 9PM"
    }
  ],
  "reviewsCount": 59
},
{
  "title": "Kiwi Animal Hospital",
  "totalScore": 3.9,
  "categoryName": "Animal hospital",
  "address": "No. 377, Pingtong Road, Anping District, Tainan City, Taiwan 70848             70848台南市安平區平通路377號",
  "locatedIn": null,
  "plusCode": "X5VG+3V Anping District, Tainan City, Taiwan",
  "website": "kiwiah.blogspot.com",
  "phone": "+886 6 298 5911",
  "temporarilyClosed": false,
  "permanentlyClosed": false,
  "rank": 15,
  "placeId": "ChIJv5B32Wd2bjQR23r3MgSgdQ4",
  "url": "https://www.google.com/maps/place/Kiwi+Animal+Hospital/@22.9926813,120.174946,17z/data=!3m1!4b1!4m5!3m4!1s0x346e7667d97790bf:0xe75a00432f77adb!8m2!3d22.9926813!4d120.1771347",
  "location": {
    "lat": 22.9926813,
    "lng": 120.1771347
  },
  "searchString": "臺南市的寵物醫院",
  "openingHours": [
    {
      "day": "Tuesday,",
      "hours": "10AM to 9PM"
    },
    {
      "day": "Wednesday,",
      "hours": "10AM to 5PM"
    },
    {
      "day": "Thursday",
      "hours": "(Mid-Autumn Festival), 10AM to 9PM, Hours might differ"
    },
    {
      "day": "Friday,",
      "hours": "10AM to 9PM"
    },
    {
      "day": "Saturday,",
      "hours": "10AM to 5PM"
    },
    {
      "day": "Sunday,",
      "hours": "10AM to 5PM"
    },
    {
      "day": "Monday,",
      "hours": "10AM to 9PM"
    }
  ],
  "reviewsCount": 156
},
{
  "title": "永佳動物醫院",
  "totalScore": 4.7,
  "categoryName": "Animal hospital",
  "address": "No. 440, Section 2, Haidian Road, Annan District, Tainan City, Taiwan 709             709台南市安南區海佃路二段440號",
  "locatedIn": null,
  "plusCode": "25QQ+M6 Annan District, Tainan City, Taiwan",
  "website": null,
  "phone": "+886 6 255 7717",
  "temporarilyClosed": false,
  "permanentlyClosed": false,
  "rank": 19,
  "placeId": "ChIJndkoKbp3bjQR7kKtHXb4h2g",
  "url": "https://www.google.com/maps/place/%E6%B0%B8%E4%BD%B3%E5%8B%95%E7%89%A9%E9%86%AB%E9%99%A2/@23.0391601,120.1858595,17z/data=!3m1!4b1!4m5!3m4!1s0x346e77ba2928d99d:0x6887f8761dad42ee!8m2!3d23.0391601!4d120.1880482",
  "location": {
    "lat": 23.0391601,
    "lng": 120.1880482
  },
  "searchString": "臺南市的寵物醫院",
  "openingHours": [
    {
      "day": "Tuesday,",
      "hours": "9AM to 9:30PM"
    },
    {
      "day": "Wednesday,",
      "hours": "9AM to 9:30PM"
    },
    {
      "day": "Thursday",
      "hours": "(Mid-Autumn Festival), 9AM to 9:30PM, Hours might differ"
    },
    {
      "day": "Friday,",
      "hours": "9AM to 9:30PM"
    },
    {
      "day": "Saturday,",
      "hours": "9AM to 9:30PM"
    },
    {
      "day": "Sunday,",
      "hours": "Closed"
    },
    {
      "day": "Monday,",
      "hours": "9AM to 9:30PM"
    }
  ],
  "reviewsCount": 145
},
{
  "title": "大灣動物醫院",
  "totalScore": 4.4,
  "categoryName": "Animal hospital",
  "address": "No. 610號, Dawan Road, Yongkang District, Tainan City, Taiwan 710             710台南市永康區大灣路610號",
  "locatedIn": null,
  "plusCode": "2727+HP Yongkang District, Tainan City, Taiwan",
  "website": null,
  "phone": "+886 6 273 2119",
  "temporarilyClosed": false,
  "permanentlyClosed": false,
  "rank": 6,
  "placeId": "ChIJOQZVbSVxbjQRjuwqr8i0VjE",
  "url": "https://www.google.com/maps/place/%E5%A4%A7%E7%81%A3%E5%8B%95%E7%89%A9%E9%86%AB%E9%99%A2/@23.001386,120.2621814,17z/data=!3m1!4b1!4m5!3m4!1s0x346e71256d550639:0x3156b4c8af2aec8e!8m2!3d23.001386!4d120.2643701",
  "location": {
    "lat": 23.001386,
    "lng": 120.2643701
  },
  "searchString": "臺南市的寵物醫院",
  "openingHours": [
    {
      "day": "Tuesday,",
      "hours": "9AM to 12PM, 5 to 9PM"
    },
    {
      "day": "Wednesday,",
      "hours": "6 to 9PM"
    },
    {
      "day": "Thursday",
      "hours": "(Mid-Autumn Festival), 9AM to 12PM, 5 to 9PM, Hours might differ"
    },
    {
      "day": "Friday,",
      "hours": "9AM to 12PM, 5 to 9PM"
    },
    {
      "day": "Saturday,",
      "hours": "9AM to 9PM"
    },
    {
      "day": "Sunday,",
      "hours": "9AM to 12PM"
    },
    {
      "day": "Monday,",
      "hours": "9AM to 12PM, 5 to 9PM"
    }
  ],
  "reviewsCount": 249
},
{
  "title": "諾亞動物醫院",
  "totalScore": 3.7,
  "categoryName": "Veterinarian",
  "address": "No. 297號, Chenggong Rd, West Central District, Tainan City, Taiwan 700             700台南市中西區成功路297號",
  "locatedIn": null,
  "plusCode": "X6X2+VC West Central District, Tainan City, Taiwan",
  "website": "ky-animal.com.tw",
  "phone": "+886 6 221 7291      phone8",
  "temporarilyClosed": false,
  "permanentlyClosed": false,
  "rank": 14,
  "placeId": "ChIJr0lz5GB2bjQRigWMaZsquYw",
  "url": "https://www.google.com/maps/place/%E8%AB%BE%E4%BA%9E%E5%8B%95%E7%89%A9%E9%86%AB%E9%99%A2/@22.9996695,120.1988375,17z/data=!3m1!4b1!4m5!3m4!1s0x346e7660e47349af:0x8cb92a9b698c058a!8m2!3d22.9996695!4d120.2010262",
  "location": {
    "lat": 22.9996695,
    "lng": 120.2010262
  },
  "searchString": "臺南市的寵物醫院",
  "openingHours": [
    {
      "day": "Tuesday,",
      "hours": "9AM to 10PM"
    },
    {
      "day": "Wednesday,",
      "hours": "9AM to 10PM"
    },
    {
      "day": "Thursday",
      "hours": "(Mid-Autumn Festival), 9AM to 10PM, Hours might differ"
    },
    {
      "day": "Friday,",
      "hours": "9AM to 10PM"
    },
    {
      "day": "Saturday,",
      "hours": "9AM to 10PM"
    },
    {
      "day": "Sunday,",
      "hours": "Closed"
    },
    {
      "day": "Monday,",
      "hours": "9AM to 10PM"
    }
  ],
  "reviewsCount": 189
},
{
  "title": "廣慈動物醫院",
  "totalScore": 4.6,
  "categoryName": "Animal hospital",
  "address": "No. 199號, Section 2, Fuqian Road, West Central District, Tainan City, Taiwan 700             700台南市中西區府前路二段199號",
  "locatedIn": null,
  "plusCode": "X5RR+JW West Central District, Tainan City, Taiwan",
  "website": "facebook.com",
  "phone": "+886 6 228 8126      phone4",
  "temporarilyClosed": false,
  "permanentlyClosed": false,
  "rank": 10,
  "placeId": "ChIJU0HlanB2bjQRqhdP391hkeo",
  "url": "https://www.google.com/maps/place/%E5%BB%A3%E6%85%88%E5%8B%95%E7%89%A9%E9%86%AB%E9%99%A2/@22.991548,120.1900743,17z/data=!3m1!4b1!4m5!3m4!1s0x346e76706ae54153:0xea9161dddf4f17aa!8m2!3d22.991548!4d120.192263",
  "location": {
    "lat": 22.991548,
    "lng": 120.192263
  },
  "searchString": "臺南市的寵物醫院",
  "openingHours": [
    {
      "day": "Tuesday,",
      "hours": "8:30AM to 8:30PM"
    },
    {
      "day": "Wednesday,",
      "hours": "8:30AM to 8:30PM"
    },
    {
      "day": "Thursday",
      "hours": "(Mid-Autumn Festival), 8:30AM to 5:30PM, Hours might differ"
    },
    {
      "day": "Friday,",
      "hours": "8:30AM to 8:30PM"
    },
    {
      "day": "Saturday,",
      "hours": "8:30AM to 12PM, 3 to 5:30PM"
    },
    {
      "day": "Sunday,",
      "hours": "Closed"
    },
    {
      "day": "Monday,",
      "hours": "8:30AM to 8:30PM"
    }
  ],
  "reviewsCount": 220
},
{
  "title": "佳諾寵物醫院",
  "totalScore": 4.3,
  "categoryName": "Animal hospital",
  "address": "No. 685, Zhonghua Road, Yongkang District, Tainan City, Taiwan 710             710台南市永康區中華路685號",
  "locatedIn": null,
  "plusCode": "268H+FG Yongkang District, Tainan City, Taiwan",
  "website": "m.facebook.com",
  "phone": "+886 6 231 3399",
  "temporarilyClosed": false,
  "permanentlyClosed": false,
  "rank": 5,
  "placeId": "ChIJT5BUTd52bjQR95_Gzs5DREo",
  "url": "https://www.google.com/maps/place/%E4%BD%B3%E8%AB%BE%E5%AF%B5%E7%89%A9%E9%86%AB%E9%99%A2/@23.0161746,120.2266408,17z/data=!3m1!4b1!4m5!3m4!1s0x346e76de4d54904f:0x4a4443cecec69ff7!8m2!3d23.0161746!4d120.2288295",
  "location": {
    "lat": 23.0161746,
    "lng": 120.2288295
  },
  "searchString": "臺南市的寵物醫院",
  "openingHours": [
    {
      "day": "Tuesday,",
      "hours": "9AM to 12PM, 1:30 to 9PM"
    },
    {
      "day": "Wednesday,",
      "hours": "9AM to 12PM, 1:30 to 9PM"
    },
    {
      "day": "Thursday",
      "hours": "(Mid-Autumn Festival), 9AM to 12PM, 1:30 to 9PM, Hours might differ"
    },
    {
      "day": "Friday,",
      "hours": "9AM to 12PM, 1:30 to 9PM"
    },
    {
      "day": "Saturday,",
      "hours": "9AM to 12PM, 1:30 to 6PM"
    },
    {
      "day": "Sunday,",
      "hours": "Closed"
    },
    {
      "day": "Monday,",
      "hours": "9AM to 12PM, 1:30 to 9PM"
    }
  ],
  "reviewsCount": 163
},
{
  "title": "名倫動物醫院",
  "totalScore": 4.8,
  "categoryName": "Animal hospital",
  "address": "No. 208號, Yuping Road, Anping District, Tainan City, Taiwan 70843             70843台南市安平區育平路208號",
  "locatedIn": null,
  "plusCode": "X5Q8+XR Anping District, Tainan City, Taiwan",
  "website": "facebook.com",
  "phone": "+886 6 298 1697",
  "temporarilyClosed": false,
  "permanentlyClosed": false,
  "rank": 13,
  "placeId": "ChIJe4_ZAwd2bjQR8yMRZxB2q5U",
  "url": "https://www.google.com/maps/place/%E5%90%8D%E5%80%AB%E5%8B%95%E7%89%A9%E9%86%AB%E9%99%A2/@22.989969,120.1648223,17z/data=!3m1!4b1!4m5!3m4!1s0x346e760703d98f7b:0x95ab7610671123f3!8m2!3d22.989969!4d120.167011",
  "location": {
    "lat": 22.989969,
    "lng": 120.167011
  },
  "searchString": "臺南市的寵物醫院",
  "openingHours": [
    {
      "day": "Tuesday,",
      "hours": "Closed"
    },
    {
      "day": "Wednesday,",
      "hours": "9AM to 12PM, 3 to 6PM, 7 to 9PM"
    },
    {
      "day": "Thursday",
      "hours": "(Mid-Autumn Festival), 9AM to 12PM, 3 to 6PM, 7 to 9PM, Hours might differ"
    },
    {
      "day": "Friday,",
      "hours": "9AM to 12PM, 3 to 6PM, 7 to 9PM"
    },
    {
      "day": "Saturday,",
      "hours": "9AM to 12PM, 3 to 6PM, 7 to 9PM"
    },
    {
      "day": "Sunday,",
      "hours": "9AM to 12PM, 3 to 6PM, 7 to 9PM"
    },
    {
      "day": "Monday,",
      "hours": "9AM to 12PM, 3 to 6PM, 7 to 9PM"
    }
  ],
  "reviewsCount": 76
},
{
  "title": "甜心動物醫院",
  "totalScore": 4.8,
  "categoryName": "Veterinarian",
  "address": "No. 56號, Lane 1, Shengli Street, Yongkang District, Tainan City, Taiwan 710             710台南市永康區勝利街1巷56號",
  "locatedIn": null,
  "plusCode": "262H+FH Yongkang District, Tainan City, Taiwan",
  "website": null,
  "phone": "+886 6 312 2799",
  "temporarilyClosed": false,
  "permanentlyClosed": false,
  "rank": 116,
  "placeId": "ChIJT49QAsJ2bjQRaxw2_qh9rpE",
  "url": "https://www.google.com/maps/place/%E7%94%9C%E5%BF%83%E5%8B%95%E7%89%A9%E9%86%AB%E9%99%A2/@23.0012461,120.2266939,17z/data=!3m1!4b1!4m5!3m4!1s0x346e76c202508f4f:0x91ae7da8fe361c6b!8m2!3d23.0012461!4d120.2288826",
  "location": {
    "lat": 23.0012461,
    "lng": 120.2288826
  },
  "searchString": "臺南市的寵物醫院",
  "openingHours": [
    {
      "day": "Tuesday,",
      "hours": "9AM to 9PM"
    },
    {
      "day": "Wednesday,",
      "hours": "9AM to 9PM"
    },
    {
      "day": "Thursday",
      "hours": "(Mid-Autumn Festival), 9AM to 9PM, Hours might differ"
    },
    {
      "day": "Friday,",
      "hours": "9AM to 9PM"
    },
    {
      "day": "Saturday,",
      "hours": "9AM to 9PM"
    },
    {
      "day": "Sunday,",
      "hours": "9AM to 8PM"
    },
    {
      "day": "Monday,",
      "hours": "9AM to 9PM"
    }
  ],
  "reviewsCount": 19
}]