[{
  "title": "佳恩動物診所",
  "totalScore": "",
  "categoryName": "Veterinarian",
  "address": "No. 568號, Zhongxing Road, Guangfu Township, Hualien County, Taiwan 976             976花蓮縣光復鄉中興路568號",
  "locatedIn": null,
  "plusCode": "MCCF+35 Guangfu Township, Hualien County, Taiwan",
  "website": null,
  "phone": "+886 3 870 4636",
  "temporarilyClosed": false,
  "permanentlyClosed": false,
  "rank": 19,
  "placeId": "ChIJK_XS0pOzaDQRfkbOMrPFvGk",
  "url": "https://www.google.com/maps/place/%E4%BD%B3%E6%81%A9%E5%8B%95%E7%89%A9%E8%A8%BA%E6%89%80/@23.6702209,121.4207938,17z/data=!3m1!4b1!4m5!3m4!1s0x3468b393d2d2f52b:0x69bcc5b332ce467e!8m2!3d23.6702209!4d121.4229825",
  "location": {
    "lat": 23.6702209,
    "lng": 121.4229825
  },
  "searchString": "花蓮縣的寵物醫院"
},
{
  "title": "中華動物醫院",
  "totalScore": 4,
  "categoryName": "Animal hospital",
  "address": "No. 325號之7, Zhonghua Road, Hualien City, Hualien County, Taiwan 970             970花蓮縣花蓮市中華路325號之7號",
  "locatedIn": null,
  "plusCode": "XHFX+XC Hualien City, Hualien County, Taiwan",
  "website": null,
  "phone": "+886 3 833 5123",
  "temporarilyClosed": false,
  "permanentlyClosed": false,
  "rank": 8,
  "placeId": "ChIJl5IgjZafaDQRmqEzQg6lU1Q",
  "url": "https://www.google.com/maps/place/%E4%B8%AD%E8%8F%AF%E5%8B%95%E7%89%A9%E9%86%AB%E9%99%A2/@23.9749425,121.5963665,17z/data=!3m1!4b1!4m5!3m4!1s0x34689f968d209297:0x5453a50e4233a19a!8m2!3d23.9749425!4d121.5985552",
  "location": {
    "lat": 23.9749425,
    "lng": 121.5985552
  },
  "searchString": "花蓮縣的寵物醫院",
  "openingHours": [
    {
      "day": "Wednesday,",
      "hours": "10AM to 9PM"
    },
    {
      "day": "Thursday",
      "hours": "(Mid-Autumn Festival), 10AM to 9PM, Hours might differ"
    },
    {
      "day": "Friday,",
      "hours": "10AM to 9PM"
    },
    {
      "day": "Saturday,",
      "hours": "10AM to 9PM"
    },
    {
      "day": "Sunday,",
      "hours": "Closed"
    },
    {
      "day": "Monday,",
      "hours": "10AM to 9PM"
    },
    {
      "day": "Tuesday,",
      "hours": "10AM to 9PM"
    }
  ],
  "reviewsCount": 91
},
{
  "title": "蕙康動物醫院",
  "totalScore": 4.7,
  "categoryName": "Veterinarian",
  "address": "No. 113-1號, Xinyi Street, Hualien City, Hualien County, Taiwan 970             970花蓮縣花蓮市信義街113-1號",
  "locatedIn": null,
  "plusCode": "XJG2+RR Hualien City, Hualien County, Taiwan",
  "website": null,
  "phone": "+886 3 835 2122",
  "temporarilyClosed": false,
  "permanentlyClosed": false,
  "rank": 12,
  "placeId": "ChIJGYiyvr2faDQRpYfDcV7IDb0",
  "url": "https://www.google.com/maps/place/%E8%95%99%E5%BA%B7%E5%8B%95%E7%89%A9%E9%86%AB%E9%99%A2/@23.9770237,121.5998259,17z/data=!3m1!4b1!4m5!3m4!1s0x34689fbdbeb28819:0xbd0dc85e71c387a5!8m2!3d23.9770237!4d121.6020146",
  "location": {
    "lat": 23.9770237,
    "lng": 121.6020146
  },
  "searchString": "花蓮縣的寵物醫院",
  "openingHours": [
    {
      "day": "Wednesday,",
      "hours": "9:30 to 11:30AM, 2 to 5:30PM, 7 to 8:30PM"
    },
    {
      "day": "Thursday",
      "hours": "(Mid-Autumn Festival), 9:30 to 11:30AM, 2 to 5:30PM, 7 to 8:30PM, Hours might differ"
    },
    {
      "day": "Friday,",
      "hours": "9:30 to 11:30AM, 2 to 5:30PM, 7 to 8:30PM"
    },
    {
      "day": "Saturday,",
      "hours": "9:30 to 11:30AM"
    },
    {
      "day": "Sunday,",
      "hours": "Closed"
    },
    {
      "day": "Monday,",
      "hours": "9:30 to 11:30AM, 2 to 5:30PM, 7 to 8:30PM"
    },
    {
      "day": "Tuesday,",
      "hours": "9:30 to 11:30AM, 2 to 5:30PM, 7 to 8:30PM"
    }
  ],
  "reviewsCount": 96
},
{
  "title": "蕙康動物醫院",
  "totalScore": "",
  "categoryName": "Hospital",
  "address": "No. 113之1號, Xinyi Street, Hualien City, Hualien County, Taiwan 970             970花蓮縣花蓮市信義街113之1號",
  "locatedIn": null,
  "plusCode": "XJG2+RQ Hualien City, Hualien County, Taiwan",
  "website": null,
  "phone": "+886 3 835 2122",
  "temporarilyClosed": false,
  "permanentlyClosed": false,
  "rank": 18,
  "placeId": "ChIJgxkihpWfaDQRdirMcjxb8ic",
  "url": "https://www.google.com/maps/place/%E8%95%99%E5%BA%B7%E5%8B%95%E7%89%A9%E9%86%AB%E9%99%A2/@23.9770076,121.5997589,17z/data=!3m1!4b1!4m5!3m4!1s0x34689f9586221983:0x27f25b3c72cc2a76!8m2!3d23.9770076!4d121.6019476",
  "location": {
    "lat": 23.9770076,
    "lng": 121.6019476
  },
  "searchString": "花蓮縣的寵物醫院"
},
{
  "title": "心愛動物醫院",
  "totalScore": 4.4,
  "categoryName": "Veterinarian",
  "address": "No. 202, Section 2, Taiping Road, Caotun Township, Nantou County, Taiwan 542             542南投縣草屯鎮太平路二段202號",
  "locatedIn": null,
  "plusCode": "XMFM+JC Caotun Township, Nantou County, Taiwan",
  "website": "facebook.com",
  "phone": "+886 4 9235 7078",
  "temporarilyClosed": false,
  "permanentlyClosed": false,
  "rank": 38,
  "placeId": "ChIJtbf_3WswaTQREHa062v8J8c",
  "url": "https://www.google.com/maps/place/%E5%BF%83%E6%84%9B%E5%8B%95%E7%89%A9%E9%86%AB%E9%99%A2/@23.9740776,120.6814109,17z/data=!3m1!4b1!4m5!3m4!1s0x3469306bddffb7b5:0xc727fc6bebb47610!8m2!3d23.9740776!4d120.6835996",
  "location": {
    "lat": 23.9740776,
    "lng": 120.6835996
  },
  "searchString": "花蓮縣的寵物醫院",
  "openingHours": [
    {
      "day": "Wednesday,",
      "hours": "9AM to 12PM, 3 to 9PM"
    },
    {
      "day": "Thursday",
      "hours": "(Mid-Autumn Festival), 9AM to 12PM, 3 to 9PM, Hours might differ"
    },
    {
      "day": "Friday,",
      "hours": "9AM to 12PM, 3 to 9PM"
    },
    {
      "day": "Saturday,",
      "hours": "9AM to 12PM, 3 to 9PM"
    },
    {
      "day": "Sunday,",
      "hours": "9AM to 12PM, 3 to 9PM"
    },
    {
      "day": "Monday,",
      "hours": "9AM to 12PM, 3 to 9PM"
    },
    {
      "day": "Tuesday,",
      "hours": "9AM to 12PM, 3 to 9PM"
    }
  ],
  "reviewsCount": 109
},
{
  "title": "雅富動物醫院",
  "totalScore": 3.5,
  "categoryName": "Animal hospital",
  "address": "No. 80號, Guanghua Street, Puli Township, Nantou County, Taiwan 545             545南投縣埔里鎮光華街80號",
  "locatedIn": null,
  "plusCode": "XX68+58 Puli Township, Nantou County, Taiwan",
  "website": "facebook.com",
  "phone": "+886 4 9242 2585      phone3",
  "temporarilyClosed": false,
  "permanentlyClosed": false,
  "rank": 39,
  "placeId": "ChIJa0Z0fJzZaDQRwgFXIXZHA60",
  "url": "https://www.google.com/maps/place/%E9%9B%85%E5%AF%8C%E5%8B%95%E7%89%A9%E9%86%AB%E9%99%A2/@23.9604879,120.9635805,17z/data=!3m1!4b1!4m5!3m4!1s0x3468d99c7c74466b:0xad034776215701c2!8m2!3d23.9604879!4d120.9657692",
  "location": {
    "lat": 23.9604879,
    "lng": 120.9657692
  },
  "searchString": "花蓮縣的寵物醫院",
  "openingHours": [
    {
      "day": "Wednesday,",
      "hours": "9AM to 12PM, 2 to 8:30PM"
    },
    {
      "day": "Thursday",
      "hours": "(Mid-Autumn Festival), 9AM to 12PM, 2 to 8:30PM, Hours might differ"
    },
    {
      "day": "Friday,",
      "hours": "9AM to 12PM, 2 to 8:30PM"
    },
    {
      "day": "Saturday,",
      "hours": "9AM to 12PM, 2 to 6PM"
    },
    {
      "day": "Sunday,",
      "hours": "Closed"
    },
    {
      "day": "Monday,",
      "hours": "9AM to 12PM, 2 to 8:30PM"
    },
    {
      "day": "Tuesday,",
      "hours": "9AM to 12PM, 2 to 8:30PM"
    }
  ],
  "reviewsCount": 123
},
{
  "title": "上海動物醫院",
  "totalScore": 4.4,
  "categoryName": "Animal hospital",
  "address": "No. 63, Shanghai Street, Hualien City, Hualien County, Taiwan 970             970花蓮縣花蓮市上海街63號",
  "locatedIn": null,
  "plusCode": "XJF2+5V Hualien City, Hualien County, Taiwan",
  "website": null,
  "phone": "+886 3 834 1853",
  "temporarilyClosed": false,
  "permanentlyClosed": false,
  "rank": 7,
  "placeId": "ChIJj4mQZpSfaDQRiZFolwKIk0U",
  "url": "https://www.google.com/maps/place/%E4%B8%8A%E6%B5%B7%E5%8B%95%E7%89%A9%E9%86%AB%E9%99%A2/@23.9729342,121.599969,17z/data=!3m1!4b1!4m5!3m4!1s0x34689f946690898f:0x4593880297689189!8m2!3d23.9729342!4d121.6021577",
  "location": {
    "lat": 23.9729342,
    "lng": 121.6021577
  },
  "searchString": "花蓮縣的寵物醫院",
  "openingHours": [
    {
      "day": "Wednesday,",
      "hours": "9AM to 12PM, 2 to 4PM, 6 to 9PM"
    },
    {
      "day": "Thursday",
      "hours": "(Mid-Autumn Festival), 9AM to 12PM, 2 to 4PM, 6 to 9PM, Hours might differ"
    },
    {
      "day": "Friday,",
      "hours": "9AM to 12PM, 2 to 4PM, 6 to 9PM"
    },
    {
      "day": "Saturday,",
      "hours": "Closed"
    },
    {
      "day": "Sunday,",
      "hours": "6 to 9PM"
    },
    {
      "day": "Monday,",
      "hours": "9AM to 12PM, 2 to 4PM, 6 to 9PM"
    },
    {
      "day": "Tuesday,",
      "hours": "9AM to 12PM, 2 to 4PM, 6 to 9PM"
    }
  ],
  "reviewsCount": 33
},
{
  "title": "楊動物醫院",
  "totalScore": 3.9,
  "categoryName": "Veterinarian",
  "address": "No. 552, Zhongyuan Road, Hualien City, Hualien County, Taiwan 970             970花蓮縣花蓮市中原路552號",
  "locatedIn": null,
  "plusCode": "XHFW+5C Hualien City, Hualien County, Taiwan",
  "website": null,
  "phone": "+886 3 833 7960      phone3",
  "temporarilyClosed": false,
  "permanentlyClosed": false,
  "rank": 13,
  "placeId": "ChIJky38z5CfaDQRWW3SLMoX6PU",
  "url": "https://www.google.com/maps/place/%E6%A5%8A%E5%8B%95%E7%89%A9%E9%86%AB%E9%99%A2/@23.9729007,121.5938963,17z/data=!3m1!4b1!4m5!3m4!1s0x34689f90cffc2d93:0xf5e817ca2cd26d59!8m2!3d23.9729007!4d121.596085",
  "location": {
    "lat": 23.9729007,
    "lng": 121.596085
  },
  "searchString": "花蓮縣的寵物醫院",
  "reviewsCount": 27
},
{
  "title": "永安動物醫院",
  "totalScore": 4.7,
  "categoryName": "Hospital",
  "address": "No. 81號, Section 1, Ji'an Road, Ji’an Township, Hualien County, Taiwan 973             973花蓮縣吉安鄉吉安路一段81號",
  "locatedIn": null,
  "plusCode": "XHQF+H9 Ji’an Township, Hualien County, Taiwan",
  "website": "facebook.com",
  "phone": "+886 3 856 3566",
  "temporarilyClosed": false,
  "permanentlyClosed": false,
  "rank": 16,
  "placeId": "ChIJP6ch2A2faDQRc-jEAWEoklM",
  "url": "https://www.google.com/maps/place/%E6%B0%B8%E5%AE%89%E5%8B%95%E7%89%A9%E9%86%AB%E9%99%A2/@23.9889965,121.5711865,17z/data=!3m1!4b1!4m5!3m4!1s0x34689f0dd821a73f:0x5392286101c4e873!8m2!3d23.9889965!4d121.5733752",
  "location": {
    "lat": 23.9889965,
    "lng": 121.5733752
  },
  "searchString": "花蓮縣的寵物醫院",
  "openingHours": [
    {
      "day": "Wednesday,",
      "hours": "9AM to 12PM, 2 to 9PM"
    },
    {
      "day": "Thursday",
      "hours": "(Mid-Autumn Festival), 9AM to 12PM, 2 to 9PM, Hours might differ"
    },
    {
      "day": "Friday,",
      "hours": "9AM to 12PM, 2 to 9PM"
    },
    {
      "day": "Saturday,",
      "hours": "2 to 9PM"
    },
    {
      "day": "Sunday,",
      "hours": "Closed"
    },
    {
      "day": "Monday,",
      "hours": "9AM to 12PM, 2 to 9PM"
    },
    {
      "day": "Tuesday,",
      "hours": "9AM to 12PM, 2 to 9PM"
    }
  ],
  "reviewsCount": 47
},
{
  "title": "花蓮動物醫院",
  "totalScore": 4.5,
  "categoryName": "Animal hospital",
  "address": "No. 118號, Guofu 10th Street, Hualien City, Hualien County, Taiwan 970             970花蓮縣花蓮市國富十街118號",
  "locatedIn": null,
  "plusCode": "XHRW+MH Hualien City, Hualien County, Taiwan",
  "website": null,
  "phone": "+886 3 857 1650",
  "temporarilyClosed": false,
  "permanentlyClosed": false,
  "rank": 1,
  "placeId": "ChIJM69qU7CfaDQRizWR0ygP0F4",
  "url": "https://www.google.com/maps/place/%E8%8A%B1%E8%93%AE%E5%8B%95%E7%89%A9%E9%86%AB%E9%99%A2/@23.991695,121.5942982,17z/data=!3m1!4b1!4m5!3m4!1s0x34689fb0536aaf33:0x5ed00f28d391358b!8m2!3d23.991695!4d121.5964869",
  "location": {
    "lat": 23.991695,
    "lng": 121.5964869
  },
  "searchString": "花蓮縣的寵物醫院",
  "openingHours": [
    {
      "day": "Wednesday,",
      "hours": "9AM to 12PM, 2 to 5:30PM, 7 to 9PM"
    },
    {
      "day": "Thursday",
      "hours": "(Mid-Autumn Festival), 9AM to 12PM, 2 to 5:30PM, 7 to 9PM, Hours might differ"
    },
    {
      "day": "Friday,",
      "hours": "9AM to 12PM, 2 to 5:30PM, 7 to 9PM"
    },
    {
      "day": "Saturday,",
      "hours": "9AM to 12PM, 2 to 5:30PM, 7 to 9PM"
    },
    {
      "day": "Sunday,",
      "hours": "Closed"
    },
    {
      "day": "Monday,",
      "hours": "9AM to 12PM, 2 to 5:30PM, 7 to 9PM"
    },
    {
      "day": "Tuesday,",
      "hours": "9AM to 12PM, 2 to 5:30PM, 7 to 9PM"
    }
  ],
  "reviewsCount": 141
},
{
  "title": "綠樁動物醫院",
  "totalScore": 4.4,
  "categoryName": "Animal hospital",
  "address": "No. 71-10, Mingli Road, Hualien City, Hualien County, Taiwan 970             970花蓮縣花蓮市明禮路71-10號",
  "locatedIn": null,
  "plusCode": "XJJ5+X7 Hualien City, Hualien County, Taiwan",
  "website": "facebook.com",
  "phone": "+886 3 836 0850",
  "temporarilyClosed": false,
  "permanentlyClosed": false,
  "rank": 3,
  "placeId": "ChIJJUowIMefaDQRrJ6C92aw8CE",
  "url": "https://www.google.com/maps/place/%E7%B6%A0%E6%A8%81%E5%8B%95%E7%89%A9%E9%86%AB%E9%99%A2/@23.9824164,121.6060098,17z/data=!3m1!4b1!4m5!3m4!1s0x34689fc720304a25:0x21f0b066f7829eac!8m2!3d23.9824164!4d121.6081985",
  "location": {
    "lat": 23.9824164,
    "lng": 121.6081985
  },
  "searchString": "花蓮縣的寵物醫院",
  "openingHours": [
    {
      "day": "Wednesday,",
      "hours": "9AM to 9PM"
    },
    {
      "day": "Thursday",
      "hours": "(Mid-Autumn Festival), 9AM to 5PM, Holiday hours"
    },
    {
      "day": "Friday,",
      "hours": "9AM to 5PM"
    },
    {
      "day": "Saturday,",
      "hours": "9AM to 5PM"
    },
    {
      "day": "Sunday,",
      "hours": "9AM to 5PM"
    },
    {
      "day": "Monday,",
      "hours": "9AM to 9PM"
    },
    {
      "day": "Tuesday,",
      "hours": "9AM to 9PM"
    }
  ],
  "reviewsCount": 139
},
{
  "title": "家馨動物醫院",
  "totalScore": 4.3,
  "categoryName": "Animal hospital",
  "address": "No. 2, Lane 389, Jixingyi Street, Ji’an Township, Hualien County, Taiwan 973             973花蓮縣吉安鄉吉興一街389巷2號",
  "locatedIn": null,
  "plusCode": "XHFG+HV Ji’an Township, Hualien County, Taiwan",
  "website": null,
  "phone": "+886 3 852 3990",
  "temporarilyClosed": false,
  "permanentlyClosed": false,
  "rank": 9,
  "placeId": "ChIJv7KNM3efaDQRM8nZ-Vn2Ab8",
  "url": "https://www.google.com/maps/place/%E5%AE%B6%E9%A6%A8%E5%8B%95%E7%89%A9%E9%86%AB%E9%99%A2/@23.9739679,121.5750218,17z/data=!3m1!4b1!4m5!3m4!1s0x34689f77338db2bf:0xbf01f659f9d9c933!8m2!3d23.9739679!4d121.5772105",
  "location": {
    "lat": 23.9739679,
    "lng": 121.5772105
  },
  "searchString": "花蓮縣的寵物醫院",
  "openingHours": [
    {
      "day": "Wednesday,",
      "hours": "9AM to 12PM, 3 to 8PM"
    },
    {
      "day": "Thursday",
      "hours": "(Mid-Autumn Festival), 9AM to 12PM, 3 to 8PM, Hours might differ"
    },
    {
      "day": "Friday,",
      "hours": "9AM to 12PM, 3 to 8PM"
    },
    {
      "day": "Saturday,",
      "hours": "9AM to 12PM, 3 to 8PM"
    },
    {
      "day": "Sunday,",
      "hours": "Closed"
    },
    {
      "day": "Monday,",
      "hours": "9AM to 12PM, 3 to 8PM"
    },
    {
      "day": "Tuesday,",
      "hours": "Closed"
    }
  ],
  "reviewsCount": 42
},
{
  "title": "友博動物醫院",
  "totalScore": 4.7,
  "categoryName": "Animal hospital",
  "address": "No. 100號, Guolian 2nd Road, Hualien City, Hualien County, Taiwan 970             970花蓮縣花蓮市國聯二路100號",
  "locatedIn": null,
  "plusCode": "XJQ2+JW Hualien City, Hualien County, Taiwan",
  "website": null,
  "phone": "+886 3 833 6288      phone3",
  "temporarilyClosed": false,
  "permanentlyClosed": false,
  "rank": 2,
  "placeId": "ChIJvdLK1ZWfaDQR8WRZTgKh_fw",
  "url": "https://www.google.com/maps/place/%E5%8F%8B%E5%8D%9A%E5%8B%95%E7%89%A9%E9%86%AB%E9%99%A2/@23.989032,121.6000823,17z/data=!3m1!4b1!4m5!3m4!1s0x34689f95d5cad2bd:0xfcfda1024e5964f1!8m2!3d23.989032!4d121.602271",
  "location": {
    "lat": 23.989032,
    "lng": 121.602271
  },
  "searchString": "花蓮縣的寵物醫院",
  "openingHours": [
    {
      "day": "Wednesday,",
      "hours": "9AM to 8PM"
    },
    {
      "day": "Thursday",
      "hours": "(Mid-Autumn Festival), 9AM to 8PM, Hours might differ"
    },
    {
      "day": "Friday,",
      "hours": "9AM to 8PM"
    },
    {
      "day": "Saturday,",
      "hours": "9AM to 8PM"
    },
    {
      "day": "Sunday,",
      "hours": "Closed"
    },
    {
      "day": "Monday,",
      "hours": "9AM to 8PM"
    },
    {
      "day": "Tuesday,",
      "hours": "9AM to 8PM"
    }
  ],
  "reviewsCount": 235
},
{
  "title": "有愛動物醫院",
  "totalScore": 4.7,
  "categoryName": "Animal hospital",
  "address": "No. 120, Section 2, Zili Road, Ji’an Township, Hualien County, Taiwan 973             973花蓮縣吉安鄉自立路二段120號",
  "locatedIn": null,
  "plusCode": "XHMV+PW Ji’an Township, Hualien County, Taiwan",
  "website": "business.site",
  "phone": "+886 3 846 6288",
  "temporarilyClosed": false,
  "permanentlyClosed": false,
  "rank": 15,
  "placeId": "ChIJa_gfgVKfaDQRmszhZc1DTK4",
  "url": "https://www.google.com/maps/place/%E6%9C%89%E6%84%9B%E5%8B%95%E7%89%A9%E9%86%AB%E9%99%A2/@23.9843044,121.5926674,17z/data=!3m1!4b1!4m5!3m4!1s0x34689f52811ff86b:0xae4c43cd65e1cc9a!8m2!3d23.9843044!4d121.5948561",
  "location": {
    "lat": 23.9843044,
    "lng": 121.5948561
  },
  "searchString": "花蓮縣的寵物醫院",
  "openingHours": [
    {
      "day": "Wednesday,",
      "hours": "9AM to 12PM, 2 to 6PM, 7 to 9PM"
    },
    {
      "day": "Thursday",
      "hours": "(Mid-Autumn Festival), 9AM to 12PM, 2 to 6PM, 7 to 9PM, Hours might differ"
    },
    {
      "day": "Friday,",
      "hours": "9AM to 12PM, 2 to 6PM, 7 to 9PM"
    },
    {
      "day": "Saturday,",
      "hours": "9AM to 12PM, 2 to 6PM, 7 to 9PM"
    },
    {
      "day": "Sunday,",
      "hours": "Closed"
    },
    {
      "day": "Monday,",
      "hours": "9AM to 12PM, 2 to 6PM, 7 to 9PM"
    },
    {
      "day": "Tuesday,",
      "hours": "9AM to 12PM, 2 to 6PM, 7 to 9PM"
    }
  ],
  "reviewsCount": 34
},
{
  "title": "祐安動物醫院",
  "totalScore": 4.4,
  "categoryName": "Animal hospital",
  "address": "No. 296, Hai'an Road, Hualien City, Hualien County, Taiwan 973             973花蓮縣花蓮市海岸路296號",
  "locatedIn": null,
  "plusCode": "XH3R+8M Hualien City, Hualien County, Taiwan",
  "website": null,
  "phone": "+886 3 852 1079",
  "temporarilyClosed": false,
  "permanentlyClosed": false,
  "rank": 14,
  "placeId": "ChIJ0znm0yigaDQR2aQuD94FN6U",
  "url": "https://www.google.com/maps/place/%E7%A5%90%E5%AE%89%E5%8B%95%E7%89%A9%E9%86%AB%E9%99%A2/@23.953335,121.5894577,17z/data=!3m1!4b1!4m5!3m4!1s0x3468a028d3e639d3:0xa53705de0f2ea4d9!8m2!3d23.953335!4d121.5916464",
  "location": {
    "lat": 23.953335,
    "lng": 121.5916464
  },
  "searchString": "花蓮縣的寵物醫院",
  "openingHours": [
    {
      "day": "Wednesday,",
      "hours": "9AM to 12PM, 2 to 5PM, 7 to 9PM"
    },
    {
      "day": "Thursday",
      "hours": "(Mid-Autumn Festival), 9AM to 12PM, 2 to 5PM, 7 to 9PM, Hours might differ"
    },
    {
      "day": "Friday,",
      "hours": "9AM to 12PM, 2 to 5PM, 7 to 9PM"
    },
    {
      "day": "Saturday,",
      "hours": "9AM to 12PM, 2 to 5PM"
    },
    {
      "day": "Sunday,",
      "hours": "Closed"
    },
    {
      "day": "Monday,",
      "hours": "9AM to 12PM, 2 to 5PM, 7 to 9PM"
    },
    {
      "day": "Tuesday,",
      "hours": "9AM to 12PM, 2 to 5PM, 7 to 9PM"
    }
  ],
  "reviewsCount": 97
},
{
  "title": "高橋動物醫院",
  "totalScore": 4.3,
  "categoryName": "Animal hospital",
  "address": "No. 142號, Zhongzheng Road, Hualien City, Hualien County, Taiwan 970             970花蓮縣花蓮市中正路142號",
  "locatedIn": null,
  "plusCode": "XHCW+6X Hualien City, Hualien County, Taiwan",
  "website": "takahashi.tw",
  "phone": "+886 3 835 8792",
  "temporarilyClosed": false,
  "permanentlyClosed": false,
  "rank": 4,
  "placeId": "ChIJeQOLBpGfaDQR0xb5jre9uu0",
  "url": "https://www.google.com/maps/place/%E9%AB%98%E6%A9%8B%E5%8B%95%E7%89%A9%E9%86%AB%E9%99%A2/@23.9705863,121.5952456,17z/data=!3m1!4b1!4m5!3m4!1s0x34689f91068b0379:0xedbabdb78ef916d3!8m2!3d23.9705863!4d121.5974343",
  "location": {
    "lat": 23.9705863,
    "lng": 121.5974343
  },
  "searchString": "花蓮縣的寵物醫院",
  "openingHours": [
    {
      "day": "Wednesday,",
      "hours": "9AM to 8:30PM"
    },
    {
      "day": "Thursday",
      "hours": "(Mid-Autumn Festival), 9AM to 8:30PM, Hours might differ"
    },
    {
      "day": "Friday,",
      "hours": "9AM to 8:30PM"
    },
    {
      "day": "Saturday,",
      "hours": "9AM to 4:30PM"
    },
    {
      "day": "Sunday,",
      "hours": "9AM to 12PM, 1:45 to 4:30PM"
    },
    {
      "day": "Monday,",
      "hours": "9AM to 12PM, 1:45 to 4:30PM, 6:15 to 9PM"
    },
    {
      "day": "Tuesday,",
      "hours": "9AM to 8:30PM"
    }
  ],
  "reviewsCount": 207
},
{
  "title": "Jianguo Animal Hospital",
  "totalScore": 4.5,
  "categoryName": "Veterinarian",
  "address": "No. 9, Section 1, Jianguo Rd, Ji’an Township, Hualien County, Taiwan 973             973花蓮縣吉安鄉建國路一段9號",
  "locatedIn": null,
  "plusCode": "XHMW+VG Ji’an Township, Hualien County, Taiwan",
  "website": null,
  "phone": "+886 3 856 5715",
  "temporarilyClosed": false,
  "permanentlyClosed": false,
  "rank": 10,
  "placeId": "ChIJc7rJcbufaDQRhNI7r-DKuJM",
  "url": "https://www.google.com/maps/place/Jianguo+Animal+Hospital/@23.984713,121.5941103,17z/data=!3m1!4b1!4m5!3m4!1s0x34689fbb71c9ba73:0x93b8cae0af3bd284!8m2!3d23.984713!4d121.596299",
  "location": {
    "lat": 23.984713,
    "lng": 121.596299
  },
  "searchString": "花蓮縣的寵物醫院",
  "openingHours": [
    {
      "day": "Wednesday,",
      "hours": "9:30AM to 12:30PM, 3 to 8PM"
    },
    {
      "day": "Thursday",
      "hours": "(Mid-Autumn Festival), 9:30AM to 12:30PM, 3 to 8PM, Hours might differ"
    },
    {
      "day": "Friday,",
      "hours": "9:30AM to 12:30PM, 3 to 8PM"
    },
    {
      "day": "Saturday,",
      "hours": "9:30AM to 12:30PM, 3 to 8PM"
    },
    {
      "day": "Sunday,",
      "hours": "Closed"
    },
    {
      "day": "Monday,",
      "hours": "Closed"
    },
    {
      "day": "Tuesday,",
      "hours": "9:30AM to 12:30PM, 3 to 8PM"
    }
  ],
  "reviewsCount": 162
},
{
  "title": "玉里動物醫院",
  "totalScore": 4.4,
  "categoryName": "Animal hospital",
  "address": "No. 120號, Guangfu Road, Yuli Township, Hualien County, Taiwan 981             981花蓮縣玉里鎮光復路120號",
  "locatedIn": null,
  "plusCode": "88J7+GH Yuli Township, Hualien County, Taiwan",
  "website": null,
  "phone": "+886 3 888 9479",
  "temporarilyClosed": false,
  "permanentlyClosed": false,
  "rank": 5,
  "placeId": "ChIJ8SjGgnxqbzQRRmxtBW3yYGc",
  "url": "https://www.google.com/maps/place/%E7%8E%89%E9%87%8C%E5%8B%95%E7%89%A9%E9%86%AB%E9%99%A2/@23.3313597,121.311753,17z/data=!3m1!4b1!4m5!3m4!1s0x346f6a7c82c628f1:0x6760f26d056d6c46!8m2!3d23.3313597!4d121.3139417",
  "location": {
    "lat": 23.3313597,
    "lng": 121.3139417
  },
  "searchString": "花蓮縣的寵物醫院",
  "openingHours": [
    {
      "day": "Wednesday,",
      "hours": "9AM to 8PM"
    },
    {
      "day": "Thursday",
      "hours": "(Mid-Autumn Festival), 9AM to 8PM, Hours might differ"
    },
    {
      "day": "Friday,",
      "hours": "9AM to 8PM"
    },
    {
      "day": "Saturday,",
      "hours": "Closed"
    },
    {
      "day": "Sunday,",
      "hours": "Closed"
    },
    {
      "day": "Monday,",
      "hours": "9AM to 8PM"
    },
    {
      "day": "Tuesday,",
      "hours": "9AM to 8PM"
    }
  ],
  "reviewsCount": 56
},
{
  "title": "新和動物醫院",
  "totalScore": 4.4,
  "categoryName": "Animal hospital",
  "address": "No. 363, Hai'an Road, Ji’an Township, Hualien County, Taiwan 973             973花蓮縣吉安鄉海岸路363號",
  "locatedIn": null,
  "plusCode": "XH3R+5P Ji’an Township, Hualien County, Taiwan",
  "website": "right-pet.cc",
  "phone": "+886 3 853 8672",
  "temporarilyClosed": false,
  "permanentlyClosed": false,
  "rank": 11,
  "placeId": "ChIJddEtLS-gaDQRmD-lj0wpAmk",
  "url": "https://www.google.com/maps/place/%E6%96%B0%E5%92%8C%E5%8B%95%E7%89%A9%E9%86%AB%E9%99%A2/@23.9529926,121.5896056,17z/data=!3m1!4b1!4m5!3m4!1s0x3468a02f2d2dd175:0x6902294c8fa53f98!8m2!3d23.9529926!4d121.5917943",
  "location": {
    "lat": 23.9529926,
    "lng": 121.5917943
  },
  "searchString": "花蓮縣的寵物醫院",
  "openingHours": [
    {
      "day": "Wednesday,",
      "hours": "8:30AM to 8:30PM"
    },
    {
      "day": "Thursday",
      "hours": "(Mid-Autumn Festival), 8:30AM to 8:30PM, Hours might differ"
    },
    {
      "day": "Friday,",
      "hours": "8:30AM to 8:30PM"
    },
    {
      "day": "Saturday,",
      "hours": "8:30AM to 8:30PM"
    },
    {
      "day": "Sunday,",
      "hours": "9AM to 4PM"
    },
    {
      "day": "Monday,",
      "hours": "Closed"
    },
    {
      "day": "Tuesday,",
      "hours": "8:30AM to 8:30PM"
    }
  ],
  "reviewsCount": 14
},
{
  "title": "中原家畜醫院",
  "totalScore": 3.7,
  "categoryName": "Veterinarian",
  "address": "No. 438, Zhongshan Road, Hualien City, Hualien County, Taiwan 970             970花蓮縣花蓮市中山路438號",
  "locatedIn": null,
  "plusCode": "XJQ2+79 Hualien City, Hualien County, Taiwan",
  "website": null,
  "phone": "+886 3 834 1857",
  "temporarilyClosed": false,
  "permanentlyClosed": false,
  "rank": 17,
  "placeId": "ChIJYRVCX7efaDQRnx6cDc039g8",
  "url": "https://www.google.com/maps/place/%E4%B8%AD%E5%8E%9F%E5%AE%B6%E7%95%9C%E9%86%AB%E9%99%A2/@23.988164,121.5987483,17z/data=!3m1!4b1!4m5!3m4!1s0x34689fb75f421561:0xff637cd0d9c1e9f!8m2!3d23.988164!4d121.600937",
  "location": {
    "lat": 23.988164,
    "lng": 121.600937
  },
  "searchString": "花蓮縣的寵物醫院",
  "openingHours": [
    {
      "day": "Wednesday,",
      "hours": "9AM to 8PM"
    },
    {
      "day": "Thursday",
      "hours": "(Mid-Autumn Festival), 9AM to 8PM, Hours might differ"
    },
    {
      "day": "Friday,",
      "hours": "9AM to 8PM"
    },
    {
      "day": "Saturday,",
      "hours": "9AM to 8PM"
    },
    {
      "day": "Sunday,",
      "hours": "Closed"
    },
    {
      "day": "Monday,",
      "hours": "Closed"
    },
    {
      "day": "Tuesday,",
      "hours": "9AM to 8PM"
    }
  ],
  "reviewsCount": 7
},
{
  "title": "人人動物醫院",
  "totalScore": 4.3,
  "categoryName": "Animal hospital",
  "address": "970, Taiwan, Hualien County, Hualien City, Linsen Road, 67號號             970花蓮縣花蓮市林森路67號號",
  "locatedIn": null,
  "plusCode": "XHGW+CX Hualien City, Hualien County, Taiwan",
  "website": null,
  "phone": "+886 3 835 5305",
  "temporarilyClosed": false,
  "permanentlyClosed": false,
  "rank": 6,
  "placeId": "ChIJi_khRsCfaDQRcl7pciJChqI",
  "url": "https://www.google.com/maps/place/%E4%BA%BA%E4%BA%BA%E5%8B%95%E7%89%A9%E9%86%AB%E9%99%A2/@23.976066,121.5952033,17z/data=!3m1!4b1!4m5!3m4!1s0x34689fc04621f98b:0xa286422272e95e72!8m2!3d23.976066!4d121.597392",
  "location": {
    "lat": 23.976066,
    "lng": 121.597392
  },
  "searchString": "花蓮縣的寵物醫院",
  "openingHours": [
    {
      "day": "Wednesday,",
      "hours": "9AM to 9PM"
    },
    {
      "day": "Thursday",
      "hours": "(Mid-Autumn Festival), 9AM to 9PM, Hours might differ"
    },
    {
      "day": "Friday,",
      "hours": "9AM to 9PM"
    },
    {
      "day": "Saturday,",
      "hours": "9AM to 9PM"
    },
    {
      "day": "Sunday,",
      "hours": "9AM to 12PM"
    },
    {
      "day": "Monday,",
      "hours": "9AM to 9PM"
    },
    {
      "day": "Tuesday,",
      "hours": "9AM to 9PM"
    }
  ],
  "reviewsCount": 56
},
{
  "title": "和平動物醫院",
  "totalScore": 4.4,
  "categoryName": "Hospital",
  "address": "No. 60, Heping Road, Yuli Township, Hualien County, Taiwan 981             981花蓮縣玉里鎮和平路60號",
  "locatedIn": null,
  "plusCode": "88J7+VR Yuli Township, Hualien County, Taiwan",
  "website": null,
  "phone": "+886 3 898 0378",
  "temporarilyClosed": false,
  "permanentlyClosed": false,
  "rank": 20,
  "placeId": "ChIJeag0hHtqbzQRJa9OEH4QSDk",
  "url": "https://www.google.com/maps/place/%E5%92%8C%E5%B9%B3%E5%8B%95%E7%89%A9%E9%86%AB%E9%99%A2/@23.3322133,121.3124038,17z/data=!3m1!4b1!4m5!3m4!1s0x346f6a7b8434a879:0x3948107e104eaf25!8m2!3d23.3322133!4d121.3145925",
  "location": {
    "lat": 23.3322133,
    "lng": 121.3145925
  },
  "searchString": "花蓮縣的寵物醫院",
  "openingHours": [
    {
      "day": "Wednesday,",
      "hours": "9:30AM to 12PM, 2 to 8PM"
    },
    {
      "day": "Thursday",
      "hours": "(Mid-Autumn Festival), 9:30AM to 12PM, 2 to 8PM, Hours might differ"
    },
    {
      "day": "Friday,",
      "hours": "9:30AM to 12PM, 2 to 8PM"
    },
    {
      "day": "Saturday,",
      "hours": "9:30AM to 12PM, 2 to 5:30PM"
    },
    {
      "day": "Sunday,",
      "hours": "Closed"
    },
    {
      "day": "Monday,",
      "hours": "9:30AM to 12PM, 2 to 8PM"
    },
    {
      "day": "Tuesday,",
      "hours": "9:30AM to 12PM, 2 to 8PM"
    }
  ],
  "reviewsCount": 24
}]