[{
  "title": "健生動物醫院",
  "totalScore": 4.4,
  "categoryName": "Animal hospital",
  "address": "No. 141號, Section 2, Huanshi Road, Zhunan Township, Miaoli County, Taiwan 350             350苗栗縣竹南鎮環市路二段141號",
  "locatedIn": null,
  "plusCode": "MVP9+5H Zhunan Township, Miaoli County, Taiwan",
  "website": null,
  "phone": "+886 3 746 0943",
  "temporarilyClosed": false,
  "permanentlyClosed": false,
  "rank": 9,
  "placeId": "ChIJO82OvhmzaTQRCKDAU3wU1X0",
  "url": "https://www.google.com/maps/place/%E5%81%A5%E7%94%9F%E5%8B%95%E7%89%A9%E9%86%AB%E9%99%A2/@24.6854847,120.8667564,17z/data=!3m1!4b1!4m5!3m4!1s0x3469b319be8ecd3b:0x7dd5147c53c0a008!8m2!3d24.6854847!4d120.8689451",
  "location": {
    "lat": 24.6854847,
    "lng": 120.8689451
  },
  "searchString": "苗栗縣的動物醫院",
  "openingHours": [
    {
      "day": "Tuesday,",
      "hours": "9AM to 8:30PM"
    },
    {
      "day": "Wednesday,",
      "hours": "9AM to 8:30PM"
    },
    {
      "day": "Thursday",
      "hours": "(Mid-Autumn Festival), 9AM to 8:30PM, Hours might differ"
    },
    {
      "day": "Friday,",
      "hours": "9AM to 8:30PM"
    },
    {
      "day": "Saturday,",
      "hours": "9AM to 8:30PM"
    },
    {
      "day": "Sunday,",
      "hours": "Closed"
    },
    {
      "day": "Monday,",
      "hours": "9AM to 8:30PM"
    }
  ],
  "reviewsCount": 37
},
{
  "title": "永昌動物醫院",
  "totalScore": 3.6,
  "categoryName": "Animal hospital",
  "address": "No. 29號, Zhigong Road, Miaoli City, Miaoli County, Taiwan 360             360苗栗縣苗栗市至公路29號",
  "locatedIn": null,
  "plusCode": "HR49+RV Miaoli City, Miaoli County, Taiwan",
  "website": null,
  "phone": "+886 3 732 1531",
  "temporarilyClosed": false,
  "permanentlyClosed": false,
  "rank": 10,
  "placeId": "ChIJ3WelX_araTQRNpe_BPfqNiQ",
  "url": "https://www.google.com/maps/place/%E6%B0%B8%E6%98%8C%E5%8B%95%E7%89%A9%E9%86%AB%E9%99%A2/@24.5570736,120.817496,17z/data=!3m1!4b1!4m5!3m4!1s0x3469abf65fa567dd:0x2436eaf704bf9736!8m2!3d24.5570736!4d120.8196847",
  "location": {
    "lat": 24.5570736,
    "lng": 120.8196847
  },
  "searchString": "苗栗縣的動物醫院",
  "openingHours": [
    {
      "day": "Tuesday,",
      "hours": "9AM to 9PM"
    },
    {
      "day": "Wednesday,",
      "hours": "9AM to 9PM"
    },
    {
      "day": "Thursday",
      "hours": "(Mid-Autumn Festival), 9AM to 9PM, Hours might differ"
    },
    {
      "day": "Friday,",
      "hours": "9AM to 9PM"
    },
    {
      "day": "Saturday,",
      "hours": "9AM to 6PM"
    },
    {
      "day": "Sunday,",
      "hours": "Closed"
    },
    {
      "day": "Monday,",
      "hours": "Closed"
    }
  ],
  "reviewsCount": 81
},
{
  "title": "東勢田獸醫",
  "totalScore": 4.6,
  "categoryName": "Animal hospital",
  "address": "No. 30號, Sanmin Street, Dongshi District, Taichung City, Taiwan 423             423台中市東勢區三民街30號",
  "locatedIn": null,
  "plusCode": "7R2J+W9 Dongshi District, Taichung City, Taiwan",
  "website": null,
  "phone": "+886 4 2587 5450",
  "temporarilyClosed": false,
  "permanentlyClosed": false,
  "rank": 30,
  "placeId": "ChIJAakjB3cdaTQRD7Qj1JMASbU",
  "url": "https://www.google.com/maps/place/%E6%9D%B1%E5%8B%A2%E7%94%B0%E7%8D%B8%E9%86%AB/@24.2523641,120.8286995,17z/data=!3m1!4b1!4m5!3m4!1s0x34691d770723a901:0xb5490093d423b40f!8m2!3d24.2523641!4d120.8308882",
  "location": {
    "lat": 24.2523641,
    "lng": 120.8308882
  },
  "searchString": "苗栗縣的動物醫院",
  "openingHours": [
    {
      "day": "Tuesday,",
      "hours": "8AM to 9PM"
    },
    {
      "day": "Wednesday,",
      "hours": "8AM to 9PM"
    },
    {
      "day": "Thursday",
      "hours": "(Mid-Autumn Festival), 8AM to 9PM, Hours might differ"
    },
    {
      "day": "Friday,",
      "hours": "8AM to 9PM"
    },
    {
      "day": "Saturday,",
      "hours": "8AM to 9PM"
    },
    {
      "day": "Sunday,",
      "hours": "8AM to 9PM"
    },
    {
      "day": "Monday,",
      "hours": "8AM to 9PM"
    }
  ],
  "reviewsCount": 36
},
{
  "title": "Animal Hospital",
  "totalScore": "",
  "categoryName": "Animal hospital",
  "address": "426, Taiwan, Taichung City, Xinshe District             426台中市新社區",
  "locatedIn": null,
  "plusCode": "7R42+HG Xinshe District, Taichung City, Taiwan",
  "website": null,
  "phone": null,
  "temporarilyClosed": false,
  "permanentlyClosed": false,
  "rank": 27,
  "placeId": "ChIJTdJnSg4baTQRmhvwHw8sePM",
  "url": "https://www.google.com/maps/place/Animal+Hospital/@24.2564497,120.7990698,17z/data=!3m1!4b1!4m5!3m4!1s0x34691b0e4a67d24d:0xf3782c0f1ff01b9a!8m2!3d24.2564497!4d120.8012585",
  "location": {
    "lat": 24.2564497,
    "lng": 120.8012585
  },
  "searchString": "苗栗縣的動物醫院"
},
{
  "title": "中華動物醫院",
  "totalScore": 4.2,
  "categoryName": "Animal hospital",
  "address": "No. 2-2, Xinzheng Road, Dajia District, Taichung City, Taiwan 43748             43748台中市大甲區新政路2-2號",
  "locatedIn": null,
  "plusCode": "8JXG+4X Dajia District, Taichung City, Taiwan",
  "website": null,
  "phone": "+886 4 2687 4024",
  "temporarilyClosed": false,
  "permanentlyClosed": false,
  "rank": 23,
  "placeId": "ChIJkQwFVg8PaTQRgRHVMh-ROtk",
  "url": "https://www.google.com/maps/place/%E4%B8%AD%E8%8F%AF%E5%8B%95%E7%89%A9%E9%86%AB%E9%99%A2/@24.3478,120.6252253,17z/data=!3m1!4b1!4m5!3m4!1s0x34690f0f56050c91:0xd93a911f32d51181!8m2!3d24.3478!4d120.627414",
  "location": {
    "lat": 24.3478,
    "lng": 120.627414
  },
  "searchString": "苗栗縣的動物醫院",
  "reviewsCount": 104
},
{
  "title": "鴻成賽鴿醫院",
  "totalScore": 4.7,
  "categoryName": "Veterinary care",
  "address": "363, Taiwan, Miaoli County, Gongguan Township, 石牆村8鄰177號             363苗栗縣公館鄉石牆村8鄰177號",
  "locatedIn": null,
  "plusCode": "FRF9+25 Gongguan Township, Miaoli County, Taiwan",
  "website": "hcrph-birdcare.business.site",
  "phone": "+886 3 723 2908",
  "temporarilyClosed": false,
  "permanentlyClosed": false,
  "rank": 21,
  "placeId": "ChIJcx3apacAaTQRlCUSWShRU3A",
  "url": "https://www.google.com/maps/place/%E9%B4%BB%E6%88%90%E8%B3%BD%E9%B4%BF%E9%86%AB%E9%99%A2/@24.472625,120.8157373,17z/data=!3m1!4b1!4m5!3m4!1s0x346900a7a5da1d73:0x7053512859122594!8m2!3d24.472625!4d120.817926",
  "location": {
    "lat": 24.472625,
    "lng": 120.817926
  },
  "searchString": "苗栗縣的動物醫院",
  "openingHours": [
    {
      "day": "Tuesday,",
      "hours": "9AM to 5PM"
    },
    {
      "day": "Wednesday,",
      "hours": "9AM to 5PM"
    },
    {
      "day": "Thursday",
      "hours": "(Mid-Autumn Festival), 9AM to 5PM, Hours might differ"
    },
    {
      "day": "Friday,",
      "hours": "9AM to 5PM"
    },
    {
      "day": "Saturday,",
      "hours": "Closed"
    },
    {
      "day": "Sunday,",
      "hours": "Closed"
    },
    {
      "day": "Monday,",
      "hours": "9AM to 5PM"
    }
  ],
  "reviewsCount": 86
},
{
  "title": "永昌寵物百貨行",
  "totalScore": 3.9,
  "categoryName": "Pet supply store",
  "address": "No. 241, Ziqiang Road, Toufen City, Miaoli County, Taiwan 351             351苗栗縣頭份市自強路241號",
  "locatedIn": null,
  "plusCode": "MWP3+9V Toufen City, Miaoli County, Taiwan",
  "website": "facebook.com",
  "phone": "+886 3 766 4446",
  "temporarilyClosed": false,
  "permanentlyClosed": false,
  "rank": 28,
  "placeId": "ChIJhWVS4chMaDQRSkz7ZgLLgh4",
  "url": "https://www.google.com/maps/place/%E6%B0%B8%E6%98%8C%E5%AF%B5%E7%89%A9%E7%99%BE%E8%B2%A8%E8%A1%8C/@24.6859492,120.9025436,17z/data=!3m1!4b1!4m5!3m4!1s0x34684cc8e1526585:0x1e82cb0266fb4c4a!8m2!3d24.6859492!4d120.9047323",
  "location": {
    "lat": 24.6859492,
    "lng": 120.9047323
  },
  "searchString": "苗栗縣的動物醫院",
  "reviewsCount": 57
},
{
  "title": "鴻成賽鴿醫院",
  "totalScore": "",
  "categoryName": "Ligoninė",
  "address": "360, Taivanas, Miaoli County, Miaoli City, Beian Street, 188號號             360苗栗縣苗栗市北安街188號號",
  "locatedIn": null,
  "plusCode": "HR88+2M Miaoli, Miaoli County, Taivanas",
  "website": null,
  "phone": "+886 3 736 6655",
  "temporarilyClosed": false,
  "permanentlyClosed": false,
  "rank": 29,
  "placeId": "ChIJKSlUtgisaTQROzJZD5xSB94",
  "url": "https://www.google.com/maps/place/%E9%B4%BB%E6%88%90%E8%B3%BD%E9%B4%BF%E9%86%AB%E9%99%A2/@24.5650455,120.8145168,17z/data=!3m1!4b1!4m5!3m4!1s0x3469ac08b6542929:0xde07529c0f59323b!8m2!3d24.5650455!4d120.8167055",
  "location": {
    "lat": 24.5650455,
    "lng": 120.8167055
  },
  "searchString": "苗栗縣的動物醫院"
},
{
  "title": "恩典動物醫院",
  "totalScore": 4.2,
  "categoryName": "Hospital",
  "address": "No. 286號, Zhongzheng Road, Toufen City, Miaoli County, Taiwan 351             351苗栗縣頭份市中正路286號",
  "locatedIn": null,
  "plusCode": "MWQ7+34 Toufen City, Miaoli County, Taiwan",
  "website": "facebook.com",
  "phone": "+886 3 769 0607",
  "temporarilyClosed": false,
  "permanentlyClosed": false,
  "rank": 22,
  "placeId": "ChIJLzu4VcdMaDQR8EskGOKU7Tw",
  "url": "https://www.google.com/maps/place/%E6%81%A9%E5%85%B8%E5%8B%95%E7%89%A9%E9%86%AB%E9%99%A2/@24.6877031,120.9105933,17z/data=!3m1!4b1!4m5!3m4!1s0x34684cc755b83b2f:0x3ced94e218244bf0!8m2!3d24.6877031!4d120.912782",
  "location": {
    "lat": 24.6877031,
    "lng": 120.912782
  },
  "searchString": "苗栗縣的動物醫院",
  "openingHours": [
    {
      "day": "Tuesday,",
      "hours": "9AM to 9PM"
    },
    {
      "day": "Wednesday,",
      "hours": "9AM to 9PM"
    },
    {
      "day": "Thursday",
      "hours": "(Mid-Autumn Festival), Closed, Hours might differ"
    },
    {
      "day": "Friday,",
      "hours": "9AM to 9PM"
    },
    {
      "day": "Saturday,",
      "hours": "9AM to 9PM"
    },
    {
      "day": "Sunday,",
      "hours": "9AM to 9PM"
    },
    {
      "day": "Monday,",
      "hours": "9AM to 9PM"
    }
  ],
  "reviewsCount": 39
},
{
  "title": "榮源家畜醫院",
  "totalScore": 3.4,
  "categoryName": "",
  "address": "No. 593, Zhongshan Road, Miaoli City, Miaoli County, Taiwan 360             360苗栗縣苗栗市中山路593號",
  "locatedIn": null,
  "plusCode": "HR59+2W Miaoli City, Miaoli County, Taiwan",
  "website": null,
  "phone": "+886 3 732 1185",
  "temporarilyClosed": false,
  "permanentlyClosed": false,
  "rank": 25,
  "placeId": "ChIJWwBIaParaTQRp43RKmdLVMI",
  "url": "https://www.google.com/maps/place/%E6%A6%AE%E6%BA%90%E5%AE%B6%E7%95%9C%E9%86%AB%E9%99%A2/@24.557607,120.8176453,17z/data=!3m1!4b1!4m5!3m4!1s0x3469abf66848005b:0xc2544b672ad18da7!8m2!3d24.557607!4d120.819834",
  "location": {
    "lat": 24.557607,
    "lng": 120.819834
  },
  "searchString": "苗栗縣的動物醫院",
  "reviewsCount": 8
},
{
  "title": "萊恩動物醫院 Lion Veterinary Clinic",
  "totalScore": 4.8,
  "categoryName": "Animal hospital",
  "address": "363, Taiwan, Miaoli County, Gongguan Township, 玉泉356-1號             363苗栗縣公館鄉玉泉356-1號",
  "locatedIn": null,
  "plusCode": "GR5G+3J Gongguan Township, Miaoli County, Taiwan",
  "website": "facebook.com",
  "phone": "+886 3 722 6608",
  "temporarilyClosed": false,
  "permanentlyClosed": false,
  "rank": 3,
  "placeId": "ChIJ--PMLjaqaTQRNDsCkwHnpSs",
  "url": "https://www.google.com/maps/place/%E8%90%8A%E6%81%A9%E5%8B%95%E7%89%A9%E9%86%AB%E9%99%A2+Lion+Veterinary+Clinic/@24.507707,120.8243683,17z/data=!3m1!4b1!4m5!3m4!1s0x3469aa362ecce3fb:0x2ba5e70193023b34!8m2!3d24.507707!4d120.826557",
  "location": {
    "lat": 24.507707,
    "lng": 120.826557
  },
  "searchString": "苗栗縣的動物醫院",
  "openingHours": [
    {
      "day": "Tuesday,",
      "hours": "9AM to 12PM, 2 to 5PM, 6 to 9PM"
    },
    {
      "day": "Wednesday,",
      "hours": "Closed"
    },
    {
      "day": "Thursday",
      "hours": "(Mid-Autumn Festival), 9AM to 12PM, 2 to 5PM, 6 to 9PM, Hours might differ"
    },
    {
      "day": "Friday,",
      "hours": "9AM to 12PM, 2 to 5PM, 6 to 9PM"
    },
    {
      "day": "Saturday,",
      "hours": "9AM to 12PM, 2 to 5PM, 6 to 9PM"
    },
    {
      "day": "Sunday,",
      "hours": "Closed"
    },
    {
      "day": "Monday,",
      "hours": "9AM to 12PM, 2 to 5PM, 6 to 9PM"
    }
  ],
  "reviewsCount": 96
},
{
  "title": "安澤動物醫院",
  "totalScore": 3.7,
  "categoryName": "Animal hospital",
  "address": "No. 32號, Lane 281, Guangming Road, Dajia District, Taichung City, Taiwan 437             437台中市大甲區光明路281巷32號",
  "locatedIn": null,
  "plusCode": "8JW9+82 Dajia District, Taichung City, Taiwan",
  "website": null,
  "phone": "+886 4 2686 1992",
  "temporarilyClosed": false,
  "permanentlyClosed": false,
  "rank": 26,
  "placeId": "ChIJMxgGUwASaTQR_66GFU58HHU",
  "url": "https://www.google.com/maps/place/%E5%AE%89%E6%BE%A4%E5%8B%95%E7%89%A9%E9%86%AB%E9%99%A2/@24.345805,120.6154213,17z/data=!3m1!4b1!4m5!3m4!1s0x3469120053061833:0x751c7c4e1586aeff!8m2!3d24.345805!4d120.61761",
  "location": {
    "lat": 24.345805,
    "lng": 120.61761
  },
  "searchString": "苗栗縣的動物醫院",
  "reviewsCount": 29
},
{
  "title": "朵栗動物醫院",
  "totalScore": 4.8,
  "categoryName": "Animal hospital",
  "address": "No. 225號, Section 2, Zhongfeng Road, Zhudong Township, Hsinchu County, Taiwan 31052             31052新竹縣竹東鎮中豐路二段225號",
  "locatedIn": null,
  "plusCode": "P3FR+6Q Zhudong Township, Hsinchu County, Taiwan",
  "website": "facebook.com",
  "phone": "+886 3 510 3210",
  "temporarilyClosed": false,
  "permanentlyClosed": false,
  "rank": 31,
  "placeId": "ChIJq38dmz5HaDQRGN4KTMuk5fU",
  "url": "https://www.google.com/maps/place/%E6%9C%B5%E6%A0%97%E5%8B%95%E7%89%A9%E9%86%AB%E9%99%A2/@24.7231184,121.0898045,17z/data=!3m1!4b1!4m5!3m4!1s0x3468473e9b1d7fab:0xf5e5a4cb4c0ade18!8m2!3d24.7231184!4d121.0919932",
  "location": {
    "lat": 24.7231184,
    "lng": 121.0919932
  },
  "searchString": "苗栗縣的動物醫院",
  "openingHours": [
    {
      "day": "Tuesday,",
      "hours": "9:30AM to 12PM, 2 to 5PM, 6 to 8:30PM"
    },
    {
      "day": "Wednesday,",
      "hours": "Closed"
    },
    {
      "day": "Thursday",
      "hours": "(Mid-Autumn Festival), 9:30AM to 5AM, Holiday hours"
    },
    {
      "day": "Friday,",
      "hours": "9:30AM to 12PM, 2 to 5PM, 6 to 8:30PM"
    },
    {
      "day": "Saturday,",
      "hours": "9:30AM to 12PM, 2 to 5PM, 6 to 8:30PM"
    },
    {
      "day": "Sunday,",
      "hours": "Closed"
    },
    {
      "day": "Monday,",
      "hours": "9:30AM to 12PM, 2 to 5PM, 6 to 8:30PM"
    }
  ],
  "reviewsCount": 25
},
{
  "title": "中華動物醫院",
  "totalScore": 3.6,
  "categoryName": "Animal hospital",
  "address": "No. 1307號, Zhonghua Road, Toufen City, Miaoli County, Taiwan 351             351苗栗縣頭份市中華路1307號",
  "locatedIn": null,
  "plusCode": "MWR7+VH Toufen City, Miaoli County, Taiwan",
  "website": null,
  "phone": "+886 3 769 0020",
  "temporarilyClosed": false,
  "permanentlyClosed": false,
  "rank": 16,
  "placeId": "ChIJ3T7UpL5MaDQR1j912GBERoM",
  "url": "https://www.google.com/maps/place/%E4%B8%AD%E8%8F%AF%E5%8B%95%E7%89%A9%E9%86%AB%E9%99%A2/@24.6922411,120.9117673,17z/data=!3m1!4b1!4m5!3m4!1s0x34684cbea4d43edd:0x83464460d8753fd6!8m2!3d24.6922411!4d120.913956",
  "location": {
    "lat": 24.6922411,
    "lng": 120.913956
  },
  "searchString": "苗栗縣的動物醫院",
  "openingHours": [
    {
      "day": "Tuesday,",
      "hours": "9AM to 12PM, 2:30 to 9PM"
    },
    {
      "day": "Wednesday,",
      "hours": "9AM to 12PM, 2:30 to 9PM"
    },
    {
      "day": "Thursday",
      "hours": "(Mid-Autumn Festival), 9AM to 12PM, 2:30 to 9PM, Hours might differ"
    },
    {
      "day": "Friday,",
      "hours": "9AM to 12PM, 2:30 to 9PM"
    },
    {
      "day": "Saturday,",
      "hours": "Closed"
    },
    {
      "day": "Sunday,",
      "hours": "10AM to 12PM, 2:30 to 9PM"
    },
    {
      "day": "Monday,",
      "hours": "9AM to 12PM, 2:30 to 9PM"
    }
  ],
  "reviewsCount": 55
},
{
  "title": "東方動物醫院",
  "totalScore": null,
  "categoryName": "Veterinarijos klinika",
  "address": "No. 72-1, Zhongshan Road, Miaoli City, Miaoli County, Taivanas 360             360苗栗縣苗栗市中山路72-1號",
  "locatedIn": null,
  "plusCode": "HR9F+77 Miaoli, Miaoli County, Taivanas",
  "website": null,
  "phone": "+886 3 726 4907",
  "temporarilyClosed": false,
  "permanentlyClosed": false,
  "rank": 4,
  "placeId": "ChIJy-3U4gysaTQRV9hDifsz2Gk",
  "url": "https://www.google.com/maps/place/%E6%9D%B1%E6%96%B9%E5%8B%95%E7%89%A9%E9%86%AB%E9%99%A2/@24.5681655,120.821008,17z/data=!3m1!4b1!4m5!3m4!1s0x3469ac0ce2d4edcb:0x69d833fb8943d857!8m2!3d24.5681655!4d120.8231967",
  "location": {
    "lat": 24.5681655,
    "lng": 120.8231967
  },
  "searchString": "苗栗縣的動物醫院",
  "openingHours": [
    null,
    null,
    {
      "day": "ketvirtadienis",
      "hours": "(Rudens vidurio šventė),09–21:30,Darbo laikas gali skirtis"
    },
    null,
    null,
    null,
    {
      "day": "pirmadienis,09–21:30.",
      "hours": "Slėpti savaitės darbo laiką"
    }
  ],
  "reviewsCount": 50
},
{
  "title": "日上動物醫院&寵物美容",
  "totalScore": 4.1,
  "categoryName": "Animal hospital",
  "address": "No. 30, Tongming Street, Gongguan Township, Miaoli County, Taiwan 363             363苗栗縣公館鄉通明街30號",
  "locatedIn": null,
  "plusCode": "GR3G+97 Gongguan Township, Miaoli County, Taiwan",
  "website": "sun01day.business.site",
  "phone": "+886 3 723 3582",
  "temporarilyClosed": false,
  "permanentlyClosed": false,
  "rank": 1,
  "placeId": "ChIJs49baziqaTQRBRy7nfbUksI",
  "url": "https://www.google.com/maps/place/%E6%97%A5%E4%B8%8A%E5%8B%95%E7%89%A9%E9%86%AB%E9%99%A2%26%E5%AF%B5%E7%89%A9%E7%BE%8E%E5%AE%B9/@24.5033777,120.8234639,17z/data=!3m1!4b1!4m5!3m4!1s0x3469aa386b5b8fb3:0xc292d4f69dbb1c05!8m2!3d24.5033777!4d120.8256526",
  "location": {
    "lat": 24.5033777,
    "lng": 120.8256526
  },
  "searchString": "苗栗縣的動物醫院",
  "openingHours": [
    {
      "day": "Tuesday,",
      "hours": "8AM to 8PM"
    },
    {
      "day": "Wednesday,",
      "hours": "8AM to 8PM"
    },
    {
      "day": "Thursday",
      "hours": "(Mid-Autumn Festival), 8AM to 8PM, Hours might differ"
    },
    {
      "day": "Friday,",
      "hours": "8AM to 8PM"
    },
    {
      "day": "Saturday,",
      "hours": "8AM to 8PM"
    },
    {
      "day": "Sunday,",
      "hours": "Closed"
    },
    {
      "day": "Monday,",
      "hours": "8AM to 8PM"
    }
  ],
  "reviewsCount": 24
},
{
  "title": "波比寵物專科醫院",
  "totalScore": 4.7,
  "categoryName": "Veterinarian",
  "address": "No. 436, Guangfu Road, Zhunan Township, Miaoli County, Taiwan 350             350苗栗縣竹南鎮光復路436號",
  "locatedIn": null,
  "plusCode": "MVVH+JV Zhunan Township, Miaoli County, Taiwan",
  "website": "bobypet99.com.tw",
  "phone": "+886 3 755 0450      phone3",
  "temporarilyClosed": false,
  "permanentlyClosed": false,
  "rank": 7,
  "placeId": "ChIJx_tcpDizaTQR2pBRHB7JPhY",
  "url": "https://www.google.com/maps/place/%E6%B3%A2%E6%AF%94%E5%AF%B5%E7%89%A9%E5%B0%88%E7%A7%91%E9%86%AB%E9%99%A2/@24.6940401,120.8774928,17z/data=!3m1!4b1!4m5!3m4!1s0x3469b338a45cfbc7:0x163ec91e1c5190da!8m2!3d24.6940401!4d120.8796815",
  "location": {
    "lat": 24.6940401,
    "lng": 120.8796815
  },
  "searchString": "苗栗縣的動物醫院",
  "openingHours": [
    {
      "day": "Tuesday,",
      "hours": "8AM to 12PM, 2 to 4PM"
    },
    {
      "day": "Wednesday,",
      "hours": "8AM to 12PM, 2 to 4PM"
    },
    {
      "day": "Thursday",
      "hours": "(Mid-Autumn Festival), 8AM to 12PM, 2 to 4PM, Hours might differ"
    },
    {
      "day": "Friday,",
      "hours": "8AM to 12PM, 2 to 4PM"
    },
    {
      "day": "Saturday,",
      "hours": "8AM to 12PM, 2 to 4PM"
    },
    {
      "day": "Sunday,",
      "hours": "Closed"
    },
    {
      "day": "Monday,",
      "hours": "8AM to 12PM, 2 to 4PM"
    }
  ],
  "reviewsCount": 170
},
{
  "title": "仁心動物醫院",
  "totalScore": 4.1,
  "categoryName": "Hospital",
  "address": "No. 118-1號, Section 1, Shijie Road, Yuanli, Miaoli County, Taiwan 358             358苗栗縣苑裡鎮世界路一段118-1號",
  "locatedIn": null,
  "plusCode": "CMV3+QW Yuanli, Miaoli County, Taiwan",
  "website": "zh-tw.facebook.com",
  "phone": "+886 3 786 1318",
  "temporarilyClosed": false,
  "permanentlyClosed": false,
  "rank": 20,
  "placeId": "ChIJy8NyizwJaTQRQvlDSXrEAgE",
  "url": "https://www.google.com/maps/place/%E4%BB%81%E5%BF%83%E5%8B%95%E7%89%A9%E9%86%AB%E9%99%A2/@24.4444923,120.6526638,17z/data=!3m1!4b1!4m5!3m4!1s0x3469093c8b72c3cb:0x102c47a4943f942!8m2!3d24.4444923!4d120.6548525",
  "location": {
    "lat": 24.4444923,
    "lng": 120.6548525
  },
  "searchString": "苗栗縣的動物醫院",
  "openingHours": [
    {
      "day": "Tuesday,",
      "hours": "9AM to 12:30PM, 2 to 4:30PM, 5 to 8PM"
    },
    {
      "day": "Wednesday,",
      "hours": "9AM to 12:30PM, 2 to 4:30PM, 5 to 8PM"
    },
    {
      "day": "Thursday",
      "hours": "(Mid-Autumn Festival), 9AM to 12:30PM, 2 to 4:30PM, 5 to 8PM, Hours might differ"
    },
    {
      "day": "Friday,",
      "hours": "9AM to 12:30PM, 2 to 4:30PM, 5 to 8PM"
    },
    {
      "day": "Saturday,",
      "hours": "9AM to 12:30PM, 2 to 4:30PM, 5 to 8PM"
    },
    {
      "day": "Sunday,",
      "hours": "Closed"
    },
    {
      "day": "Monday,",
      "hours": "9AM to 12:30PM, 2 to 4:30PM, 5 to 8PM"
    }
  ],
  "reviewsCount": 12
},
{
  "title": "心雅動物醫院",
  "totalScore": 3.6,
  "categoryName": "Veterinarian",
  "address": "No. 955, Zhonghua Road, Toufen City, Miaoli County, Taiwan 351             351苗栗縣頭份市中華路955號",
  "locatedIn": null,
  "plusCode": "MWM4+XC Toufen City, Miaoli County, Taiwan",
  "website": null,
  "phone": "+886 3 768 2106",
  "temporarilyClosed": false,
  "permanentlyClosed": false,
  "rank": 2,
  "placeId": "ChIJoQGouchMaDQR658aODDPCO4",
  "url": "https://www.google.com/maps/place/%E5%BF%83%E9%9B%85%E5%8B%95%E7%89%A9%E9%86%AB%E9%99%A2/@24.6848833,120.9038342,17z/data=!3m1!4b1!4m5!3m4!1s0x34684cc8b9a801a1:0xee08cf30381a9feb!8m2!3d24.6848833!4d120.9060229",
  "location": {
    "lat": 24.6848833,
    "lng": 120.9060229
  },
  "searchString": "苗栗縣的動物醫院",
  "reviewsCount": 28
},
{
  "title": "安生動物醫院",
  "totalScore": 4,
  "categoryName": "Veterinarian",
  "address": "No. 975, Zhonghua Road, Toufen City, Miaoli County, Taiwan 351             351苗栗縣頭份市中華路975號",
  "locatedIn": null,
  "plusCode": "MWP4+3G Toufen City, Miaoli County, Taiwan",
  "website": null,
  "phone": "+886 3 766 9821",
  "temporarilyClosed": false,
  "permanentlyClosed": false,
  "rank": 13,
  "placeId": "ChIJ5dB2lshMaDQREmZwDl4U7H8",
  "url": "https://www.google.com/maps/place/%E5%AE%89%E7%94%9F%E5%8B%95%E7%89%A9%E9%86%AB%E9%99%A2/@24.6851496,120.9041125,17z/data=!3m1!4b1!4m5!3m4!1s0x34684cc89676d0e5:0x7fec145e0e706612!8m2!3d24.6851496!4d120.9063012",
  "location": {
    "lat": 24.6851496,
    "lng": 120.9063012
  },
  "searchString": "苗栗縣的動物醫院",
  "openingHours": [
    {
      "day": "Tuesday,",
      "hours": "9AM to 9PM"
    },
    {
      "day": "Wednesday,",
      "hours": "9AM to 9PM"
    },
    {
      "day": "Thursday",
      "hours": "(Mid-Autumn Festival), 9AM to 9PM, Hours might differ"
    },
    {
      "day": "Friday,",
      "hours": "9AM to 9PM"
    },
    {
      "day": "Saturday,",
      "hours": "9AM to 9PM"
    },
    {
      "day": "Sunday,",
      "hours": "Closed"
    },
    {
      "day": "Monday,",
      "hours": "9AM to 9PM"
    }
  ],
  "reviewsCount": 43
},
{
  "title": "健成家畜綜合醫院",
  "totalScore": 3.7,
  "categoryName": "Animal hospital",
  "address": "No. 69, Heping Road, Miaoli City, Miaoli County, Taiwan 360             360苗栗縣苗栗市和平路69號",
  "locatedIn": null,
  "plusCode": "HR79+83 Miaoli City, Miaoli County, Taiwan",
  "website": null,
  "phone": "+886 3 735 3182",
  "temporarilyClosed": false,
  "permanentlyClosed": false,
  "rank": 8,
  "placeId": "ChIJmURt3AisaTQRT_UDUkfrLa8",
  "url": "https://www.google.com/maps/place/%E5%81%A5%E6%88%90%E5%AE%B6%E7%95%9C%E7%B6%9C%E5%90%88%E9%86%AB%E9%99%A2/@24.563341,120.8154923,17z/data=!3m1!4b1!4m5!3m4!1s0x3469ac08dc6d4499:0xaf2deb475203f54f!8m2!3d24.563341!4d120.817681",
  "location": {
    "lat": 24.563341,
    "lng": 120.817681
  },
  "searchString": "苗栗縣的動物醫院",
  "openingHours": [
    {
      "day": "Tuesday,",
      "hours": "8:30AM to 9:30PM"
    },
    {
      "day": "Wednesday,",
      "hours": "8:30AM to 9:30PM"
    },
    {
      "day": "Thursday",
      "hours": "(Mid-Autumn Festival), 8:30AM to 9:30PM, Hours might differ"
    },
    {
      "day": "Friday,",
      "hours": "8:30AM to 9:30PM"
    },
    {
      "day": "Saturday,",
      "hours": "8:30AM to 9:30PM"
    },
    {
      "day": "Sunday,",
      "hours": "8AM to 12PM"
    },
    {
      "day": "Monday,",
      "hours": "8:30AM to 9:30PM"
    }
  ],
  "reviewsCount": 230
},
{
  "title": "博仁動物醫院",
  "totalScore": 4.1,
  "categoryName": "Veterinarian",
  "address": "No. 229號, Zhigong Road, Miaoli City, Miaoli County, Taiwan 360             360苗栗縣苗栗市至公路229號",
  "locatedIn": null,
  "plusCode": "HR68+25 Miaoli City, Miaoli County, Taiwan",
  "website": null,
  "phone": "+886 3 733 0173",
  "temporarilyClosed": false,
  "permanentlyClosed": false,
  "rank": 11,
  "placeId": "ChIJr0Gq-PeraTQRU-uAaiolICA",
  "url": "https://www.google.com/maps/place/%E5%8D%9A%E4%BB%81%E5%8B%95%E7%89%A9%E9%86%AB%E9%99%A2/@24.560125,120.8132533,17z/data=!3m1!4b1!4m5!3m4!1s0x3469abf7f8aa41af:0x2020252a6a80eb53!8m2!3d24.560125!4d120.815442",
  "location": {
    "lat": 24.560125,
    "lng": 120.815442
  },
  "searchString": "苗栗縣的動物醫院",
  "openingHours": [
    {
      "day": "Tuesday,",
      "hours": "10:30AM to 12PM, 2:30 to 5PM"
    },
    {
      "day": "Wednesday,",
      "hours": "10:30AM to 12PM, 2:30 to 5PM"
    },
    {
      "day": "Thursday",
      "hours": "(Mid-Autumn Festival), 10:30AM to 12PM, 2:30 to 5PM, Hours might differ"
    },
    {
      "day": "Friday,",
      "hours": "10:30AM to 12PM, 2:30 to 5PM"
    },
    {
      "day": "Saturday,",
      "hours": "10:30AM to 12PM, 2:30 to 5PM"
    },
    {
      "day": "Sunday,",
      "hours": "Closed"
    },
    {
      "day": "Monday,",
      "hours": "10:30AM to 12PM, 2:30 to 5PM"
    }
  ],
  "reviewsCount": 63
},
{
  "title": "長安動物診所",
  "totalScore": "",
  "categoryName": "Animal hospital",
  "address": "No. 22號, Chang'an Street, Miaoli City, Miaoli County, Taiwan 360             360苗栗縣苗栗市長安街22號",
  "locatedIn": null,
  "plusCode": "HR9G+R5 Miaoli City, Miaoli County, Taiwan",
  "website": "business.site",
  "phone": "+886 3 726 6688",
  "temporarilyClosed": false,
  "permanentlyClosed": false,
  "rank": 19,
  "placeId": "ChIJ-2HWlm2taTQRxO1K1KC28eo",
  "url": "https://www.google.com/maps/place/%E9%95%B7%E5%AE%89%E5%8B%95%E7%89%A9%E8%A8%BA%E6%89%80/@24.5695035,120.8232455,17z/data=!3m1!4b1!4m5!3m4!1s0x3469ad6d96d661fb:0xeaf1b6a0d44aedc4!8m2!3d24.5695035!4d120.8254342",
  "location": {
    "lat": 24.5695035,
    "lng": 120.8254342
  },
  "searchString": "苗栗縣的動物醫院",
  "openingHours": [
    {
      "day": "Tuesday,",
      "hours": "9AM to 8PM"
    },
    {
      "day": "Wednesday,",
      "hours": "9AM to 8PM"
    },
    {
      "day": "Thursday",
      "hours": "(Mid-Autumn Festival), 9AM to 8PM, Hours might differ"
    },
    {
      "day": "Friday,",
      "hours": "9AM to 8PM"
    },
    {
      "day": "Saturday,",
      "hours": "Closed"
    },
    {
      "day": "Sunday,",
      "hours": "Closed"
    },
    {
      "day": "Monday,",
      "hours": "9AM to 8PM"
    }
  ]
},
{
  "title": "通霄獸醫院",
  "totalScore": 3.5,
  "categoryName": "Veterinarian",
  "address": "No. 5, Fude Road, Tongxiao Township, Miaoli County, Taiwan 357             357苗栗縣通霄鎮福德路5號",
  "locatedIn": null,
  "plusCode": "FMQJ+2F Tongxiao Township, Miaoli County, Taiwan",
  "website": null,
  "phone": "+886 3 775 4815",
  "temporarilyClosed": false,
  "permanentlyClosed": false,
  "rank": 14,
  "placeId": "ChIJ1cEhEjkIaTQRkIff_duS9dA",
  "url": "https://www.google.com/maps/place/%E9%80%9A%E9%9C%84%E7%8D%B8%E9%86%AB%E9%99%A2/@24.487507,120.6790053,17z/data=!3m1!4b1!4m5!3m4!1s0x346908391221c1d5:0xd0f592dbfddf8790!8m2!3d24.487507!4d120.681194",
  "location": {
    "lat": 24.487507,
    "lng": 120.681194
  },
  "searchString": "苗栗縣的動物醫院",
  "reviewsCount": 28
},
{
  "title": "莫耳動物醫院",
  "totalScore": null,
  "categoryName": "Veterinaras",
  "address": "號, No. 328號, Weigong Road, Miaoli City, Miaoli County, Taivanas 360             號, No. 328號為公路苗栗市苗栗縣360",
  "locatedIn": null,
  "plusCode": "HRCJ+H4 Miaoli, Miaoli County, Taivanas",
  "website": null,
  "phone": "+886 975 111 988",
  "temporarilyClosed": false,
  "permanentlyClosed": false,
  "rank": 17,
  "placeId": "ChIJCSyEXGysaTQREY-R48kHX38",
  "url": "https://www.google.com/maps/place/%E8%8E%AB%E8%80%B3%E5%8B%95%E7%89%A9%E9%86%AB%E9%99%A2/@24.571483,120.8281683,17z/data=!3m1!4b1!4m5!3m4!1s0x3469ac6c5c842c09:0x7f5f07c9e3918f11!8m2!3d24.571483!4d120.830357",
  "location": {
    "lat": 24.571483,
    "lng": 120.830357
  },
  "searchString": "苗栗縣的動物醫院",
  "openingHours": [
    null,
    null,
    {
      "day": "ketvirtadienis",
      "hours": "(Rudens vidurio šventė),Uždaryta,Darbo laikas šventinę dieną"
    },
    null,
    null,
    null,
    {
      "day": "pirmadienis,09–12,14–19.",
      "hours": "Slėpti savaitės darbo laiką"
    }
  ],
  "reviewsCount": 75
},
{
  "title": "銅鑼元宏獸醫診所",
  "totalScore": 4.5,
  "categoryName": "Animal hospital",
  "address": "No. 13號, Youdian Street, Tongluo Township, Miaoli County, Taiwan 366             366苗栗縣銅鑼鄉郵電街13號",
  "locatedIn": null,
  "plusCode": "FQQQ+42 Tongluo Township, Miaoli County, Taiwan",
  "website": null,
  "phone": "+886 3 798 1328",
  "temporarilyClosed": false,
  "permanentlyClosed": false,
  "rank": 15,
  "placeId": "ChIJCfvclw2paTQRaZScwLupe9A",
  "url": "https://www.google.com/maps/place/%E9%8A%85%E9%91%BC%E5%85%83%E5%AE%8F%E7%8D%B8%E9%86%AB%E8%A8%BA%E6%89%80/@24.4878287,120.7854131,17z/data=!3m1!4b1!4m5!3m4!1s0x3469a90d97dcfb09:0xd07ba9bbc09c9469!8m2!3d24.4878287!4d120.7876018",
  "location": {
    "lat": 24.4878287,
    "lng": 120.7876018
  },
  "searchString": "苗栗縣的動物醫院",
  "reviewsCount": 8
},
{
  "title": "安達動物醫院",
  "totalScore": 3.2,
  "categoryName": "Animal hospital",
  "address": "No. 595號, Section 2, Ziqiang Road, Toufen City, Miaoli County, Taiwan 351             351苗栗縣頭份市自強路二段595號",
  "locatedIn": null,
  "plusCode": "MVJM+WF Toufen City, Miaoli County, Taiwan",
  "website": null,
  "phone": "+886 3 761 4090",
  "temporarilyClosed": false,
  "permanentlyClosed": false,
  "rank": 12,
  "placeId": "ChIJOxAuYSWzaTQRWYEXgCbF2Yk",
  "url": "https://www.google.com/maps/place/%E5%AE%89%E9%81%94%E5%8B%95%E7%89%A9%E9%86%AB%E9%99%A2/@24.6822732,120.8815547,17z/data=!3m1!4b1!4m5!3m4!1s0x3469b325612e103b:0x89d9c52680178159!8m2!3d24.6822732!4d120.8837434",
  "location": {
    "lat": 24.6822732,
    "lng": 120.8837434
  },
  "searchString": "苗栗縣的動物醫院",
  "openingHours": [
    {
      "day": "Tuesday,",
      "hours": "9AM to 12PM, 1 to 5PM, 6 to 9PM"
    },
    {
      "day": "Wednesday,",
      "hours": "9AM to 12PM, 1 to 5PM, 6 to 9PM"
    },
    {
      "day": "Thursday",
      "hours": "(Mid-Autumn Festival), 9AM to 12PM, 1 to 5PM, 6 to 9PM, Hours might differ"
    },
    {
      "day": "Friday,",
      "hours": "9AM to 12PM, 1 to 5PM, 6 to 9PM"
    },
    {
      "day": "Saturday,",
      "hours": "9AM to 12PM, 1 to 5PM, 6 to 9PM"
    },
    {
      "day": "Sunday,",
      "hours": "Closed"
    },
    {
      "day": "Monday,",
      "hours": "9AM to 12PM, 1 to 5PM, 6 to 9PM"
    }
  ],
  "reviewsCount": 39
},
{
  "title": "全生動物醫院",
  "totalScore": 3.8,
  "categoryName": "Animal hospital",
  "address": "No. 63, Yuqing Road, Miaoli City, Miaoli County, Taiwan 360             360苗栗縣苗栗市玉清路63號",
  "locatedIn": null,
  "plusCode": "HR7H+9C Miaoli City, Miaoli County, Taiwan",
  "website": null,
  "phone": "+886 3 735 0685",
  "temporarilyClosed": false,
  "permanentlyClosed": false,
  "rank": 5,
  "placeId": "ChIJnWZQZnOsaTQRMc_6ff_oh60",
  "url": "https://www.google.com/maps/place/%E5%85%A8%E7%94%9F%E5%8B%95%E7%89%A9%E9%86%AB%E9%99%A2/@24.5633811,120.8263903,17z/data=!3m1!4b1!4m5!3m4!1s0x3469ac736650669d:0xad87e8ff7dfacf31!8m2!3d24.5633811!4d120.828579",
  "location": {
    "lat": 24.5633811,
    "lng": 120.828579
  },
  "searchString": "苗栗縣的動物醫院",
  "reviewsCount": 27
},
{
  "title": "布萊梅 動物醫院(Bremer Veterinary hospital)",
  "totalScore": 4.6,
  "categoryName": "Animal hospital",
  "address": "-1 號, No. 174, Yuying Road, Dajia District, Taichung City, Taiwan             -1 號, No. 174育英路大甲區台中市",
  "locatedIn": null,
  "plusCode": "9J3F+46 Dajia District, Taichung City, Taiwan",
  "website": "facebook.com",
  "phone": "+886 4 2680 2908",
  "temporarilyClosed": false,
  "permanentlyClosed": false,
  "rank": 24,
  "placeId": "ChIJ3bLs1gYOaTQRqNo3tNi-wlU",
  "url": "https://www.google.com/maps/place/%E5%B8%83%E8%90%8A%E6%A2%85+%E5%8B%95%E7%89%A9%E9%86%AB%E9%99%A2(Bremer+Veterinary+hospital)/@24.3528701,120.6209211,17z/data=!3m1!4b1!4m5!3m4!1s0x34690e06d6ecb2dd:0x55c2bed8b437daa8!8m2!3d24.3528701!4d120.6231098",
  "location": {
    "lat": 24.3528701,
    "lng": 120.6231098
  },
  "searchString": "苗栗縣的動物醫院",
  "openingHours": [
    {
      "day": "Tuesday,",
      "hours": "9:30AM to 12PM, 2 to 8PM"
    },
    {
      "day": "Wednesday,",
      "hours": "9:30AM to 12PM, 2 to 8PM"
    },
    {
      "day": "Thursday",
      "hours": "(Mid-Autumn Festival), Closed, Hours might differ"
    },
    {
      "day": "Friday,",
      "hours": "9:30AM to 12PM, 2 to 8PM"
    },
    {
      "day": "Saturday,",
      "hours": "9:30AM to 12PM, 2 to 8PM"
    },
    {
      "day": "Sunday,",
      "hours": "Closed"
    },
    {
      "day": "Monday,",
      "hours": "9:30AM to 12PM, 2 to 8PM"
    }
  ],
  "reviewsCount": 185
},
{
  "title": "後龍動物醫院",
  "totalScore": 5,
  "categoryName": "Hospital",
  "address": "No. 311號, Chenggong Road, Houlong Township, Miaoli County, Taiwan 356             356苗栗縣後龍鎮成功路311號",
  "locatedIn": null,
  "plusCode": "JQ7W+3J Houlong Township, Miaoli County, Taiwan",
  "website": null,
  "phone": "+886 3 772 7803",
  "temporarilyClosed": false,
  "permanentlyClosed": false,
  "rank": 18,
  "placeId": "ChIJV1bYoXyuaTQRPtx21SB-0zY",
  "url": "https://www.google.com/maps/place/%E5%BE%8C%E9%BE%8D%E5%8B%95%E7%89%A9%E9%86%AB%E9%99%A2/@24.6126696,120.7943743,17z/data=!3m1!4b1!4m5!3m4!1s0x3469ae7ca1d85657:0x36d37e20d576dc3e!8m2!3d24.6126696!4d120.796563",
  "location": {
    "lat": 24.6126696,
    "lng": 120.796563
  },
  "searchString": "苗栗縣的動物醫院",
  "openingHours": [
    {
      "day": "Tuesday,",
      "hours": "9:30AM to 12PM, 2 to 8:30PM"
    },
    {
      "day": "Wednesday,",
      "hours": "9:30AM to 12PM, 2 to 8:30PM"
    },
    {
      "day": "Thursday",
      "hours": "(Mid-Autumn Festival), Closed, Hours might differ"
    },
    {
      "day": "Friday,",
      "hours": "9:30AM to 12PM, 2 to 8:30PM"
    },
    {
      "day": "Saturday,",
      "hours": "9:30AM to 12PM, 2 to 8:30PM"
    },
    {
      "day": "Sunday,",
      "hours": "Closed"
    },
    {
      "day": "Monday,",
      "hours": "9:30AM to 12PM, 2 to 8:30PM"
    }
  ],
  "reviewsCount": 22
},
{
  "title": "聖心動物醫院",
  "totalScore": 4.5,
  "categoryName": "Animal hospital",
  "address": "No. 205, Section 1, Huanshi Road, Zhunan Township, Miaoli County, Taiwan 350             350苗栗縣竹南鎮環市路一段205號",
  "locatedIn": null,
  "plusCode": "MVJF+PM Zhunan Township, Miaoli County, Taiwan",
  "website": null,
  "phone": "+886 3 746 1332",
  "temporarilyClosed": false,
  "permanentlyClosed": false,
  "rank": 6,
  "placeId": "ChIJHyc7FSKzaTQRUEeVhSyF0io",
  "url": "https://www.google.com/maps/place/%E8%81%96%E5%BF%83%E5%8B%95%E7%89%A9%E9%86%AB%E9%99%A2/@24.6818731,120.8719773,17z/data=!3m1!4b1!4m5!3m4!1s0x3469b322153b271f:0x2ad2852c85954750!8m2!3d24.6818731!4d120.874166",
  "location": {
    "lat": 24.6818731,
    "lng": 120.874166
  },
  "searchString": "苗栗縣的動物醫院",
  "openingHours": [
    {
      "day": "Tuesday,",
      "hours": "9AM to 9PM"
    },
    {
      "day": "Wednesday,",
      "hours": "9AM to 9PM"
    },
    {
      "day": "Thursday",
      "hours": "(Mid-Autumn Festival), 9AM to 9PM, Hours might differ"
    },
    {
      "day": "Friday,",
      "hours": "9AM to 9PM"
    },
    {
      "day": "Saturday,",
      "hours": "9AM to 9PM"
    },
    {
      "day": "Sunday,",
      "hours": "Closed"
    },
    {
      "day": "Monday,",
      "hours": "9AM to 9PM"
    }
  ],
  "reviewsCount": 142
}]