[{
  "title": "麥寮安安動物醫院",
  "totalScore": null,
  "categoryName": "Ligoninė",
  "address": "No. 603, Zhongshan Road, Mailiao Township, Yunlin County, Taivanas 638             638雲林縣麥寮鄉中山路603號",
  "locatedIn": null,
  "plusCode": "Q62V+87 Mailiao Township, Yunlin County, Taivanas",
  "website": "hospital-1399.business.site",
  "phone": "+886 5 693 0809",
  "temporarilyClosed": false,
  "permanentlyClosed": false,
  "rank": 16,
  "placeId": "ChIJwW-hoK6objQRokZpabZihmQ",
  "url": "https://www.google.com/maps/place/%E9%BA%A5%E5%AF%AE%E5%AE%89%E5%AE%89%E5%8B%95%E7%89%A9%E9%86%AB%E9%99%A2/@23.75077,120.2409583,17z/data=!3m1!4b1!4m5!3m4!1s0x346ea8aea0a16fc1:0x648662b6696946a2!8m2!3d23.75077!4d120.243147",
  "location": {
    "lat": 23.75077,
    "lng": 120.243147
  },
  "searchString": "雲林縣的動物醫院",
  "openingHours": [
    null,
    null,
    {
      "day": "ketvirtadienis",
      "hours": "(Rudens vidurio šventė),09–19,Darbo laikas gali skirtis"
    },
    null,
    null,
    null,
    {
      "day": "pirmadienis,09–19.",
      "hours": "Slėpti savaitės darbo laiką"
    }
  ],
  "reviewsCount": 32
},
{
  "title": "佑晟動物醫院",
  "totalScore": 4.1,
  "categoryName": "Animal hospital",
  "address": "No. 30, Shunan Street, Dounan Township, Yunlin County, Taiwan 630             630雲林縣斗南鎮順安街30號",
  "locatedIn": null,
  "plusCode": "MFCH+Q7 Dounan Township, Yunlin County, Taiwan",
  "website": null,
  "phone": "+886 5 596 4798",
  "temporarilyClosed": false,
  "permanentlyClosed": false,
  "rank": 5,
  "placeId": "ChIJ760Rj7W5bjQRW6c0UIBS2Jw",
  "url": "https://www.google.com/maps/place/%E4%BD%91%E6%99%9F%E5%8B%95%E7%89%A9%E9%86%AB%E9%99%A2/@23.6718754,120.4760111,17z/data=!3m1!4b1!4m5!3m4!1s0x346eb9b58f11adef:0x9cd852805034a75b!8m2!3d23.6718754!4d120.4781998",
  "location": {
    "lat": 23.6718754,
    "lng": 120.4781998
  },
  "searchString": "雲林縣的動物醫院",
  "openingHours": [
    {
      "day": "Tuesday,",
      "hours": "9AM to 9PM"
    },
    {
      "day": "Wednesday,",
      "hours": "9AM to 9PM"
    },
    {
      "day": "Thursday",
      "hours": "(Mid-Autumn Festival), 9AM to 9PM, Hours might differ"
    },
    {
      "day": "Friday,",
      "hours": "9AM to 9PM"
    },
    {
      "day": "Saturday,",
      "hours": "9AM to 9PM"
    },
    {
      "day": "Sunday,",
      "hours": "Closed"
    },
    {
      "day": "Monday,",
      "hours": "9AM to 9PM"
    }
  ],
  "reviewsCount": 28
},
{
  "title": "International Clinic of dogs and cats",
  "totalScore": 4.5,
  "categoryName": "Animal hospital",
  "address": "No. 180, Section 2, Linsen Road, Huwei Township, Yunlin County, Taiwan 63246             63246雲林縣虎尾鎮林森路二段180號",
  "locatedIn": null,
  "plusCode": "PC3H+J8 Huwei Township, Yunlin County, Taiwan",
  "website": null,
  "phone": "+886 5 632 4100",
  "temporarilyClosed": false,
  "permanentlyClosed": false,
  "rank": 10,
  "placeId": "ChIJaeQ5YQe6bjQRZr4cwP3QEpE",
  "url": "https://www.google.com/maps/place/International+Clinic+of+dogs+and+cats/@23.7040453,120.4260673,17z/data=!3m1!4b1!4m5!3m4!1s0x346eba076139e469:0x9112d0fdc01cbe66!8m2!3d23.7040453!4d120.428256",
  "location": {
    "lat": 23.7040453,
    "lng": 120.428256
  },
  "searchString": "雲林縣的動物醫院",
  "openingHours": [
    {
      "day": "Tuesday,",
      "hours": "8:30AM to 9PM"
    },
    {
      "day": "Wednesday,",
      "hours": "8:30AM to 9PM"
    },
    {
      "day": "Thursday",
      "hours": "(Mid-Autumn Festival), 8:30AM to 9PM, Hours might differ"
    },
    {
      "day": "Friday,",
      "hours": "8:30AM to 9PM"
    },
    {
      "day": "Saturday,",
      "hours": "8:30AM to 9PM"
    },
    {
      "day": "Sunday,",
      "hours": "Closed"
    },
    {
      "day": "Monday,",
      "hours": "8:30AM to 9PM"
    }
  ],
  "reviewsCount": 346
},
{
  "title": "湯姆貓動物醫院",
  "totalScore": 4,
  "categoryName": "Animal hospital",
  "address": "632, Taiwan, 雲林縣虎尾鎮院前街18號",
  "locatedIn": null,
  "plusCode": "PC6M+46 Huwei Township, Yunlin County, Taiwan",
  "website": null,
  "phone": "+886 5 632 4857",
  "temporarilyClosed": false,
  "permanentlyClosed": false,
  "rank": 4,
  "placeId": "ChIJ7YET9aywbjQR6169QDNooWo",
  "url": "https://www.google.com/maps/place/%E6%B9%AF%E5%A7%86%E8%B2%93%E5%8B%95%E7%89%A9%E9%86%AB%E9%99%A2/@23.7103508,120.4308168,17z/data=!3m1!4b1!4m5!3m4!1s0x346eb0acf51381ed:0x6aa1683340bd5eeb!8m2!3d23.7103508!4d120.4330055",
  "location": {
    "lat": 23.7103508,
    "lng": 120.4330055
  },
  "searchString": "雲林縣的動物醫院",
  "openingHours": [
    {
      "day": "Tuesday,",
      "hours": "10AM to 9PM"
    },
    {
      "day": "Wednesday,",
      "hours": "10AM to 9PM"
    },
    {
      "day": "Thursday",
      "hours": "(Mid-Autumn Festival), 10AM to 9PM, Hours might differ"
    },
    {
      "day": "Friday,",
      "hours": "10AM to 9PM"
    },
    {
      "day": "Saturday,",
      "hours": "10AM to 9PM"
    },
    {
      "day": "Sunday,",
      "hours": "Closed"
    },
    {
      "day": "Monday,",
      "hours": "10AM to 9PM"
    }
  ],
  "reviewsCount": 26
},
{
  "title": "文志動物醫院",
  "totalScore": null,
  "categoryName": "Veterinarijos klinika",
  "address": "No. 344號, Wenhua Road, Douliu City, Yunlin County, Taivanas 640             640雲林縣斗六市文化路344號",
  "locatedIn": null,
  "plusCode": "PH63+MC Douliu, Yunlin County, Taivanas",
  "website": null,
  "phone": "+886 5 532 2735",
  "temporarilyClosed": false,
  "permanentlyClosed": false,
  "rank": 3,
  "placeId": "ChIJZVlYV0jIbjQRWqICTw3oAWo",
  "url": "https://www.google.com/maps/place/%E6%96%87%E5%BF%97%E5%8B%95%E7%89%A9%E9%86%AB%E9%99%A2/@23.7116468,120.5513188,17z/data=!3m1!4b1!4m5!3m4!1s0x346ec84857585965:0x6a01e80d4f02a25a!8m2!3d23.7116468!4d120.5535075",
  "location": {
    "lat": 23.7116468,
    "lng": 120.5535075
  },
  "searchString": "雲林縣的動物醫院",
  "openingHours": [
    null,
    null,
    {
      "day": "ketvirtadienis",
      "hours": "(Rudens vidurio šventė),09–11:30,14–17:30,19–20:30,Darbo laikas gali skirtis"
    },
    null,
    null,
    null,
    {
      "day": "pirmadienis,09–11:30,14–17:30,19–20:30.",
      "hours": "Slėpti savaitės darbo laiką"
    }
  ],
  "reviewsCount": 233
},
{
  "title": "群安動物醫院",
  "totalScore": 3,
  "categoryName": "Animal hospital",
  "address": "630, Taiwan, Yunlin County, Dounan Township, Nanchang West Road, 63號號             630雲林縣斗南鎮南昌西路63號號",
  "locatedIn": null,
  "plusCode": "MFCF+MX Dounan Township, Yunlin County, Taiwan",
  "website": null,
  "phone": null,
  "temporarilyClosed": false,
  "permanentlyClosed": false,
  "rank": 18,
  "placeId": "ChIJc-9Ba7a5bjQRtOz7S4bf5sY",
  "url": "https://www.google.com/maps/place/%E7%BE%A4%E5%AE%89%E5%8B%95%E7%89%A9%E9%86%AB%E9%99%A2/@23.6716831,120.4727456,17z/data=!3m1!4b1!4m5!3m4!1s0x346eb9b66b41ef73:0xc6e6df864bfbecb4!8m2!3d23.6716831!4d120.4749343",
  "location": {
    "lat": 23.6716831,
    "lng": 120.4749343
  },
  "searchString": "雲林縣的動物醫院",
  "reviewsCount": 3
},
{
  "title": "樺樺動物醫院",
  "totalScore": 3.9,
  "categoryName": "Animal hospital",
  "address": "號 No. 116, Wenhua Road, Beigang Township, Yunlin County, Taiwan 651             號 No. 116, 文化路北港鎮雲林縣651",
  "locatedIn": null,
  "plusCode": "H8C3+P6 Beigang Township, Yunlin County, Taiwan",
  "website": null,
  "phone": "+886 5 783 5382",
  "temporarilyClosed": false,
  "permanentlyClosed": false,
  "rank": 19,
  "placeId": "ChIJh7i8tIiibjQR6ahiuSeX8O8",
  "url": "https://www.google.com/maps/place/%E6%A8%BA%E6%A8%BA%E5%8B%95%E7%89%A9%E9%86%AB%E9%99%A2/@23.571765,120.3009253,17z/data=!3m1!4b1!4m5!3m4!1s0x346ea288b4bcb887:0xeff09727b962a8e9!8m2!3d23.571765!4d120.303114",
  "location": {
    "lat": 23.571765,
    "lng": 120.303114
  },
  "searchString": "雲林縣的動物醫院",
  "openingHours": [
    {
      "day": "Tuesday,",
      "hours": "9AM to 12:30PM, 1:30 to 6:30PM, 7:30 to 9PM"
    },
    {
      "day": "Wednesday,",
      "hours": "9AM to 12:30PM, 1:30 to 6PM"
    },
    {
      "day": "Thursday",
      "hours": "(Mid-Autumn Festival), 9AM to 12:30PM, 1:30 to 6:30PM, 7:30 to 9PM, Hours might differ"
    },
    {
      "day": "Friday,",
      "hours": "9AM to 12:30PM, 1:30 to 6:30PM, 7:30 to 9PM"
    },
    {
      "day": "Saturday,",
      "hours": "9AM to 12:30PM, 1:30 to 6PM"
    },
    {
      "day": "Sunday,",
      "hours": "Closed"
    },
    {
      "day": "Monday,",
      "hours": "9AM to 12:30PM, 1:30 to 6:30PM, 7:30 to 9PM"
    }
  ],
  "reviewsCount": 56
},
{
  "title": "和牧動物醫院",
  "totalScore": null,
  "categoryName": "Veterinarijos klinika",
  "address": "No. 454, Guangfu Road, Huwei Township, Yunlin County, Taivanas 632             No. 454, 光復路虎尾鎮雲林縣632",
  "locatedIn": null,
  "plusCode": "PC6M+CP Huwei Township, Yunlin County, Taivanas",
  "website": "facebook.com",
  "phone": "+886 5 633 0811",
  "temporarilyClosed": false,
  "permanentlyClosed": false,
  "rank": 7,
  "placeId": "ChIJjWb_3aywbjQRTIJI5VEU7WU",
  "url": "https://www.google.com/maps/place/%E5%92%8C%E7%89%A7%E5%8B%95%E7%89%A9%E9%86%AB%E9%99%A2/@23.711008,120.4321363,17z/data=!3m1!4b1!4m5!3m4!1s0x346eb0acddff668d:0x65ed1451e548824c!8m2!3d23.711008!4d120.434325",
  "location": {
    "lat": 23.711008,
    "lng": 120.434325
  },
  "searchString": "雲林縣的動物醫院",
  "openingHours": [
    null,
    null,
    {
      "day": "ketvirtadienis",
      "hours": "(Rudens vidurio šventė),09–21,Darbo laikas gali skirtis"
    },
    null,
    null,
    null,
    {
      "day": "pirmadienis,09–21.",
      "hours": "Slėpti savaitės darbo laiką"
    }
  ],
  "reviewsCount": 74
},
{
  "title": "北港家畜醫院",
  "totalScore": 3.3,
  "categoryName": "",
  "address": "No. 153, Minyue Road, Beigang Township, Yunlin County, Taiwan 651             651雲林縣北港鎮民樂路153號",
  "locatedIn": null,
  "plusCode": "H7GW+J7 Beigang Township, Yunlin County, Taiwan",
  "website": null,
  "phone": "+886 5 783 7181",
  "temporarilyClosed": false,
  "permanentlyClosed": false,
  "rank": 39,
  "placeId": "ChIJe0vCPmKibjQRNtJfsa56esc",
  "url": "https://www.google.com/maps/place/%E5%8C%97%E6%B8%AF%E5%AE%B6%E7%95%9C%E9%86%AB%E9%99%A2/@23.57655,120.2935083,17z/data=!3m1!4b1!4m5!3m4!1s0x346ea2623ec24b7b:0xc77a7aaeb15fd236!8m2!3d23.57655!4d120.295697",
  "location": {
    "lat": 23.57655,
    "lng": 120.295697
  },
  "searchString": "雲林縣的動物醫院",
  "reviewsCount": 15
},
{
  "title": "永安動物醫院",
  "totalScore": 4.3,
  "categoryName": "",
  "address": "No. 105之2號, Wenchang Road, Xiluo Township, Yunlin County, Taiwan 648             648雲林縣西螺鎮文昌路105之2號",
  "locatedIn": null,
  "plusCode": "QFX7+3C Xiluo Township, Yunlin County, Taiwan",
  "website": null,
  "phone": "+886 5 586 5311",
  "temporarilyClosed": false,
  "permanentlyClosed": false,
  "rank": 32,
  "placeId": "ChIJf2ulEzy0bjQRyqBIBAQf2VM",
  "url": "https://www.google.com/maps/place/%E6%B0%B8%E5%AE%89%E5%8B%95%E7%89%A9%E9%86%AB%E9%99%A2/@23.797635,120.4614273,17z/data=!3m1!4b1!4m5!3m4!1s0x346eb43c13a56b7f:0x53d91f040448a0ca!8m2!3d23.797635!4d120.463616",
  "location": {
    "lat": 23.797635,
    "lng": 120.463616
  },
  "searchString": "雲林縣的動物醫院",
  "reviewsCount": 8
},
{
  "title": "歐威行銷有限公司",
  "totalScore": null,
  "categoryName": "Veterinarijos klinika",
  "address": "63253, Taivanas, Yunlin County, Huwei Township, 113 號             63253雲林縣虎尾鎮113 號",
  "locatedIn": null,
  "plusCode": "MCWP+47 Huwei Township, Yunlin County, Taivanas",
  "website": null,
  "phone": "+886 5 633 6099",
  "temporarilyClosed": false,
  "permanentlyClosed": false,
  "rank": 25,
  "placeId": "ChIJw4g1fwK6bjQRdeFZI6IKgy4",
  "url": "https://www.google.com/maps/place/%E6%AD%90%E5%A8%81%E8%A1%8C%E9%8A%B7%E6%9C%89%E9%99%90%E5%85%AC%E5%8F%B8/@23.6953093,120.4335027,17z/data=!3m1!4b1!4m5!3m4!1s0x346eba027f3588c3:0x2e830aa22359e175!8m2!3d23.6953093!4d120.4356914",
  "location": {
    "lat": 23.6953093,
    "lng": 120.4356914
  },
  "searchString": "雲林縣的動物醫院",
  "openingHours": [
    null,
    null,
    {
      "day": "ketvirtadienis",
      "hours": "(Rudens vidurio šventė),Uždaryta,Darbo laikas šventinę dieną"
    },
    null,
    null,
    null,
    {
      "day": "pirmadienis,08:30–17.",
      "hours": "Slėpti savaitės darbo laiką"
    }
  ],
  "reviewsCount": 3
},
{
  "title": "愛親獸醫院",
  "totalScore": null,
  "categoryName": "",
  "address": "No. 177, Yongchang West Street, Douliu City, Yunlin County, Taivanas 640             640雲林縣斗六市永昌西街177號",
  "locatedIn": null,
  "plusCode": "PG3P+4M Douliu, Yunlin County, Taivanas",
  "website": null,
  "phone": "+886 5 536 1313",
  "temporarilyClosed": false,
  "permanentlyClosed": false,
  "rank": 41,
  "placeId": "ChIJzZjPgCLIbjQRDpborypiVck",
  "url": "https://www.google.com/maps/place/%E6%84%9B%E8%A6%AA%E7%8D%B8%E9%86%AB%E9%99%A2/@23.702867,120.5344813,17z/data=!3m1!4b1!4m5!3m4!1s0x346ec82280cf98cd:0xc955622aafe8960e!8m2!3d23.702867!4d120.53667",
  "location": {
    "lat": 23.702867,
    "lng": 120.53667
  },
  "searchString": "雲林縣的動物醫院",
  "openingHours": [
    null,
    null,
    {
      "day": "ketvirtadienis",
      "hours": "(Rudens vidurio šventė),10–21,Darbo laikas gali skirtis"
    },
    null,
    null,
    null,
    {
      "day": "pirmadienis,10–21.",
      "hours": "Slėpti savaitės darbo laiką"
    }
  ],
  "reviewsCount": 2
},
{
  "title": "培安動物醫院",
  "totalScore": 4.7,
  "categoryName": "Animal hospital",
  "address": "No. 303-1號, Gongming Road, East District, Chiayi City, Taiwan 60047             60047嘉義市東區公明路303-1號",
  "locatedIn": null,
  "plusCode": "FFH2+VC East District, Chiayi City, Taiwan",
  "website": "facebook.com",
  "phone": "+886 5 222 8119",
  "temporarilyClosed": false,
  "permanentlyClosed": false,
  "rank": 42,
  "placeId": "ChIJHYm7YzGUbjQRZs3lNt7lZgo",
  "url": "https://www.google.com/maps/place/%E5%9F%B9%E5%AE%89%E5%8B%95%E7%89%A9%E9%86%AB%E9%99%A2/@23.479738,120.448851,17z/data=!3m1!4b1!4m5!3m4!1s0x346e943163bb891d:0xa66e5de36e5cd66!8m2!3d23.479738!4d120.4510397",
  "location": {
    "lat": 23.479738,
    "lng": 120.4510397
  },
  "searchString": "雲林縣的動物醫院",
  "openingHours": [
    {
      "day": "Tuesday,",
      "hours": "10AM to 12PM, 2 to 5PM, 6 to 9PM"
    },
    {
      "day": "Wednesday,",
      "hours": "10AM to 12PM, 2 to 5PM, 6 to 9PM"
    },
    {
      "day": "Thursday",
      "hours": "(Mid-Autumn Festival), 10AM to 12PM, 2 to 5PM, 6 to 9PM, Hours might differ"
    },
    {
      "day": "Friday,",
      "hours": "10AM to 12PM, 2 to 5PM, 6 to 9PM"
    },
    {
      "day": "Saturday,",
      "hours": "10AM to 12PM, 2 to 5PM"
    },
    {
      "day": "Sunday,",
      "hours": "10AM to 12PM, 2 to 5PM"
    },
    {
      "day": "Monday,",
      "hours": "10AM to 12PM, 2 to 5PM, 6 to 9PM"
    }
  ],
  "reviewsCount": 107
},
{
  "title": "胜宏動物医院",
  "totalScore": null,
  "categoryName": "Veterinarijos klinika",
  "address": "No. 31, Zhongxin 2nd Street, Tianzhong Township, Changhua County, Taivanas 520             520彰化縣田中鎮中新二街31號",
  "locatedIn": null,
  "plusCode": "VH4Q+XP Tianzhong Township, Changhua County, Taivanas",
  "website": null,
  "phone": "+886 4 874 2410",
  "temporarilyClosed": false,
  "permanentlyClosed": false,
  "rank": 43,
  "placeId": "ChIJ07sQjMM0aTQRuZJk6wINDQk",
  "url": "https://www.google.com/maps/place/%E8%83%9C%E5%AE%8F%E5%8B%95%E7%89%A9%E5%8C%BB%E9%99%A2/@23.8574669,120.5870921,17z/data=!3m1!4b1!4m5!3m4!1s0x346934c38c10bbd3:0x90d0d02eb6492b9!8m2!3d23.8574669!4d120.5892808",
  "location": {
    "lat": 23.8574669,
    "lng": 120.5892808
  },
  "searchString": "雲林縣的動物醫院",
  "openingHours": [
    null,
    null,
    {
      "day": "ketvirtadienis",
      "hours": "(Rudens vidurio šventė),Uždaryta,Darbo laikas gali skirtis"
    },
    null,
    null,
    null,
    {
      "day": "pirmadienis,09–12,14–18,19–21.",
      "hours": "Slėpti savaitės darbo laiką"
    }
  ],
  "reviewsCount": 41
},
{
  "title": "上哲動物醫院",
  "totalScore": null,
  "categoryName": "Veterinarijos klinika",
  "address": "No. 259號, Wufeng North Road, East District, Chiayi City, Taivanas 600             600嘉義市東區吳鳳北路259號",
  "locatedIn": null,
  "plusCode": "FFJ3+55 East District, Chiayi City, Taivanas",
  "website": null,
  "phone": "+886 5 223 1500",
  "temporarilyClosed": false,
  "permanentlyClosed": false,
  "rank": 44,
  "placeId": "ChIJd4269zOUbjQRMp_QABDpNKA",
  "url": "https://www.google.com/maps/place/%E4%B8%8A%E5%93%B2%E5%8B%95%E7%89%A9%E9%86%AB%E9%99%A2/@23.4803885,120.4507305,17z/data=!3m1!4b1!4m5!3m4!1s0x346e9433f7ba8d77:0xa034e91000d09f32!8m2!3d23.4803885!4d120.4529192",
  "location": {
    "lat": 23.4803885,
    "lng": 120.4529192
  },
  "searchString": "雲林縣的動物醫院",
  "openingHours": [
    null,
    null,
    {
      "day": "ketvirtadienis",
      "hours": "(Rudens vidurio šventė),09–12,14–18,19:30–20:30,Darbo laikas gali skirtis"
    },
    null,
    null,
    null,
    {
      "day": "pirmadienis,09–12,14–18,19:30–20:30.",
      "hours": "Slėpti savaitės darbo laiką"
    }
  ],
  "reviewsCount": 60
},
{
  "title": "謝宗達動物診所",
  "totalScore": 3.9,
  "categoryName": "Animal hospital",
  "address": "No. 130, Yuanji Road, Mingjian Township, Nantou County, Taiwan 551             551南投縣名間鄉員集路130號",
  "locatedIn": null,
  "plusCode": "RPP3+72 Mingjian Township, Nantou County, Taiwan",
  "website": null,
  "phone": "+886 4 9273 4854",
  "temporarilyClosed": false,
  "permanentlyClosed": false,
  "rank": 46,
  "placeId": "ChIJMVO576IyaTQRQh_mFXCQRw8",
  "url": "https://www.google.com/maps/place/%E8%AC%9D%E5%AE%97%E9%81%94%E5%8B%95%E7%89%A9%E8%A8%BA%E6%89%80/@23.8356525,120.7004015,17z/data=!3m1!4b1!4m5!3m4!1s0x346932a2efb95331:0xf47907015e61f42!8m2!3d23.8356525!4d120.7025902",
  "location": {
    "lat": 23.8356525,
    "lng": 120.7025902
  },
  "searchString": "雲林縣的動物醫院",
  "reviewsCount": 32
},
{
  "title": "Wan Sun Veterinary Hospital",
  "totalScore": 4,
  "categoryName": "Animal hospital",
  "address": "No. 234號, Zhongshan Road, East District, Chiayi City, Taiwan 600             600嘉義市東區中山路234號",
  "locatedIn": null,
  "plusCode": "FFJ2+69 East District, Chiayi City, Taiwan",
  "website": null,
  "phone": "+886 5 225 9429",
  "temporarilyClosed": false,
  "permanentlyClosed": false,
  "rank": 45,
  "placeId": "ChIJQb2k2jOUbjQR5mQ-xNpjT1k",
  "url": "https://www.google.com/maps/place/Wan+Sun+Veterinary+Hospital/@23.480578,120.4487753,17z/data=!3m1!4b1!4m5!3m4!1s0x346e9433daa4bd41:0x594f63dac43e64e6!8m2!3d23.480578!4d120.450964",
  "location": {
    "lat": 23.480578,
    "lng": 120.450964
  },
  "searchString": "雲林縣的動物醫院",
  "openingHours": [
    {
      "day": "Tuesday,",
      "hours": "8:30AM to 9PM"
    },
    {
      "day": "Wednesday,",
      "hours": "8:30AM to 9PM"
    },
    {
      "day": "Thursday",
      "hours": "(Mid-Autumn Festival), 8:30AM to 9PM, Hours might differ"
    },
    {
      "day": "Friday,",
      "hours": "8:30AM to 9PM"
    },
    {
      "day": "Saturday,",
      "hours": "8:30AM to 9PM"
    },
    {
      "day": "Sunday,",
      "hours": "Closed"
    },
    {
      "day": "Monday,",
      "hours": "8:30AM to 9PM"
    }
  ],
  "reviewsCount": 66
},
{
  "title": "青諾動物醫院",
  "totalScore": "",
  "categoryName": "",
  "address": "No. 43號, Yanping North Road, Sihu Township, Yunlin County, Taiwan 654             654雲林縣四湖鄉延平北路43號",
  "locatedIn": null,
  "plusCode": "M534+JV Sihu Township, Yunlin County, Taiwan",
  "website": null,
  "phone": null,
  "temporarilyClosed": false,
  "permanentlyClosed": false,
  "rank": 34,
  "placeId": "ChIJoQQ5QSAebDQRdDXzv6ZKxW8",
  "url": "https://www.google.com/maps/place/%E9%9D%92%E8%AB%BE%E5%8B%95%E7%89%A9%E9%86%AB%E9%99%A2/@23.654011,120.1549963,17z/data=!3m1!4b1!4m5!3m4!1s0x346c1e20413904a1:0x6fc54aa6bff33574!8m2!3d23.654011!4d120.157185",
  "location": {
    "lat": 23.654011,
    "lng": 120.157185
  },
  "searchString": "雲林縣的動物醫院"
},
{
  "title": "麥寮家畜",
  "totalScore": "",
  "categoryName": "Veterinaras",
  "address": "No. 305號, Taishun Road, Mailiao Township, Yunlin County, Taivanas 638             638雲林縣麥寮鄉泰順路305號",
  "locatedIn": null,
  "plusCode": "Q724+Q2 Mailiao Township, Yunlin County, Taivanas",
  "website": null,
  "phone": null,
  "temporarilyClosed": false,
  "permanentlyClosed": false,
  "rank": 33,
  "placeId": "ChIJZ45L9SavbjQRJk964tnpXvw",
  "url": "https://www.google.com/maps/place/%E9%BA%A5%E5%AF%AE%E5%AE%B6%E7%95%9C/@23.7519728,120.2528118,17z/data=!3m1!4b1!4m5!3m4!1s0x346eaf26f54b8e67:0xfc5ee9d9e27a4f26!8m2!3d23.7519728!4d120.2550005",
  "location": {
    "lat": 23.7519728,
    "lng": 120.2550005
  },
  "searchString": "雲林縣的動物醫院"
},
{
  "title": "維醫動物醫院",
  "totalScore": null,
  "categoryName": "Veterinarijos klinika",
  "address": "No. 148-6, Section 2, Jianguo Road, Minxiong Township, Chiayi County, Taivanas 621             621嘉義縣民雄鄉建國路二段148-6號",
  "locatedIn": null,
  "plusCode": "GCPP+PH Minxiong Township, Chiayi County, Taivanas",
  "website": null,
  "phone": "+886 5 221 6160",
  "temporarilyClosed": false,
  "permanentlyClosed": false,
  "rank": 29,
  "placeId": "ChIJoUVxsgC-bjQRTwwltQk2WFw",
  "url": "https://www.google.com/maps/place/%E7%B6%AD%E9%86%AB%E5%8B%95%E7%89%A9%E9%86%AB%E9%99%A2/@23.5368576,120.4342749,17z/data=!3m1!4b1!4m5!3m4!1s0x346ebe00b27145a1:0x5c583609b5250c4f!8m2!3d23.5368576!4d120.4364636",
  "location": {
    "lat": 23.5368576,
    "lng": 120.4364636
  },
  "searchString": "雲林縣的動物醫院",
  "openingHours": [
    null,
    null,
    {
      "day": "ketvirtadienis",
      "hours": "(Rudens vidurio šventė),09–12,14–20,Darbo laikas gali skirtis"
    },
    null,
    null,
    null,
    {
      "day": "pirmadienis,09–12,14–20.",
      "hours": "Slėpti savaitės darbo laiką"
    }
  ],
  "reviewsCount": 141
},
{
  "title": "恩愛動物診所",
  "totalScore": 2.9,
  "categoryName": "Hospital",
  "address": "No. 108, Zhongshan Road, Lunbei Township, Yunlin County, Taiwan 637             637雲林縣崙背鄉中山路108號",
  "locatedIn": null,
  "plusCode": "Q955+X8 Lunbei Township, Yunlin County, Taiwan",
  "website": null,
  "phone": "+886 5 696 7827",
  "temporarilyClosed": false,
  "permanentlyClosed": false,
  "rank": 27,
  "placeId": "ChIJzaU4YCywbjQR7ynswdBgmy0",
  "url": "https://www.google.com/maps/place/%E6%81%A9%E6%84%9B%E5%8B%95%E7%89%A9%E8%A8%BA%E6%89%80/@23.7599628,120.356071,17z/data=!3m1!4b1!4m5!3m4!1s0x346eb02c6038a5cd:0x2d9b60d0c1ec29ef!8m2!3d23.7599628!4d120.3582597",
  "location": {
    "lat": 23.7599628,
    "lng": 120.3582597
  },
  "searchString": "雲林縣的動物醫院",
  "openingHours": [
    {
      "day": "Tuesday,",
      "hours": "8:30AM to 12PM, 2 to 6PM, 7 to 9PM"
    },
    {
      "day": "Wednesday,",
      "hours": "8:30AM to 12PM, 2 to 6PM, 7 to 9PM"
    },
    {
      "day": "Thursday",
      "hours": "(Mid-Autumn Festival), 8:30AM to 12PM, 2 to 6PM, 7 to 9PM, Hours might differ"
    },
    {
      "day": "Friday,",
      "hours": "8:30AM to 12PM, 2 to 6PM, 7 to 9PM"
    },
    {
      "day": "Saturday,",
      "hours": "8:30AM to 12PM, 2 to 6PM, 7 to 9PM"
    },
    {
      "day": "Sunday,",
      "hours": "Closed"
    },
    {
      "day": "Monday,",
      "hours": "8:30AM to 12PM, 2 to 6PM, 7 to 9PM"
    }
  ],
  "reviewsCount": 15
},
{
  "title": "德陽動物醫院",
  "totalScore": null,
  "categoryName": "Veterinarijos klinika",
  "address": "No. 426, Daming Road, Zhushan Township, Nantou County, Taivanas 557             557南投縣竹山鎮大明路426號",
  "locatedIn": null,
  "plusCode": "QM5J+QG Zhushan Township, Nantou County, Taivanas",
  "website": null,
  "phone": "+886 4 9263 1322",
  "temporarilyClosed": false,
  "permanentlyClosed": false,
  "rank": 36,
  "placeId": "ChIJI57KHbnNbjQRn9ENjfWKxkI",
  "url": "https://www.google.com/maps/place/%E5%BE%B7%E9%99%BD%E5%8B%95%E7%89%A9%E9%86%AB%E9%99%A2/@23.759497,120.6791803,17z/data=!3m1!4b1!4m5!3m4!1s0x346ecdb91dca9e23:0x42c68af58d0dd19f!8m2!3d23.759497!4d120.681369",
  "location": {
    "lat": 23.759497,
    "lng": 120.681369
  },
  "searchString": "雲林縣的動物醫院",
  "openingHours": [
    null,
    null,
    {
      "day": "ketvirtadienis",
      "hours": "(Rudens vidurio šventė),Uždaryta,Darbo laikas gali skirtis"
    },
    null,
    null,
    null,
    {
      "day": "pirmadienis,09–12,14–19.",
      "hours": "Slėpti savaitės darbo laiką"
    }
  ],
  "reviewsCount": 43
},
{
  "title": "褒忠家畜診所",
  "totalScore": 4.7,
  "categoryName": "",
  "address": "No. 117, Zhongzheng Road, Baozhong Township, Yunlin County, Taiwan 634             634雲林縣褒忠鄉中正路117號",
  "locatedIn": null,
  "plusCode": "M8V7+X3 Baozhong Township, Yunlin County, Taiwan",
  "website": null,
  "phone": "+886 5 697 1782",
  "temporarilyClosed": false,
  "permanentlyClosed": false,
  "rank": 40,
  "placeId": "ChIJVxauTRqlbjQRp8Gmw8lzoIY",
  "url": "https://www.google.com/maps/place/%E8%A4%92%E5%BF%A0%E5%AE%B6%E7%95%9C%E8%A8%BA%E6%89%80/@23.6948972,120.3104935,17z/data=!3m1!4b1!4m5!3m4!1s0x346ea51a4dae1657:0x86a073c9c3a6c1a7!8m2!3d23.6948972!4d120.3126822",
  "location": {
    "lat": 23.6948972,
    "lng": 120.3126822
  },
  "searchString": "雲林縣的動物醫院",
  "reviewsCount": 6
},
{
  "title": "行健行",
  "totalScore": 4.2,
  "categoryName": "Veterinary care",
  "address": "No. 121, Section 1, Yanping Road, Dounan Township, Yunlin County, Taiwan 630             630雲林縣斗南鎮延平路一段121號",
  "locatedIn": null,
  "plusCode": "MFVJ+83 Dounan Township, Yunlin County, Taiwan",
  "website": null,
  "phone": "+886 5 596 5789",
  "temporarilyClosed": false,
  "permanentlyClosed": false,
  "rank": 26,
  "placeId": "ChIJCQQPYdW5bjQR0A7TVWDS_zA",
  "url": "https://www.google.com/maps/place/%E8%A1%8C%E5%81%A5%E8%A1%8C/@23.693278,120.4779725,17z/data=!3m1!4b1!4m5!3m4!1s0x346eb9d5610f0409:0x30ffd26055d30ed0!8m2!3d23.693278!4d120.4801612",
  "location": {
    "lat": 23.693278,
    "lng": 120.4801612
  },
  "searchString": "雲林縣的動物醫院",
  "openingHours": [
    {
      "day": "Tuesday,",
      "hours": "9AM to 5PM"
    },
    {
      "day": "Wednesday,",
      "hours": "9AM to 5PM"
    },
    {
      "day": "Thursday",
      "hours": "(Mid-Autumn Festival), 9AM to 5PM, Hours might differ"
    },
    {
      "day": "Friday,",
      "hours": "9AM to 5PM"
    },
    {
      "day": "Saturday,",
      "hours": "9AM to 5PM"
    },
    {
      "day": "Sunday,",
      "hours": "Closed"
    },
    {
      "day": "Monday,",
      "hours": "9AM to 5PM"
    }
  ],
  "reviewsCount": 18
},
{
  "title": "佳佳動物醫院",
  "totalScore": null,
  "categoryName": "Veterinarijos klinika",
  "address": "632, Taivanas, Yunlin County, Huwei Township, Liren Street, 65號1樓             632雲林縣虎尾鎮立仁街65號1樓",
  "locatedIn": null,
  "plusCode": "PC3H+X4 Huwei Township, Yunlin County, Taivanas",
  "website": null,
  "phone": "+886 5 632 2869",
  "temporarilyClosed": false,
  "permanentlyClosed": false,
  "rank": 22,
  "placeId": "ChIJtUfajS2xbjQRL651Zda8jO8",
  "url": "https://www.google.com/maps/place/%E4%BD%B3%E4%BD%B3%E5%8B%95%E7%89%A9%E9%86%AB%E9%99%A2/@23.7049894,120.4256415,17z/data=!3m1!4b1!4m5!3m4!1s0x346eb12d8dda47b5:0xef8cbcd66575ae2f!8m2!3d23.7049894!4d120.4278302",
  "location": {
    "lat": 23.7049894,
    "lng": 120.4278302
  },
  "searchString": "雲林縣的動物醫院",
  "openingHours": [
    null,
    null,
    {
      "day": "ketvirtadienis",
      "hours": "(Rudens vidurio šventė),Uždaryta,Darbo laikas šventinę dieną"
    },
    null,
    null,
    null,
    {
      "day": "pirmadienis,10–22.",
      "hours": "Slėpti savaitės darbo laiką"
    }
  ],
  "reviewsCount": 13
},
{
  "title": "明志家畜醫院",
  "totalScore": 4.6,
  "categoryName": "",
  "address": "No. 62-2號, Chengding Street, Douliu City, Yunlin County, Taiwan 640             640雲林縣斗六市城頂街62-2號",
  "locatedIn": null,
  "plusCode": "PG4V+R4 Douliu City, Yunlin County, Taiwan",
  "website": null,
  "phone": "+886 5 532 3358",
  "temporarilyClosed": false,
  "permanentlyClosed": false,
  "rank": 38,
  "placeId": "ChIJCUNjhTvIbjQRMwXIi0OnO7o",
  "url": "https://www.google.com/maps/place/%E6%98%8E%E5%BF%97%E5%AE%B6%E7%95%9C%E9%86%AB%E9%99%A2/@23.707124,120.5406226,17z/data=!3m1!4b1!4m5!3m4!1s0x346ec83b85634309:0xba3ba7438bc80533!8m2!3d23.707124!4d120.5428113",
  "location": {
    "lat": 23.707124,
    "lng": 120.5428113
  },
  "searchString": "雲林縣的動物醫院",
  "openingHours": [
    {
      "day": "Tuesday,",
      "hours": "9AM to 5PM"
    },
    {
      "day": "Wednesday,",
      "hours": "9AM to 5PM"
    },
    {
      "day": "Thursday",
      "hours": "(Mid-Autumn Festival), 9AM to 5PM, Hours might differ"
    },
    {
      "day": "Friday,",
      "hours": "9AM to 5PM"
    },
    {
      "day": "Saturday,",
      "hours": "9AM to 5PM"
    },
    {
      "day": "Sunday,",
      "hours": "9AM to 5PM"
    },
    {
      "day": "Monday,",
      "hours": "9AM to 5PM"
    }
  ],
  "reviewsCount": 11
},
{
  "title": "聯益家畜診所",
  "totalScore": null,
  "categoryName": "Veterinarijos klinika",
  "address": "No. 18, Xiping Road, Douliu City, Yunlin County, Taivanas 640             640雲林縣斗六市西平路18號",
  "locatedIn": null,
  "plusCode": "PG4Q+WV Douliu, Yunlin County, Taivanas",
  "website": null,
  "phone": "+886 5 532 6856",
  "temporarilyClosed": false,
  "permanentlyClosed": false,
  "rank": 23,
  "placeId": "ChIJ58n9qTzIbjQRNs6C_jNd5iw",
  "url": "https://www.google.com/maps/place/%E8%81%AF%E7%9B%8A%E5%AE%B6%E7%95%9C%E8%A8%BA%E6%89%80/@23.7073474,120.53749,17z/data=!3m1!4b1!4m5!3m4!1s0x346ec83ca9fdc9e7:0x2ce65d33fe82ce36!8m2!3d23.7073474!4d120.5396787",
  "location": {
    "lat": 23.7073474,
    "lng": 120.5396787
  },
  "searchString": "雲林縣的動物醫院",
  "openingHours": [
    null,
    null,
    {
      "day": "ketvirtadienis",
      "hours": "(Rudens vidurio šventė),09–21:30,Darbo laikas gali skirtis"
    },
    null,
    null,
    null,
    {
      "day": "pirmadienis,09–21:30.",
      "hours": "Slėpti savaitės darbo laiką"
    }
  ],
  "reviewsCount": 31
},
{
  "title": "杏泰家畜診所",
  "totalScore": 5,
  "categoryName": "Veterinarian",
  "address": "637, Taiwan, Yunlin County, Lunbei Township, 水尾村28號             637雲林縣崙背鄉水尾村28號",
  "locatedIn": null,
  "plusCode": "Q8QX+3X Lunbei Township, Yunlin County, Taiwan",
  "website": null,
  "phone": "+886 5 696 2739",
  "temporarilyClosed": false,
  "permanentlyClosed": false,
  "rank": 30,
  "placeId": "ChIJaz1ZMOexbjQRtP0FXWiVI4o",
  "url": "https://www.google.com/maps/place/%E6%9D%8F%E6%B3%B0%E5%AE%B6%E7%95%9C%E8%A8%BA%E6%89%80/@23.7877436,120.3477298,17z/data=!3m1!4b1!4m5!3m4!1s0x346eb1e730593d6b:0x8a2395685d05fdb4!8m2!3d23.7877436!4d120.3499185",
  "location": {
    "lat": 23.7877436,
    "lng": 120.3499185
  },
  "searchString": "雲林縣的動物醫院",
  "reviewsCount": 1
},
{
  "title": "新生動物醫院-白色屋子",
  "totalScore": null,
  "categoryName": "Veterinarijos klinika",
  "address": "640, Taivanas, Yunlin County, Douliu City, 六合街63號             640雲林縣斗六市六合街63號",
  "locatedIn": null,
  "plusCode": "PG4Q+7W Douliu, Yunlin County, Taivanas",
  "website": null,
  "phone": "+886 5 533 8320",
  "temporarilyClosed": false,
  "permanentlyClosed": false,
  "rank": 21,
  "placeId": "ChIJL8ArhDzIbjQRnjS_Jjiq9C4",
  "url": "https://www.google.com/maps/place/%E6%96%B0%E7%94%9F%E5%8B%95%E7%89%A9%E9%86%AB%E9%99%A2-%E7%99%BD%E8%89%B2%E5%B1%8B%E5%AD%90/@23.7056994,120.5376132,17z/data=!3m1!4b1!4m5!3m4!1s0x346ec83c842bc02f:0x2ef4aa3826bf349e!8m2!3d23.7056994!4d120.5398019",
  "location": {
    "lat": 23.7056994,
    "lng": 120.5398019
  },
  "searchString": "雲林縣的動物醫院",
  "openingHours": [
    null,
    null,
    {
      "day": "ketvirtadienis",
      "hours": "(Rudens vidurio šventė),09:30–12,14:30–20:30,Darbo laikas gali skirtis"
    },
    null,
    null,
    null,
    {
      "day": "pirmadienis,09:30–12,14:30–20:30.",
      "hours": "Slėpti savaitės darbo laiką"
    }
  ],
  "reviewsCount": 53
},
{
  "title": "佳昇動物醫院",
  "totalScore": 4.6,
  "categoryName": "Hospital",
  "address": "No. 303, Xiping Road, Douliu City, Yunlin County, Taiwan 640             640雲林縣斗六市西平路303號",
  "locatedIn": null,
  "plusCode": "PG8J+45 Douliu City, Yunlin County, Taiwan",
  "website": "ptt.cc",
  "phone": "+886 5 551 1660",
  "temporarilyClosed": false,
  "permanentlyClosed": false,
  "rank": 24,
  "placeId": "ChIJnQtUeyjIbjQR_WKdu7GyqFY",
  "url": "https://www.google.com/maps/place/%E4%BD%B3%E6%98%87%E5%8B%95%E7%89%A9%E9%86%AB%E9%99%A2/@23.7152676,120.5281984,17z/data=!3m1!4b1!4m5!3m4!1s0x346ec8287b540b9d:0x56a8b2b1bb9d62fd!8m2!3d23.7152676!4d120.5303871",
  "location": {
    "lat": 23.7152676,
    "lng": 120.5303871
  },
  "searchString": "雲林縣的動物醫院",
  "openingHours": [
    {
      "day": "Tuesday,",
      "hours": "10AM to 9:30PM"
    },
    {
      "day": "Wednesday,",
      "hours": "10AM to 9:30PM"
    },
    {
      "day": "Thursday",
      "hours": "(Mid-Autumn Festival), 10AM to 9:30PM, Hours might differ"
    },
    {
      "day": "Friday,",
      "hours": "10AM to 9:30PM"
    },
    {
      "day": "Saturday,",
      "hours": "10AM to 9:30PM"
    },
    {
      "day": "Sunday,",
      "hours": "10AM to 9:30PM"
    },
    {
      "day": "Monday,",
      "hours": "10AM to 9:30PM"
    }
  ],
  "reviewsCount": 21
},
{
  "title": "朴子動物醫院",
  "totalScore": 4,
  "categoryName": "Animal hospital",
  "address": "613, Taiwan, Chiayi County, Puzi City, 大鄉里大槺榔995號             613嘉義縣朴子市大鄉里大槺榔995號",
  "locatedIn": null,
  "plusCode": "F784+6W Puzi City, Chiayi County, Taiwan",
  "website": null,
  "phone": "+886 5 379 0010",
  "temporarilyClosed": false,
  "permanentlyClosed": false,
  "rank": 37,
  "placeId": "ChIJ_____4qbbjQRd7Am0JsaXqw",
  "url": "https://www.google.com/maps/place/%E6%9C%B4%E5%AD%90%E5%8B%95%E7%89%A9%E9%86%AB%E9%99%A2/@23.4656246,120.255091,17z/data=!3m1!4b1!4m5!3m4!1s0x346e9b8affffffff:0xac5e1a9bd026b077!8m2!3d23.4656246!4d120.2572797",
  "location": {
    "lat": 23.4656246,
    "lng": 120.2572797
  },
  "searchString": "雲林縣的動物醫院",
  "openingHours": [
    {
      "day": "Tuesday,",
      "hours": "9AM to 12PM, 2:30 to 8PM"
    },
    {
      "day": "Wednesday,",
      "hours": "9AM to 12PM, 2:30 to 8PM"
    },
    {
      "day": "Thursday",
      "hours": "(Mid-Autumn Festival), 9AM to 12PM, 2:30 to 8PM, Hours might differ"
    },
    {
      "day": "Friday,",
      "hours": "9AM to 12PM, 2:30 to 8PM"
    },
    {
      "day": "Saturday,",
      "hours": "9AM to 12PM, 2:30 to 6PM"
    },
    {
      "day": "Sunday,",
      "hours": "Closed"
    },
    {
      "day": "Monday,",
      "hours": "9AM to 12PM, 2:30 to 8PM"
    }
  ],
  "reviewsCount": 122
},
{
  "title": "保生動物醫院",
  "totalScore": 3.9,
  "categoryName": "Animal hospital",
  "address": "No. 138, Siwei Street, Dalin Township, Chiayi County, Taiwan 622             622嘉義縣大林鎮四維街138號",
  "locatedIn": null,
  "plusCode": "JF26+RW Dalin Township, Chiayi County, Taiwan",
  "website": null,
  "phone": "+886 5 265 5193",
  "temporarilyClosed": false,
  "permanentlyClosed": false,
  "rank": 31,
  "placeId": "ChIJqzc4jci-bjQRE9vxdWn4gq8",
  "url": "https://www.google.com/maps/place/%E4%BF%9D%E7%94%9F%E5%8B%95%E7%89%A9%E9%86%AB%E9%99%A2/@23.602117,120.4601182,17z/data=!3m1!4b1!4m5!3m4!1s0x346ebec88d3837ab:0xaf82f86975f1db13!8m2!3d23.602117!4d120.4623069",
  "location": {
    "lat": 23.602117,
    "lng": 120.4623069
  },
  "searchString": "雲林縣的動物醫院",
  "openingHours": [
    {
      "day": "Tuesday,",
      "hours": "8AM to 9PM"
    },
    {
      "day": "Wednesday,",
      "hours": "8AM to 9PM"
    },
    {
      "day": "Thursday",
      "hours": "(Mid-Autumn Festival), 8AM to 9PM, Hours might differ"
    },
    {
      "day": "Friday,",
      "hours": "8AM to 9PM"
    },
    {
      "day": "Saturday,",
      "hours": "8AM to 9PM"
    },
    {
      "day": "Sunday,",
      "hours": "Closed"
    },
    {
      "day": "Monday,",
      "hours": "8AM to 9PM"
    }
  ],
  "reviewsCount": 67
},
{
  "title": "誠浩寵物生活館",
  "totalScore": 4.4,
  "categoryName": "Pet supply store",
  "address": "No. 55號, Jianguo 1st Road, Dounan Township, Yunlin County, Taiwan 630             630雲林縣斗南鎮建國一路55號",
  "locatedIn": null,
  "plusCode": "MFMH+CR Dounan Township, Yunlin County, Taiwan",
  "website": null,
  "phone": "+886 5 596 6561",
  "temporarilyClosed": false,
  "permanentlyClosed": false,
  "rank": 35,
  "placeId": "ChIJ65eij9K5bjQRzz2043VsRfQ",
  "url": "https://www.google.com/maps/place/%E8%AA%A0%E6%B5%A9%E5%AF%B5%E7%89%A9%E7%94%9F%E6%B4%BB%E9%A4%A8/@23.683576,120.4773553,17z/data=!3m1!4b1!4m5!3m4!1s0x346eb9d28fa297eb:0xf4456c75e3b43dcf!8m2!3d23.683576!4d120.479544",
  "location": {
    "lat": 23.683576,
    "lng": 120.479544
  },
  "searchString": "雲林縣的動物醫院",
  "openingHours": [
    {
      "day": "Tuesday,",
      "hours": "9AM to 9PM"
    },
    {
      "day": "Wednesday,",
      "hours": "9AM to 9PM"
    },
    {
      "day": "Thursday",
      "hours": "(Mid-Autumn Festival), 9AM to 9PM, Hours might differ"
    },
    {
      "day": "Friday,",
      "hours": "9AM to 9PM"
    },
    {
      "day": "Saturday,",
      "hours": "9AM to 9PM"
    },
    {
      "day": "Sunday,",
      "hours": "9AM to 6PM"
    },
    {
      "day": "Monday,",
      "hours": "9AM to 9PM"
    }
  ],
  "reviewsCount": 112
},
{
  "title": "虎尾動物醫院",
  "totalScore": null,
  "categoryName": "Veterinaras",
  "address": "No. 521號, Section 2, Linsen Road, Huwei Township, Yunlin County, Taivanas 632             632雲林縣虎尾鎮林森路二段521號",
  "locatedIn": null,
  "plusCode": "MCXF+4J Huwei Township, Yunlin County, Taivanas",
  "website": "huweiah-animalhospital.com.tw",
  "phone": "+886 5 631 1677",
  "temporarilyClosed": false,
  "permanentlyClosed": false,
  "rank": 1,
  "placeId": "ChIJO7XXfQ-6bjQRrxPzBp6JWb0",
  "url": "https://www.google.com/maps/place/%E8%99%8E%E5%B0%BE%E5%8B%95%E7%89%A9%E9%86%AB%E9%99%A2/@23.697834,120.4219053,17z/data=!3m1!4b1!4m5!3m4!1s0x346eba0f7dd7b53b:0xbd59899e06f313af!8m2!3d23.697834!4d120.424094",
  "location": {
    "lat": 23.697834,
    "lng": 120.424094
  },
  "searchString": "雲林縣的動物醫院",
  "openingHours": [
    null,
    null,
    {
      "day": "ketvirtadienis",
      "hours": "(Rudens vidurio šventė),08:30–21,Darbo laikas gali skirtis"
    },
    null,
    null,
    null,
    {
      "day": "pirmadienis,08:30–21.",
      "hours": "Slėpti savaitės darbo laiką"
    }
  ],
  "reviewsCount": 65
},
{
  "title": "鴻昌動物醫院",
  "totalScore": 4.6,
  "categoryName": "Animal hospital",
  "address": "No. 185之13號, Section 2, Jianguo Road, Minxiong Township, Chiayi County, Taiwan 621             621嘉義縣民雄鄉建國路二段185之13號",
  "locatedIn": null,
  "plusCode": "GCQM+R7 Minxiong Township, Chiayi County, Taiwan",
  "website": "business.site",
  "phone": "+886 928 357 589",
  "temporarilyClosed": false,
  "permanentlyClosed": false,
  "rank": 28,
  "placeId": "ChIJU15ZTfy9bjQRCIaRCgDcU0s",
  "url": "https://www.google.com/maps/place/%E9%B4%BB%E6%98%8C%E5%8B%95%E7%89%A9%E9%86%AB%E9%99%A2/@23.5395837,120.4310353,17z/data=!3m1!4b1!4m5!3m4!1s0x346ebdfc4d595e53:0x4b53dc000a918608!8m2!3d23.5395837!4d120.433224",
  "location": {
    "lat": 23.5395837,
    "lng": 120.433224
  },
  "searchString": "雲林縣的動物醫院",
  "reviewsCount": 9
},
{
  "title": "斗六佑安動物醫院",
  "totalScore": null,
  "categoryName": "Veterinarijos klinika",
  "address": "No. 110號, Yong'an Road, Douliu City, Yunlin County, Taivanas 640             640雲林縣斗六市永安路110號",
  "locatedIn": null,
  "plusCode": "PG5X+64 Douliu, Yunlin County, Taivanas",
  "website": "facebook.com",
  "phone": "+886 5 532 1230",
  "temporarilyClosed": false,
  "permanentlyClosed": false,
  "rank": 11,
  "placeId": "ChIJGwW3BjnIbjQR6hRIoQqNPks",
  "url": "https://www.google.com/maps/place/%E6%96%97%E5%85%AD%E4%BD%91%E5%AE%89%E5%8B%95%E7%89%A9%E9%86%AB%E9%99%A2/@23.7080323,120.5456064,17z/data=!3m1!4b1!4m5!3m4!1s0x346ec83906b7051b:0x4b3e8d0aa14814ea!8m2!3d23.7080323!4d120.5477951",
  "location": {
    "lat": 23.7080323,
    "lng": 120.5477951
  },
  "searchString": "雲林縣的動物醫院",
  "openingHours": [
    null,
    null,
    {
      "day": "ketvirtadienis",
      "hours": "(Rudens vidurio šventė),10–21,Darbo laikas gali skirtis"
    },
    null,
    null,
    null,
    {
      "day": "pirmadienis,10–21.",
      "hours": "Slėpti savaitės darbo laiką"
    }
  ],
  "reviewsCount": 134
},
{
  "title": "西螺程動物醫院",
  "totalScore": 4.5,
  "categoryName": "Veterinarian",
  "address": "No. 378 號, Pinghe South Road, Xiluo Township, Yunlin County, Taiwan 648             648雲林縣西螺鎮平和南路378 號",
  "locatedIn": null,
  "plusCode": "QFW4+8Q Xiluo Township, Yunlin County, Taiwan",
  "website": "m.facebook.com",
  "phone": "+886 5 587 7081",
  "temporarilyClosed": false,
  "permanentlyClosed": false,
  "rank": 20,
  "placeId": "ChIJG_l0vhe0bjQR6jpL4oQR4e0",
  "url": "https://www.google.com/maps/place/%E8%A5%BF%E8%9E%BA%E7%A8%8B%E5%8B%95%E7%89%A9%E9%86%AB%E9%99%A2/@23.7958457,120.4547408,17z/data=!3m1!4b1!4m5!3m4!1s0x346eb417be74f91b:0xede11184e24b3aea!8m2!3d23.7958457!4d120.4569295",
  "location": {
    "lat": 23.7958457,
    "lng": 120.4569295
  },
  "searchString": "雲林縣的動物醫院",
  "openingHours": [
    {
      "day": "Tuesday,",
      "hours": "9AM to 12PM, 2 to 9PM"
    },
    {
      "day": "Wednesday,",
      "hours": "9AM to 12PM, 2 to 9PM"
    },
    {
      "day": "Thursday",
      "hours": "(Mid-Autumn Festival), 9AM to 12PM, 2 to 9PM, Hours might differ"
    },
    {
      "day": "Friday,",
      "hours": "9AM to 12PM, 2 to 9PM"
    },
    {
      "day": "Saturday,",
      "hours": "Closed"
    },
    {
      "day": "Sunday,",
      "hours": "Closed"
    },
    {
      "day": "Monday,",
      "hours": "9AM to 12PM, 2 to 9PM"
    }
  ],
  "reviewsCount": 169
},
{
  "title": "欣欣動物醫院",
  "totalScore": null,
  "categoryName": "Veterinaras",
  "address": "No. 519, Chenggong Road, Douliu City, Yunlin County, Taivanas 640             640雲林縣斗六市成功路519號",
  "locatedIn": null,
  "plusCode": "PH33+8F Douliu, Yunlin County, Taivanas",
  "website": null,
  "phone": "+886 5 533 1122",
  "temporarilyClosed": false,
  "permanentlyClosed": false,
  "rank": 17,
  "placeId": "ChIJh3An2UDIbjQRyGhzHk-N1hc",
  "url": "https://www.google.com/maps/place/%E6%AC%A3%E6%AC%A3%E5%8B%95%E7%89%A9%E9%86%AB%E9%99%A2/@23.7032956,120.5514478,17z/data=!3m1!4b1!4m5!3m4!1s0x346ec840d9277087:0x17d68d4f1e7368c8!8m2!3d23.7032956!4d120.5536365",
  "location": {
    "lat": 23.7032956,
    "lng": 120.5536365
  },
  "searchString": "雲林縣的動物醫院",
  "openingHours": [
    null,
    null,
    {
      "day": "ketvirtadienis",
      "hours": "(Rudens vidurio šventė),09–21,Darbo laikas gali skirtis"
    },
    null,
    null,
    null,
    {
      "day": "pirmadienis,09–21.",
      "hours": "Slėpti savaitės darbo laiką"
    }
  ],
  "reviewsCount": 124
},
{
  "title": "文志動物醫院",
  "totalScore": 4,
  "categoryName": "Animal hospital",
  "address": "No. 319號, Datong Road, Beigang Township, Yunlin County, Taiwan 651             651雲林縣北港鎮大同路319號",
  "locatedIn": null,
  "plusCode": "H7FX+26 Beigang Township, Yunlin County, Taiwan",
  "website": null,
  "phone": "+886 5 773 2000",
  "temporarilyClosed": false,
  "permanentlyClosed": false,
  "rank": 13,
  "placeId": "ChIJsSvyGoiibjQRuWR_abZcKiA",
  "url": "https://www.google.com/maps/place/%E6%96%87%E5%BF%97%E5%8B%95%E7%89%A9%E9%86%AB%E9%99%A2/@23.572609,120.2958403,17z/data=!3m1!4b1!4m5!3m4!1s0x346ea2881af22bb1:0x202a5cb6697f64b9!8m2!3d23.572609!4d120.298029",
  "location": {
    "lat": 23.572609,
    "lng": 120.298029
  },
  "searchString": "雲林縣的動物醫院",
  "openingHours": [
    {
      "day": "Tuesday,",
      "hours": "9AM to 9PM"
    },
    {
      "day": "Wednesday,",
      "hours": "9AM to 9PM"
    },
    {
      "day": "Thursday",
      "hours": "(Mid-Autumn Festival), 9AM to 9PM, Hours might differ"
    },
    {
      "day": "Friday,",
      "hours": "9AM to 9PM"
    },
    {
      "day": "Saturday,",
      "hours": "9AM to 5PM"
    },
    {
      "day": "Sunday,",
      "hours": "Closed"
    },
    {
      "day": "Monday,",
      "hours": "9AM to 9PM"
    }
  ],
  "reviewsCount": 41
},
{
  "title": "弘安動物醫院",
  "totalScore": null,
  "categoryName": "Veterinarijos klinika",
  "address": "No. 276, Xiping Road, Douliu City, Yunlin County, Taivanas 64049             64049雲林縣斗六市西平路276號",
  "locatedIn": null,
  "plusCode": "PG7M+9G Douliu, Yunlin County, Taivanas",
  "website": "facebook.com",
  "phone": "+886 5 533 3536",
  "temporarilyClosed": false,
  "permanentlyClosed": false,
  "rank": 15,
  "placeId": "ChIJe0Cf_SXIbjQR7HzdBaPHlcI",
  "url": "https://www.google.com/maps/place/%E5%BC%98%E5%AE%89%E5%8B%95%E7%89%A9%E9%86%AB%E9%99%A2/@23.713427,120.5315623,17z/data=!3m1!4b1!4m5!3m4!1s0x346ec825fd9f407b:0xc295c7a305dd7cec!8m2!3d23.713427!4d120.533751",
  "location": {
    "lat": 23.713427,
    "lng": 120.533751
  },
  "searchString": "雲林縣的動物醫院",
  "openingHours": [
    null,
    null,
    {
      "day": "ketvirtadienis",
      "hours": "(Rudens vidurio šventė),09–21,Darbo laikas gali skirtis"
    },
    null,
    null,
    null,
    {
      "day": "pirmadienis,09–21.",
      "hours": "Slėpti savaitės darbo laiką"
    }
  ],
  "reviewsCount": 115
},
{
  "title": "斗六動物醫院",
  "totalScore": 4.1,
  "categoryName": "Animal hospital",
  "address": "No. 82號, Section 1, Yunlin Road, Douliu City, Yunlin County, Taiwan 640             640雲林縣斗六市雲林路一段82號",
  "locatedIn": null,
  "plusCode": "PG5Q+GR Douliu City, Yunlin County, Taiwan",
  "website": null,
  "phone": "+886 5 532 5013",
  "temporarilyClosed": false,
  "permanentlyClosed": false,
  "rank": 2,
  "placeId": "ChIJ3yEeNTvIbjQRJgsQzxiwrh8",
  "url": "https://www.google.com/maps/place/%E6%96%97%E5%85%AD%E5%8B%95%E7%89%A9%E9%86%AB%E9%99%A2/@23.708808,120.5373413,17z/data=!3m1!4b1!4m5!3m4!1s0x346ec83b351e21df:0x1faeb018cf100b26!8m2!3d23.708808!4d120.53953",
  "location": {
    "lat": 23.708808,
    "lng": 120.53953
  },
  "searchString": "雲林縣的動物醫院",
  "openingHours": [
    {
      "day": "Tuesday,",
      "hours": "9AM to 12PM, 1:30 to 6PM, 7 to 9PM"
    },
    {
      "day": "Wednesday,",
      "hours": "9AM to 12PM, 1:30 to 6PM, 7 to 9PM"
    },
    {
      "day": "Thursday",
      "hours": "(Mid-Autumn Festival), 9AM to 12PM, 1:30 to 6PM, 7 to 9PM, Hours might differ"
    },
    {
      "day": "Friday,",
      "hours": "9AM to 12PM, 1:30 to 6PM, 7 to 9PM"
    },
    {
      "day": "Saturday,",
      "hours": "9AM to 12PM, 1:30 to 6PM"
    },
    {
      "day": "Sunday,",
      "hours": "Closed"
    },
    {
      "day": "Monday,",
      "hours": "9AM to 12PM, 1:30 to 6PM, 7 to 9PM"
    }
  ],
  "reviewsCount": 75
},
{
  "title": "志成動物醫院",
  "totalScore": 3.7,
  "categoryName": "Veterinarian",
  "address": "No. 395號之1, Section 2, Linsen Road, Huwei Township, Yunlin County, Taiwan 632             632雲林縣虎尾鎮林森路二段395號之1號",
  "locatedIn": null,
  "plusCode": "PC2G+7C Huwei Township, Yunlin County, Taiwan",
  "website": null,
  "phone": "+886 5 633 0056",
  "temporarilyClosed": false,
  "permanentlyClosed": false,
  "rank": 8,
  "placeId": "ChIJVbuBbga6bjQRiZGejato0vc",
  "url": "https://www.google.com/maps/place/%E5%BF%97%E6%88%90%E5%8B%95%E7%89%A9%E9%86%AB%E9%99%A2/@23.7006528,120.4238797,17z/data=!3m1!4b1!4m5!3m4!1s0x346eba066e81bb55:0xf7d268ab8d9e9189!8m2!3d23.7006528!4d120.4260684",
  "location": {
    "lat": 23.7006528,
    "lng": 120.4260684
  },
  "searchString": "雲林縣的動物醫院",
  "openingHours": [
    {
      "day": "Tuesday,",
      "hours": "8:30AM to 9PM"
    },
    {
      "day": "Wednesday,",
      "hours": "8:30AM to 9PM"
    },
    {
      "day": "Thursday",
      "hours": "(Mid-Autumn Festival), 8:30AM to 9PM, Hours might differ"
    },
    {
      "day": "Friday,",
      "hours": "8:30AM to 9PM"
    },
    {
      "day": "Saturday,",
      "hours": "8:30AM to 9PM"
    },
    {
      "day": "Sunday,",
      "hours": "Closed"
    },
    {
      "day": "Monday,",
      "hours": "8:30AM to 9PM"
    }
  ],
  "reviewsCount": 82
},
{
  "title": "信安犬貓醫院",
  "totalScore": null,
  "categoryName": "Veterinarijos klinika",
  "address": "651, Taivanas, Yunlin County, Beigang Township, 鎮華勝路428號             651雲林縣北港鎮鎮華勝路428號",
  "locatedIn": null,
  "plusCode": "H7MX+MR Beigangas, Yunlin County, Taivanas",
  "website": null,
  "phone": "+886 5 783 5158",
  "temporarilyClosed": false,
  "permanentlyClosed": false,
  "rank": 9,
  "placeId": "ChIJT1IG-oiibjQRK0GEGVmRb7c",
  "url": "https://www.google.com/maps/place/%E4%BF%A1%E5%AE%89%E7%8A%AC%E8%B2%93%E9%86%AB%E9%99%A2/@23.5842007,120.2973823,17z/data=!3m1!4b1!4m5!3m4!1s0x346ea288fa06524f:0xb76f91591984412b!8m2!3d23.5842007!4d120.299571",
  "location": {
    "lat": 23.5842007,
    "lng": 120.299571
  },
  "searchString": "雲林縣的動物醫院",
  "openingHours": [
    null,
    null,
    {
      "day": "ketvirtadienis",
      "hours": "(Rudens vidurio šventė),09–12,14–18,19–21,Darbo laikas gali skirtis"
    },
    null,
    null,
    null,
    {
      "day": "pirmadienis,09–12,14–18,19–21.",
      "hours": "Slėpti savaitės darbo laiką"
    }
  ],
  "reviewsCount": 93
},
{
  "title": "中美動物醫院",
  "totalScore": 4.1,
  "categoryName": "Animal hospital",
  "address": "No. 175, Shunan Street, Dounan Township, Yunlin County, Taiwan 630             630雲林縣斗南鎮順安街175號",
  "locatedIn": null,
  "plusCode": "MFGG+PW Dounan Township, Yunlin County, Taiwan",
  "website": "facebook.com",
  "phone": "+886 5 597 2150      phone4",
  "temporarilyClosed": false,
  "permanentlyClosed": false,
  "rank": 6,
  "placeId": "ChIJo1VNwMu5bjQRv29aHmBbQKQ",
  "url": "https://www.google.com/maps/place/%E4%B8%AD%E7%BE%8E%E5%8B%95%E7%89%A9%E9%86%AB%E9%99%A2/@23.6767677,120.4751032,17z/data=!3m1!4b1!4m5!3m4!1s0x346eb9cbc04d55a3:0xa4405b601e5a6fbf!8m2!3d23.6767677!4d120.4772919",
  "location": {
    "lat": 23.6767677,
    "lng": 120.4772919
  },
  "searchString": "雲林縣的動物醫院",
  "openingHours": [
    {
      "day": "Tuesday,",
      "hours": "9AM to 12PM, 1 to 6:30PM, 7 to 9PM"
    },
    {
      "day": "Wednesday,",
      "hours": "9AM to 12PM, 1 to 6:30PM, 7 to 9PM"
    },
    {
      "day": "Thursday",
      "hours": "(Mid-Autumn Festival), 9AM to 12PM, 1 to 6:30PM, 7 to 9PM, Hours might differ"
    },
    {
      "day": "Friday,",
      "hours": "9AM to 12PM, 1 to 6:30PM, 7 to 9PM"
    },
    {
      "day": "Saturday,",
      "hours": "9AM to 12PM, 1 to 6:30PM, 7 to 9PM"
    },
    {
      "day": "Sunday,",
      "hours": "9AM to 5PM"
    },
    {
      "day": "Monday,",
      "hours": "9AM to 12PM, 1 to 6:30PM, 7 to 9PM"
    }
  ],
  "reviewsCount": 129
},
{
  "title": "富隆動物醫院",
  "totalScore": null,
  "categoryName": "Veterinaras",
  "address": "No. 133, Zhongzheng Road, Douliu City, Yunlin County, Taivanas 640             640雲林縣斗六市中正路133號",
  "locatedIn": null,
  "plusCode": "PG4V+MV Douliu, Yunlin County, Taivanas",
  "website": null,
  "phone": "+886 5 532 9134",
  "temporarilyClosed": false,
  "permanentlyClosed": false,
  "rank": 14,
  "placeId": "ChIJr3sd-zvIbjQRxSFSPfRJUJs",
  "url": "https://www.google.com/maps/place/%E5%AF%8C%E9%9A%86%E5%8B%95%E7%89%A9%E9%86%AB%E9%99%A2/@23.7067413,120.542455,17z/data=!3m1!4b1!4m5!3m4!1s0x346ec83bfb1d7baf:0x9b5049f43d5221c5!8m2!3d23.7067413!4d120.5446437",
  "location": {
    "lat": 23.7067413,
    "lng": 120.5446437
  },
  "searchString": "雲林縣的動物醫院",
  "reviewsCount": 12
},
{
  "title": "Jhen Dong Animal Hospital (鎮東動物醫院)",
  "totalScore": 3.9,
  "categoryName": "Animal hospital",
  "address": "No. 298號, Wenhua Road, Douliu City, Yunlin County, Taiwan 64047             64047雲林縣斗六市文化路298號",
  "locatedIn": null,
  "plusCode": "PH62+HV Douliu City, Yunlin County, Taiwan",
  "website": null,
  "phone": "+886 5 533 3725",
  "temporarilyClosed": false,
  "permanentlyClosed": false,
  "rank": 12,
  "placeId": "ChIJL7rGP0jIbjQR8DwTTcmkig4",
  "url": "https://www.google.com/maps/place/Jhen+Dong+Animal+Hospital+(%E9%8E%AE%E6%9D%B1%E5%8B%95%E7%89%A9%E9%86%AB%E9%99%A2)/@23.7114815,120.5500452,17z/data=!3m1!4b1!4m5!3m4!1s0x346ec8483fc6ba2f:0xe8aa4c94d133cf0!8m2!3d23.7114815!4d120.5522339",
  "location": {
    "lat": 23.7114815,
    "lng": 120.5522339
  },
  "searchString": "雲林縣的動物醫院",
  "openingHours": [
    {
      "day": "Tuesday,",
      "hours": "9AM to 9:30PM"
    },
    {
      "day": "Wednesday,",
      "hours": "9AM to 9:30PM"
    },
    {
      "day": "Thursday",
      "hours": "(Mid-Autumn Festival), 9AM to 9:30PM, Hours might differ"
    },
    {
      "day": "Friday,",
      "hours": "9AM to 9:30PM"
    },
    {
      "day": "Saturday,",
      "hours": "9AM to 9:30PM"
    },
    {
      "day": "Sunday,",
      "hours": "9AM to 9:30PM"
    },
    {
      "day": "Monday,",
      "hours": "9AM to 9:30PM"
    }
  ],
  "reviewsCount": 39
}]